[{"code":"01080","name":"Champdor-Corcelles","department":"01","center":{"lng":5.5882,"lat":46.0371},"population":655},{"code":"02070","name":"Bernot","department":"02","center":{"lng":3.4827,"lat":49.8827},"population":434},{"code":"02191","name":"Chivy-lès-Étouvelles","department":"02","center":{"lng":3.5838,"lat":49.5334},"population":488},{"code":"02290","name":"Essômes-sur-Marne","department":"02","center":{"lng":3.3427,"lat":49.033},"population":2698},{"code":"03060","name":"Charmeil","department":"03","center":{"lng":3.3935,"lat":46.158},"population":967},{"code":"03082","name":"Commentry","department":"03","center":{"lng":2.7509,"lat":46.2734},"population":6018},{"code":"03181","name":"Montcombroux-les-Mines","department":"03","center":{"lng":3.7249,"lat":46.3626},"population":295},{"code":"03280","name":"Terjat","department":"03","center":{"lng":2.6191,"lat":46.2152},"population":181},{"code":"04050","name":"Châteaufort","department":"04","center":{"lng":6.0263,"lat":44.2762},"population":25},{"code":"04072","name":"Draix","department":"04","center":{"lng":6.375,"lat":44.1331},"population":113},{"code":"04094","name":"Gréoux-les-Bains","department":"04","center":{"lng":5.8597,"lat":43.7628},"population":3088},{"code":"04171","name":"Rougon","department":"04","center":{"lng":6.3951,"lat":43.7866},"population":120},{"code":"04193","name":"Saint-Paul-sur-Ubaye","department":"04","center":{"lng":6.8188,"lat":44.5647},"population":195},{"code":"05040","name":"Chorges","department":"05","center":{"lng":6.287,"lat":44.5473},"population":3106},{"code":"05062","name":"Le Glaizil","department":"05","center":{"lng":5.9766,"lat":44.7483},"population":176},{"code":"05084","name":"Montgardin","department":"05","center":{"lng":6.2345,"lat":44.5419},"population":481},{"code":"05161","name":"La Salle-les-Alpes","department":"05","center":{"lng":6.5664,"lat":44.9571},"population":919},{"code":"05183","name":"Villar-Saint-Pancrace","department":"05","center":{"lng":6.6483,"lat":44.8378},"population":1433},{"code":"06030","name":"Le Cannet","department":"06","center":{"lng":7.001,"lat":43.5745},"population":40198},{"code":"06052","name":"Cuébris","department":"06","center":{"lng":6.9955,"lat":43.889},"population":132},{"code":"06074","name":"Lantosque","department":"06","center":{"lng":7.3121,"lat":43.9787},"population":1197},{"code":"06096","name":"Pierlas","department":"06","center":{"lng":7.0177,"lat":44.035},"population":99},{"code":"06151","name":"Utelle","department":"06","center":{"lng":7.2458,"lat":43.9392},"population":824},{"code":"07020","name":"Aubignas","department":"07","center":{"lng":4.6309,"lat":44.5854},"population":477},{"code":"07042","name":"Bourg-Saint-Andéol","department":"07","center":{"lng":4.6117,"lat":44.3742},"population":7506},{"code":"07064","name":"Le Cheylard","department":"07","center":{"lng":4.422,"lat":44.9061},"population":2812},{"code":"07086","name":"Étables","department":"07","center":{"lng":4.7381,"lat":45.094},"population":979},{"code":"07141","name":"Lentillères","department":"07","center":{"lng":4.2948,"lat":44.6071},"population":236},{"code":"07163","name":"Montselgues","department":"07","center":{"lng":4.0037,"lat":44.5234},"population":86},{"code":"07185","name":"Préaux","department":"07","center":{"lng":4.6458,"lat":45.1376},"population":706},{"code":"07240","name":"Saint-Georges-les-Bains","department":"07","center":{"lng":4.8088,"lat":44.8569},"population":2415},{"code":"07262","name":"Saint-Laurent-les-Bains-Laval-d'Aurelle","department":"07","center":{"lng":3.9592,"lat":44.5906},"population":184},{"code":"07284","name":"Saint-Pierre-Saint-Jean","department":"07","center":{"lng":4.0971,"lat":44.4785},"population":190},{"code":"08010","name":"Ambly-Fleury","department":"08","center":{"lng":4.4904,"lat":49.4901},"population":134},{"code":"08032","name":"Aussonce","department":"08","center":{"lng":4.3252,"lat":49.3432},"population":232},{"code":"08076","name":"Boulzicourt","department":"08","center":{"lng":4.6988,"lat":49.6905},"population":971},{"code":"08098","name":"Champigneulle","department":"08","center":{"lng":4.9319,"lat":49.3504},"population":53},{"code":"08131","name":"Cornay","department":"08","center":{"lng":4.9339,"lat":49.3012},"population":67},{"code":"08153","name":"Escombres-et-le-Chesnois","department":"08","center":{"lng":5.1268,"lat":49.6989},"population":343},{"code":"08175","name":"Foisches","department":"08","center":{"lng":4.7756,"lat":50.1291},"population":254},{"code":"08197","name":"Grandham","department":"08","center":{"lng":4.8539,"lat":49.2912},"population":36},{"code":"08230","name":"Houldizy","department":"08","center":{"lng":4.6721,"lat":49.8123},"population":404},{"code":"08252","name":"Létanne","department":"08","center":{"lng":5.0777,"lat":49.5418},"population":110},{"code":"08274","name":"Marcq","department":"08","center":{"lng":4.9199,"lat":49.3141},"population":89},{"code":"08296","name":"Montcheutin","department":"08","center":{"lng":4.8037,"lat":49.2893},"population":111},{"code":"08351","name":"Quilly","department":"08","center":{"lng":4.5858,"lat":49.405},"population":66},{"code":"08373","name":"Rumigny","department":"08","center":{"lng":4.266,"lat":49.8044},"population":269},{"code":"08395","name":"Saint-Pierre-sur-Vence","department":"08","center":{"lng":4.6833,"lat":49.702},"population":148},{"code":"08450","name":"This","department":"08","center":{"lng":4.6096,"lat":49.7512},"population":225},{"code":"08472","name":"Viel-Saint-Remy","department":"08","center":{"lng":4.4822,"lat":49.633},"population":300},{"code":"08494","name":"Wadelincourt","department":"08","center":{"lng":4.9305,"lat":49.6805},"population":447},{"code":"09022","name":"Arvigna","department":"09","center":{"lng":1.7283,"lat":43.0577},"population":237},{"code":"09044","name":"Baulou","department":"09","center":{"lng":1.5406,"lat":43.0185},"population":165},{"code":"09066","name":"Brassac","department":"09","center":{"lng":1.5151,"lat":42.9345},"population":621},{"code":"09088","name":"Caychax-et-Senconac","department":"09","center":{"lng":1.7214,"lat":42.8089},"population":14},{"code":"09121","name":"Ferrières-sur-Ariège","department":"09","center":{"lng":1.6055,"lat":42.9396},"population":775},{"code":"09143","name":"Illier-et-Laramade","department":"09","center":{"lng":1.5446,"lat":42.7905},"population":38},{"code":"09165","name":"Lesparrou","department":"09","center":{"lng":1.9408,"lat":42.9288},"population":233},{"code":"09187","name":"Mercenac","department":"09","center":{"lng":1.0685,"lat":43.0541},"population":352},{"code":"09220","name":"Orlu","department":"09","center":{"lng":1.9387,"lat":42.6586},"population":160},{"code":"09242","name":"Raissac","department":"09","center":{"lng":1.8137,"lat":42.9404},"population":49},{"code":"09264","name":"Saint-Jean-de-Verges","department":"09","center":{"lng":1.6357,"lat":43.012},"population":1288},{"code":"09341","name":"Viviès","department":"09","center":{"lng":1.7774,"lat":43.062},"population":156},{"code":"12091","name":"Drulhe","department":"12","center":{"lng":2.1361,"lat":44.4524},"population":451},{"code":"12190","name":"Prévinquières","department":"12","center":{"lng":2.244,"lat":44.3683},"population":275},{"code":"13081","name":"Rognac","department":"13","center":{"lng":5.233,"lat":43.4995},"population":12335},{"code":"14093","name":"Branville","department":"14","center":{"lng":0.0251,"lat":49.2684},"population":225},{"code":"14291","name":"Fresney-le-Vieux","department":"14","center":{"lng":-0.3869,"lat":49.0056},"population":324},{"code":"14390","name":"Maisoncelles-sur-Ajon","department":"14","center":{"lng":-0.5402,"lat":49.0593},"population":201},{"code":"15061","name":"Dienne","department":"15","center":{"lng":2.8112,"lat":45.1614},"population":238},{"code":"15083","name":"Jussac","department":"15","center":{"lng":2.4189,"lat":44.997},"population":2040},{"code":"15160","name":"Reilhac","department":"15","center":{"lng":2.4251,"lat":44.9674},"population":1094},{"code":"15182","name":"Saint-Étienne-Cantalès","department":"15","center":{"lng":2.2431,"lat":44.9455},"population":124},{"code":"16073","name":"Chalais","department":"16","center":{"lng":0.0372,"lat":45.2746},"population":1799},{"code":"16095","name":"Chenon","department":"16","center":{"lng":0.2246,"lat":45.9457},"population":125},{"code":"16150","name":"Gensac-la-Pallue","department":"16","center":{"lng":-0.2637,"lat":45.6587},"population":1614},{"code":"16194","name":"Lupsault","department":"16","center":{"lng":-0.0593,"lat":45.9378},"population":111},{"code":"16271","name":"Puymoyen","department":"16","center":{"lng":0.1704,"lat":45.611},"population":2394},{"code":"16293","name":"Saint-Adjutory","department":"16","center":{"lng":0.481,"lat":45.7694},"population":493},{"code":"16370","name":"Sireuil","department":"16","center":{"lng":0.0206,"lat":45.6217},"population":1166},{"code":"16392","name":"Valence","department":"16","center":{"lng":0.3199,"lat":45.8852},"population":190},{"code":"17041","name":"Benon","department":"17","center":{"lng":-0.7938,"lat":46.2004},"population":1811},{"code":"17063","name":"Breuil-la-Réorte","department":"17","center":{"lng":-0.6923,"lat":46.0631},"population":473},{"code":"17085","name":"Champdolent","department":"17","center":{"lng":-0.7797,"lat":45.9135},"population":419},{"code":"17140","name":"Dolus-d'Oléron","department":"17","center":{"lng":-1.2583,"lat":45.9069},"population":3187},{"code":"17162","name":"Fontaine-Chalendray","department":"17","center":{"lng":-0.179,"lat":45.9479},"population":224},{"code":"17184","name":"La Gripperie-Saint-Symphorien","department":"17","center":{"lng":-0.9538,"lat":45.7909},"population":598},{"code":"17261","name":"Neuvicq-le-Château","department":"17","center":{"lng":-0.1595,"lat":45.8086},"population":346},{"code":"17283","name":"Pons","department":"17","center":{"lng":-0.5594,"lat":45.5763},"population":4308},{"code":"17360","name":"Sainte-Marie-de-Ré","department":"17","center":{"lng":-1.3232,"lat":46.1559},"population":3392},{"code":"17382","name":"Saint-Pierre-d'Amilly","department":"17","center":{"lng":-0.6984,"lat":46.173},"population":564},{"code":"17481","name":"Voissay","department":"17","center":{"lng":-0.6021,"lat":45.9471},"population":172},{"code":"18031","name":"Blet","department":"18","center":{"lng":2.7292,"lat":46.8839},"population":565},{"code":"18053","name":"Charentonnay","department":"18","center":{"lng":2.8702,"lat":47.1455},"population":287},{"code":"18075","name":"Cours-les-Barres","department":"18","center":{"lng":3.0325,"lat":47.0227},"population":1030},{"code":"18097","name":"Fussy","department":"18","center":{"lng":2.427,"lat":47.1436},"population":1914},{"code":"18130","name":"Loye-sur-Arnon","department":"18","center":{"lng":2.402,"lat":46.6338},"population":301},{"code":"18152","name":"Montlouis","department":"18","center":{"lng":2.2455,"lat":46.8078},"population":110},{"code":"18174","name":"Osmoy","department":"18","center":{"lng":2.5094,"lat":47.063},"population":271},{"code":"18196","name":"Saint-Aignan-des-Noyers","department":"18","center":{"lng":2.8187,"lat":46.7544},"population":74},{"code":"18251","name":"Sévry","department":"18","center":{"lng":2.822,"lat":47.1384},"population":62},{"code":"18273","name":"Venesmes","department":"18","center":{"lng":2.2887,"lat":46.8496},"population":788},{"code":"19021","name":"Bellechassagne","department":"19","center":{"lng":2.2197,"lat":45.6484},"population":100},{"code":"19043","name":"La Chapelle-aux-Brocs","department":"19","center":{"lng":1.6289,"lat":45.1427},"population":460},{"code":"19065","name":"Courteix","department":"19","center":{"lng":2.3406,"lat":45.6446},"population":64},{"code":"19087","name":"Gourdon-Murat","department":"19","center":{"lng":1.9041,"lat":45.5499},"population":85},{"code":"19120","name":"Louignac","department":"19","center":{"lng":1.2695,"lat":45.2158},"population":244},{"code":"19142","name":"Monestier-Port-Dieu","department":"19","center":{"lng":2.4866,"lat":45.4963},"population":133},{"code":"19164","name":"Peyrelevade","department":"19","center":{"lng":2.0286,"lat":45.7101},"population":831},{"code":"19186","name":"Saint-Bonnet-Elvert","department":"19","center":{"lng":1.9177,"lat":45.157},"population":226},{"code":"19241","name":"Saint-Setiers","department":"19","center":{"lng":2.1185,"lat":45.6955},"population":266},{"code":"19263","name":"Soudeilles","department":"19","center":{"lng":2.0691,"lat":45.4446},"population":297},{"code":"19285","name":"Vigeois","department":"19","center":{"lng":1.5172,"lat":45.3835},"population":1295},{"code":"22090","name":"Kermaria-Sulard","department":"22","center":{"lng":-3.3748,"lat":48.7753},"population":1106},{"code":"23080","name":"Féniers","department":"23","center":{"lng":2.1225,"lat":45.7456},"population":108},{"code":"24070","name":"Busserolles","department":"24","center":{"lng":0.645,"lat":45.6751},"population":505},{"code":"24191","name":"Fraisse","department":"24","center":{"lng":0.3028,"lat":44.9337},"population":173},{"code":"24290","name":"Montferrand-du-Périgord","department":"24","center":{"lng":0.8738,"lat":44.7563},"population":155},{"code":"25060","name":"Val-d'Usiers","department":"25","center":{"lng":6.27,"lat":46.966},"population":2128},{"code":"25082","name":"Bourguignon","department":"25","center":{"lng":6.7739,"lat":47.4106},"population":880},{"code":"25181","name":"Cubrial","department":"25","center":{"lng":6.4008,"lat":47.5037},"population":148},{"code":"25280","name":"Goumois","department":"25","center":{"lng":6.94,"lat":47.2662},"population":167},{"code":"26050","name":"Bésignan","department":"26","center":{"lng":5.3265,"lat":44.3214},"population":79},{"code":"26072","name":"Chantemerle-les-Blés","department":"26","center":{"lng":4.8897,"lat":45.1222},"population":1342},{"code":"26094","name":"Claveyson","department":"26","center":{"lng":4.9362,"lat":45.1736},"population":926},{"code":"26171","name":"Manas","department":"26","center":{"lng":4.9802,"lat":44.6018},"population":178},{"code":"26193","name":"Montbrun-les-Bains","department":"26","center":{"lng":5.4313,"lat":44.1823},"population":444},{"code":"26270","name":"Rochechinard","department":"26","center":{"lng":5.2458,"lat":45.0253},"population":130},{"code":"26292","name":"Saint-Auban-sur-l'Ouvèze","department":"26","center":{"lng":5.4306,"lat":44.2961},"population":204},{"code":"27040","name":"Barquet","department":"27","center":{"lng":0.8484,"lat":49.0387},"population":449},{"code":"27062","name":"Les Monts du Roumois","department":"27","center":{"lng":0.8308,"lat":49.2734},"population":1609},{"code":"27161","name":"Claville","department":"27","center":{"lng":1.0217,"lat":49.047},"population":1068},{"code":"27183","name":"La Couture-Boussey","department":"27","center":{"lng":1.397,"lat":48.9032},"population":2301},{"code":"27260","name":"Foulbec","department":"27","center":{"lng":0.4272,"lat":49.3968},"population":649},{"code":"27282","name":"Gauville-la-Campagne","department":"27","center":{"lng":1.0854,"lat":49.0503},"population":647},{"code":"27381","name":"Malouy","department":"27","center":{"lng":0.5321,"lat":49.1286},"population":171},{"code":"27480","name":"Puchay","department":"27","center":{"lng":1.5257,"lat":49.3536},"population":609},{"code":"28030","name":"Beauche","department":"28","center":{"lng":0.9818,"lat":48.6785},"population":284},{"code":"28052","name":"Bouglainval","department":"28","center":{"lng":1.5091,"lat":48.5522},"population":737},{"code":"28074","name":"La Chapelle-d'Aunainville","department":"28","center":{"lng":1.7952,"lat":48.4154},"population":243},{"code":"28096","name":"La Chaussée-d'Ivry","department":"28","center":{"lng":1.493,"lat":48.8906},"population":1307},{"code":"28151","name":"Fessanvilliers-Mattanvilliers","department":"28","center":{"lng":1.0376,"lat":48.7017},"population":172},{"code":"28173","name":"Gasville-Oisème","department":"28","center":{"lng":1.5536,"lat":48.4734},"population":1474},{"code":"28195","name":"Houx","department":"28","center":{"lng":1.6207,"lat":48.5686},"population":750},{"code":"28272","name":"Mottereau","department":"28","center":{"lng":1.1613,"lat":48.2499},"population":152},{"code":"28294","name":"Oysonville","department":"28","center":{"lng":1.9481,"lat":48.3918},"population":526},{"code":"28371","name":"Saussay","department":"28","center":{"lng":1.4102,"lat":48.8503},"population":1090},{"code":"28393","name":"Tremblay-les-Villages","department":"28","center":{"lng":1.3871,"lat":48.59},"population":2208},{"code":"29020","name":"Briec","department":"29","center":{"lng":-4.0011,"lat":48.0964},"population":5815},{"code":"29042","name":"Crozon","department":"29","center":{"lng":-4.4679,"lat":48.2396},"population":7410},{"code":"29064","name":"Goulven","department":"29","center":{"lng":-4.2949,"lat":48.6234},"population":439},{"code":"29086","name":"Irvillac","department":"29","center":{"lng":-4.1975,"lat":48.3677},"population":1427},{"code":"29141","name":"Loqueffret","department":"29","center":{"lng":-3.8466,"lat":48.3278},"population":338},{"code":"29163","name":"Pleyber-Christ","department":"29","center":{"lng":-3.8754,"lat":48.5081},"population":3175},{"code":"29185","name":"Plouescat","department":"29","center":{"lng":-4.1851,"lat":48.6676},"population":3549},{"code":"29240","name":"Rosnoën","department":"29","center":{"lng":-4.2113,"lat":48.2725},"population":993},{"code":"29262","name":"Saint-Sauveur","department":"29","center":{"lng":-3.9992,"lat":48.4485},"population":827},{"code":"29284","name":"Treffiagat","department":"29","center":{"lng":-4.2562,"lat":47.8068},"population":2438},{"code":"2A006","name":"Alata","department":"2A","center":{"lng":8.7294,"lat":41.9702},"population":3645},{"code":"2A028","name":"Balogna","department":"2A","center":{"lng":8.7505,"lat":42.1854},"population":141},{"code":"2A127","name":"Giuncheto","department":"2A","center":{"lng":8.9582,"lat":41.5863},"population":101},{"code":"2A204","name":"Pastricciola","department":"2A","center":{"lng":9.0148,"lat":42.1444},"population":92},{"code":"2B216","name":"Piazzali","department":"2B","center":{"lng":9.4046,"lat":42.3196},"population":19},{"code":"2B238","name":"Poggio-di-Venaco","department":"2B","center":{"lng":9.2048,"lat":42.269},"population":210},{"code":"2B315","name":"Santo-Pietro-di-Venaco","department":"2B","center":{"lng":9.1764,"lat":42.2472},"population":298},{"code":"2B337","name":"Valle-di-Rostino","department":"2B","center":{"lng":9.2592,"lat":42.46},"population":168},{"code":"34091","name":"Le Cros","department":"34","center":{"lng":3.3675,"lat":43.8825},"population":57},{"code":"34190","name":"Oupia","department":"34","center":{"lng":2.7791,"lat":43.2897},"population":276},{"code":"35081","name":"Clayes","department":"35","center":{"lng":-1.8535,"lat":48.1782},"population":941},{"code":"35180","name":"Miniac-sous-Bécherel","department":"35","center":{"lng":-1.9301,"lat":48.2789},"population":788},{"code":"36071","name":"Étrechet","department":"36","center":{"lng":1.7799,"lat":46.789},"population":1002},{"code":"36093","name":"Levroux","department":"36","center":{"lng":1.5919,"lat":46.9744},"population":2802},{"code":"36170","name":"Reboursin","department":"36","center":{"lng":1.8101,"lat":47.108},"population":104},{"code":"36192","name":"Saint-Gaultier","department":"36","center":{"lng":1.4304,"lat":46.649},"population":1714},{"code":"37061","name":"Charnizay","department":"37","center":{"lng":0.9889,"lat":46.9205},"population":468},{"code":"37083","name":"Cormery","department":"37","center":{"lng":0.843,"lat":47.2585},"population":1860},{"code":"37160","name":"Morand","department":"37","center":{"lng":1.0063,"lat":47.5584},"population":348},{"code":"37182","name":"Pernay","department":"37","center":{"lng":0.5213,"lat":47.4522},"population":1556},{"code":"37281","name":"Vouvray","department":"37","center":{"lng":0.8044,"lat":47.4311},"population":3397},{"code":"38051","name":"Bougé-Chambalud","department":"38","center":{"lng":4.8977,"lat":45.3188},"population":1469},{"code":"38073","name":"Chantepérier","department":"38","center":{"lng":5.9794,"lat":44.9606},"population":211},{"code":"38095","name":"Chatte","department":"38","center":{"lng":5.2815,"lat":45.1419},"population":2476},{"code":"38150","name":"Domène","department":"38","center":{"lng":5.8367,"lat":45.2053},"population":6777},{"code":"38172","name":"Four","department":"38","center":{"lng":5.196,"lat":45.5726},"population":1672},{"code":"38194","name":"Izeaux","department":"38","center":{"lng":5.4305,"lat":45.3444},"population":2138},{"code":"38271","name":"Murianette","department":"38","center":{"lng":5.8259,"lat":45.1895},"population":866},{"code":"38370","name":"Saint-Bonnet-de-Chavagne","department":"38","center":{"lng":5.2284,"lat":45.1179},"population":659},{"code":"38392","name":"Saint-Hilaire-de-Brens","department":"38","center":{"lng":5.2913,"lat":45.677},"population":605},{"code":"39041","name":"Baume-les-Messieurs","department":"39","center":{"lng":5.6586,"lat":46.7059},"population":159},{"code":"39063","name":"Bonlieu","department":"39","center":{"lng":5.8461,"lat":46.5949},"population":218},{"code":"39085","name":"Cerniébaud","department":"39","center":{"lng":6.1252,"lat":46.7378},"population":90},{"code":"39140","name":"Chêne-Sec","department":"39","center":{"lng":5.4444,"lat":46.8533},"population":39},{"code":"39162","name":"Condamine","department":"39","center":{"lng":5.4335,"lat":46.6491},"population":246},{"code":"39184","name":"Les Crozets","department":"39","center":{"lng":5.8042,"lat":46.4654},"population":193},{"code":"39261","name":"Graye-et-Charnay","department":"39","center":{"lng":5.4532,"lat":46.4725},"population":136},{"code":"39283","name":"Lavancia-Epercy","department":"39","center":{"lng":5.6793,"lat":46.3364},"population":618},{"code":"39360","name":"Montmirey-la-Ville","department":"39","center":{"lng":5.5163,"lat":47.2181},"population":170},{"code":"39481","name":"Saint-Germain-en-Montagne","department":"39","center":{"lng":5.9358,"lat":46.7797},"population":388},{"code":"44090","name":"La Marne","department":"44","center":{"lng":-1.7251,"lat":46.9886},"population":1578},{"code":"45080","name":"Charmont-en-Beauce","department":"45","center":{"lng":2.1167,"lat":48.2382},"population":340},{"code":"46070","name":"Cieurac","department":"46","center":{"lng":1.5002,"lat":44.3773},"population":647},{"code":"46092","name":"Esclauzels","department":"46","center":{"lng":1.6008,"lat":44.4373},"population":218},{"code":"46191","name":"Mercuès","department":"46","center":{"lng":1.3893,"lat":44.4965},"population":1125},{"code":"46290","name":"Saint-Projet","department":"46","center":{"lng":1.5117,"lat":44.7471},"population":354},{"code":"47060","name":"Caudecoste","department":"47","center":{"lng":0.745,"lat":44.1227},"population":1133},{"code":"47082","name":"Dondas","department":"47","center":{"lng":0.8614,"lat":44.2397},"population":216},{"code":"47181","name":"Montagnac-sur-Lède","department":"47","center":{"lng":0.8442,"lat":44.5392},"population":271},{"code":"47280","name":"Saint-Sylvestre-sur-Lot","department":"47","center":{"lng":0.8075,"lat":44.4192},"population":2388},{"code":"48050","name":"Bédouès-Cocurès","department":"48","center":{"lng":3.6415,"lat":44.348},"population":448},{"code":"48072","name":"Grèzes","department":"48","center":{"lng":3.3405,"lat":44.5154},"population":209},{"code":"48094","name":"Massegros Causses Gorges","department":"48","center":{"lng":3.2055,"lat":44.308},"population":936},{"code":"48171","name":"Saint-Martin-de-Lansuscle","department":"48","center":{"lng":3.7493,"lat":44.219},"population":192},{"code":"48193","name":"Vebron","department":"48","center":{"lng":3.5491,"lat":44.2513},"population":225},{"code":"49161","name":"La Jaille-Yvon","department":"49","center":{"lng":-0.6889,"lat":47.7226},"population":343},{"code":"49183","name":"Val d'Erdre-Auxence","department":"49","center":{"lng":-0.9374,"lat":47.5049},"population":4967},{"code":"49260","name":"La Romagne","department":"49","center":{"lng":-1.0082,"lat":47.0559},"population":2012},{"code":"49381","name":"Yzernay","department":"49","center":{"lng":-0.6909,"lat":47.0292},"population":1829},{"code":"56091","name":"Josselin","department":"56","center":{"lng":-2.5517,"lat":47.9548},"population":2559},{"code":"56190","name":"Réguiny","department":"56","center":{"lng":-2.7661,"lat":47.9879},"population":1944},{"code":"57081","name":"Bidestroff","department":"57","center":{"lng":6.7918,"lat":48.8423},"population":121},{"code":"57180","name":"Dolving","department":"57","center":{"lng":7.0179,"lat":48.767},"population":341},{"code":"58071","name":"Chevannes-Changy","department":"58","center":{"lng":3.4547,"lat":47.2889},"population":136},{"code":"58093","name":"Cuncy-lès-Varzy","department":"58","center":{"lng":3.4585,"lat":47.3619},"population":122},{"code":"58170","name":"Monceaux-le-Comte","department":"58","center":{"lng":3.6637,"lat":47.331},"population":126},{"code":"58192","name":"Neuville-lès-Decize","department":"58","center":{"lng":3.2981,"lat":46.7755},"population":211},{"code":"58291","name":"Thianges","department":"58","center":{"lng":3.4837,"lat":46.9128},"population":173},{"code":"59061","name":"Beaurepaire-sur-Sambre","department":"59","center":{"lng":3.7988,"lat":50.0611},"population":277},{"code":"59083","name":"Bissezeele","department":"59","center":{"lng":2.4058,"lat":50.9128},"population":242},{"code":"59160","name":"Crespin","department":"59","center":{"lng":3.6507,"lat":50.4211},"population":4541},{"code":"59182","name":"Drincham","department":"59","center":{"lng":2.3199,"lat":50.9103},"population":282},{"code":"59281","name":"Hantay","department":"59","center":{"lng":2.8682,"lat":50.5384},"population":1249},{"code":"66090","name":"Jujols","department":"66","center":{"lng":2.2823,"lat":42.5852},"population":42},{"code":"67080","name":"Dachstein","department":"67","center":{"lng":7.5415,"lat":48.5542},"population":1755},{"code":"68092","name":"Fislis","department":"68","center":{"lng":7.3836,"lat":47.5137},"population":387},{"code":"68191","name":"Luemschwiller","department":"68","center":{"lng":7.299,"lat":47.6548},"population":747},{"code":"68290","name":"Rustenhart","department":"68","center":{"lng":7.4806,"lat":47.9402},"population":964},{"code":"69060","name":"Claveisolles","department":"69","center":{"lng":4.5095,"lat":46.0966},"population":557},{"code":"69082","name":"Émeringes","department":"69","center":{"lng":4.6754,"lat":46.224},"population":278},{"code":"69181","name":"Saint-Appolinaire","department":"69","center":{"lng":4.4275,"lat":45.9772},"population":235},{"code":"69280","name":"Jons","department":"69","center":{"lng":5.0798,"lat":45.7978},"population":1594},{"code":"78190","name":"Croissy-sur-Seine","department":"78","center":{"lng":2.1342,"lat":48.8805},"population":10580},{"code":"79081","name":"Chauray","department":"79","center":{"lng":-0.3862,"lat":46.3537},"population":7173},{"code":"80609","name":"Oneux","department":"80","center":{"lng":1.9812,"lat":50.1445},"population":445},{"code":"80708","name":"Saint-Mard","department":"80","center":{"lng":2.7578,"lat":49.6891},"population":157},{"code":"80807","name":"Ville-sur-Ancre","department":"80","center":{"lng":2.6171,"lat":49.9537},"population":274},{"code":"80829","name":"Y","department":"80","center":{"lng":2.9879,"lat":49.8022},"population":88},{"code":"88090","name":"Charmes","department":"88","center":{"lng":6.3225,"lat":48.383},"population":4489},{"code":"89080","name":"La Chapelle-sur-Oreuse","department":"89","center":{"lng":3.3016,"lat":48.2955},"population":668}]