[{"code":"01006","name":"Ambléon","department":"01","center":{"lng":5.5928,"lat":45.7483},"population":114},{"code":"01028","name":"Baneins","department":"01","center":{"lng":4.9045,"lat":46.1117},"population":618},{"code":"01105","name":"Civrieux","department":"01","center":{"lng":4.8895,"lat":45.9208},"population":1986},{"code":"01127","name":"Courmangoux","department":"01","center":{"lng":5.3585,"lat":46.3243},"population":513},{"code":"01149","name":"Douvres","department":"01","center":{"lng":5.3724,"lat":45.9847},"population":1108},{"code":"01204","name":"Le Poizat-Lalleyriat","department":"01","center":{"lng":5.6955,"lat":46.1392},"population":740},{"code":"01248","name":"Mionnay","department":"01","center":{"lng":4.9274,"lat":45.8959},"population":2309},{"code":"01303","name":"Poncin","department":"01","center":{"lng":5.4129,"lat":46.0918},"population":1766},{"code":"01325","name":"Rignieux-le-Franc","department":"01","center":{"lng":5.1675,"lat":45.9513},"population":1131},{"code":"01347","name":"Saint-Didier-de-Formans","department":"01","center":{"lng":4.7767,"lat":45.9587},"population":2176},{"code":"01369","name":"Saint-Just","department":"01","center":{"lng":5.285,"lat":46.1948},"population":953},{"code":"01402","name":"Sermoyer","department":"01","center":{"lng":4.9733,"lat":46.4987},"population":659},{"code":"01424","name":"Tramoyes","department":"01","center":{"lng":4.9624,"lat":45.8742},"population":1845},{"code":"01446","name":"Villeneuve","department":"01","center":{"lng":4.8598,"lat":46.0346},"population":1603},{"code":"02018","name":"Anizy-le-Grand","department":"02","center":{"lng":3.4426,"lat":49.5159},"population":2510},{"code":"02117","name":"Bray-Saint-Christophe","department":"02","center":{"lng":3.142,"lat":49.7738},"population":65},{"code":"02139","name":"Caillouël-Crépigny","department":"02","center":{"lng":3.1226,"lat":49.6174},"population":459},{"code":"02216","name":"Corcy","department":"02","center":{"lng":3.1957,"lat":49.2528},"population":318},{"code":"02238","name":"Crépy","department":"02","center":{"lng":3.5088,"lat":49.6089},"population":1807},{"code":"02315","name":"Flavy-le-Martel","department":"02","center":{"lng":3.1921,"lat":49.7086},"population":1698},{"code":"02337","name":"Froidestrées","department":"02","center":{"lng":3.9097,"lat":49.9432},"population":194},{"code":"02359","name":"Grugies","department":"02","center":{"lng":3.2787,"lat":49.8106},"population":1248},{"code":"02414","name":"Lavaqueresse","department":"02","center":{"lng":3.7163,"lat":49.9453},"population":202},{"code":"02458","name":"Dhuys et Morin-en-Brie","department":"02","center":{"lng":3.5092,"lat":48.8917},"population":825},{"code":"02513","name":"Montigny-le-Franc","department":"02","center":{"lng":3.9188,"lat":49.6876},"population":138},{"code":"02535","name":"Nampcelles-la-Cour","department":"02","center":{"lng":3.9999,"lat":49.7775},"population":114},{"code":"02557","name":"Noroy-sur-Ourcq","department":"02","center":{"lng":3.207,"lat":49.2031},"population":126},{"code":"02579","name":"Oulchy-la-Ville","department":"02","center":{"lng":3.342,"lat":49.2085},"population":127},{"code":"02612","name":"Pont-Arcy","department":"02","center":{"lng":3.6215,"lat":49.3918},"population":118},{"code":"02634","name":"Raillimont","department":"02","center":{"lng":4.1612,"lat":49.7028},"population":89},{"code":"02656","name":"Roucy","department":"02","center":{"lng":3.8162,"lat":49.3787},"population":375},{"code":"02678","name":"Sainte-Geneviève","department":"02","center":{"lng":4.0744,"lat":49.7248},"population":70},{"code":"02711","name":"Serches","department":"02","center":{"lng":3.4492,"lat":49.3322},"population":277},{"code":"02755","name":"Urcel","department":"02","center":{"lng":3.5575,"lat":49.4936},"population":539},{"code":"02777","name":"Vendières","department":"02","center":{"lng":3.4449,"lat":48.8748},"population":129},{"code":"02799","name":"Vierzy","department":"02","center":{"lng":3.2762,"lat":49.2873},"population":378},{"code":"02810","name":"Villers-Cotterêts","department":"02","center":{"lng":3.1025,"lat":49.2197},"population":10376},{"code":"02832","name":"Wiège-Faty","department":"02","center":{"lng":3.7192,"lat":49.8852},"population":181},{"code":"03008","name":"Arronnes","department":"03","center":{"lng":3.5714,"lat":46.0513},"population":382},{"code":"03107","name":"Ébreuil","department":"03","center":{"lng":3.074,"lat":46.1121},"population":1292},{"code":"03129","name":"Hyds","department":"03","center":{"lng":2.8283,"lat":46.2715},"population":301},{"code":"03206","name":"La Petite-Marche","department":"03","center":{"lng":2.5662,"lat":46.1893},"population":165},{"code":"03228","name":"Saint-Éloy-d'Allier","department":"03","center":{"lng":2.3605,"lat":46.4984},"population":56},{"code":"03305","name":"Verneix","department":"03","center":{"lng":2.6759,"lat":46.4083},"population":577},{"code":"04218","name":"Thorame-Basse","department":"04","center":{"lng":6.4854,"lat":44.1019},"population":208},{"code":"05109","name":"Puy-Saint-Pierre","department":"05","center":{"lng":6.6047,"lat":44.8974},"population":517},{"code":"07309","name":"Satillieu","department":"07","center":{"lng":4.5925,"lat":45.142},"population":1502},{"code":"10015","name":"Aubeterre","department":"10","center":{"lng":4.1078,"lat":48.4215},"population":391},{"code":"10037","name":"Bercenay-en-Othe","department":"10","center":{"lng":3.8984,"lat":48.1959},"population":419},{"code":"10059","name":"Braux","department":"10","center":{"lng":4.4595,"lat":48.4814},"population":113},{"code":"10114","name":"Crancey","department":"10","center":{"lng":3.6387,"lat":48.5191},"population":697},{"code":"10136","name":"Éguilly-sous-Bois","department":"10","center":{"lng":4.5396,"lat":48.1367},"population":114},{"code":"10158","name":"Fouchères","department":"10","center":{"lng":4.2755,"lat":48.1447},"population":507},{"code":"10213","name":"Magnant","department":"10","center":{"lng":4.4217,"lat":48.1712},"population":163},{"code":"10235","name":"Mesnil-la-Comtesse","department":"10","center":{"lng":4.1975,"lat":48.5003},"population":56},{"code":"10257","name":"Morembert","department":"10","center":{"lng":4.3317,"lat":48.5039},"population":29},{"code":"10279","name":"Pars-lès-Chavanges","department":"10","center":{"lng":4.5005,"lat":48.5177},"population":47},{"code":"10312","name":"Racines","department":"10","center":{"lng":3.8487,"lat":48.0496},"population":177},{"code":"10334","name":"Saint-Aubin","department":"10","center":{"lng":3.5526,"lat":48.4822},"population":591},{"code":"10356","name":"Saint-Oulph","department":"10","center":{"lng":3.8746,"lat":48.5262},"population":326},{"code":"10378","name":"Thors","department":"10","center":{"lng":4.8033,"lat":48.305},"population":68},{"code":"10411","name":"La Ville-aux-Bois","department":"10","center":{"lng":4.6883,"lat":48.4044},"population":28},{"code":"10433","name":"Villy-en-Trodes","department":"10","center":{"lng":4.389,"lat":48.1985},"population":260},{"code":"11005","name":"Alairac","department":"11","center":{"lng":2.2387,"lat":43.1848},"population":1389},{"code":"11027","name":"Barbaira","department":"11","center":{"lng":2.5162,"lat":43.1774},"population":787},{"code":"11049","name":"Bram","department":"11","center":{"lng":2.1108,"lat":43.2511},"population":3252},{"code":"11104","name":"Counozouls","department":"11","center":{"lng":2.2284,"lat":42.7007},"population":56},{"code":"11126","name":"Escales","department":"11","center":{"lng":2.7033,"lat":43.2232},"population":497},{"code":"11148","name":"Fontcouverte","department":"11","center":{"lng":2.6904,"lat":43.1693},"population":574},{"code":"11203","name":"Lézignan-Corbières","department":"11","center":{"lng":2.7649,"lat":43.1983},"population":10855},{"code":"11225","name":"Mas-Saintes-Puelles","department":"11","center":{"lng":1.8808,"lat":43.3119},"population":937},{"code":"11247","name":"Monthaut","department":"11","center":{"lng":2.0584,"lat":43.0849},"population":37},{"code":"11269","name":"Ouveillan","department":"11","center":{"lng":2.9687,"lat":43.2926},"population":2635},{"code":"11302","name":"Puilaurens","department":"11","center":{"lng":2.2941,"lat":42.8119},"population":272},{"code":"11324","name":"Roubia","department":"11","center":{"lng":2.7977,"lat":43.2507},"population":514},{"code":"11346","name":"Saint-Jean-de-Paracol","department":"11","center":{"lng":2.1047,"lat":42.937},"population":137},{"code":"11368","name":"Sallèles-Cabardès","department":"11","center":{"lng":2.4109,"lat":43.3217},"population":117},{"code":"11401","name":"Tuchan","department":"11","center":{"lng":2.7366,"lat":42.9114},"population":790},{"code":"11423","name":"Villefloure","department":"11","center":{"lng":2.3887,"lat":43.1281},"population":157},{"code":"12017","name":"Ayssènes","department":"12","center":{"lng":2.7619,"lat":44.0916},"population":221},{"code":"12039","name":"Brusque","department":"12","center":{"lng":2.9513,"lat":43.7645},"population":259},{"code":"12116","name":"Huparlac","department":"12","center":{"lng":2.7467,"lat":44.7183},"population":252},{"code":"12138","name":"Marcillac-Vallon","department":"12","center":{"lng":2.4612,"lat":44.4776},"population":1714},{"code":"12215","name":"Saint-Christophe-Vallon","department":"12","center":{"lng":2.3927,"lat":44.4785},"population":1181},{"code":"12237","name":"Saint-Laurent-d'Olt","department":"12","center":{"lng":3.0946,"lat":44.4464},"population":631},{"code":"12259","name":"Sanvensa","department":"12","center":{"lng":2.0434,"lat":44.281},"population":643},{"code":"13007","name":"Auriol","department":"13","center":{"lng":5.6559,"lat":43.3594},"population":12986},{"code":"13029","name":"Cornillon-Confoux","department":"13","center":{"lng":5.0753,"lat":43.5762},"population":1619},{"code":"13106","name":"Septèmes-les-Vallons","department":"13","center":{"lng":5.3828,"lat":43.3931},"population":12018},{"code":"14019","name":"Arganchy","department":"14","center":{"lng":-0.7304,"lat":49.2295},"population":216},{"code":"14118","name":"Caen","department":"14","center":{"lng":-0.3722,"lat":49.1846},"population":108398},{"code":"14239","name":"Englesqueville-la-Percée","department":"14","center":{"lng":-0.95,"lat":49.3768},"population":93},{"code":"14316","name":"Grangues","department":"14","center":{"lng":-0.0609,"lat":49.2627},"population":289},{"code":"14338","name":"Houlgate","department":"14","center":{"lng":-0.0674,"lat":49.297},"population":1657},{"code":"14437","name":"Mondeville","department":"14","center":{"lng":-0.3097,"lat":49.1707},"population":10286},{"code":"14514","name":"Pont-l'Évêque","department":"14","center":{"lng":0.1829,"lat":49.2905},"population":5116},{"code":"14536","name":"La Rivière-Saint-Sauveur","department":"14","center":{"lng":0.2641,"lat":49.4086},"population":2535},{"code":"14558","name":"Saint-Aubin-d'Arquenay","department":"14","center":{"lng":-0.2844,"lat":49.2617},"population":1119},{"code":"14613","name":"Saint-Marcouf","department":"14","center":{"lng":-1.0024,"lat":49.2552},"population":86},{"code":"14635","name":"Saint-Omer","department":"14","center":{"lng":-0.4426,"lat":48.9296},"population":190},{"code":"14657","name":"Saint-Samson","department":"14","center":{"lng":-0.1518,"lat":49.191},"population":313},{"code":"14679","name":"Subles","department":"14","center":{"lng":-0.7477,"lat":49.2379},"population":675},{"code":"14712","name":"Troarn","department":"14","center":{"lng":-0.1844,"lat":49.1941},"population":3442},{"code":"14734","name":"Vendes","department":"14","center":{"lng":-0.6001,"lat":49.1416},"population":335},{"code":"14756","name":"La Villette","department":"14","center":{"lng":-0.5428,"lat":48.9089},"population":222},{"code":"15009","name":"Apchon","department":"15","center":{"lng":2.7013,"lat":45.2446},"population":180},{"code":"15108","name":"Val d'Arcomie","department":"15","center":{"lng":3.1723,"lat":44.9193},"population":946},{"code":"15207","name":"Saint-Poncy","department":"15","center":{"lng":3.1914,"lat":45.1691},"population":337},{"code":"15229","name":"Soulages","department":"15","center":{"lng":3.2714,"lat":45.0897},"population":83},{"code":"16318","name":"Saint-Front","department":"16","center":{"lng":0.2831,"lat":45.8969},"population":358},{"code":"17209","name":"Lonzac","department":"17","center":{"lng":-0.3955,"lat":45.5917},"population":268},{"code":"17308","name":"Saint-Agnant","department":"17","center":{"lng":-0.9545,"lat":45.8677},"population":2774},{"code":"17407","name":"Sainte-Soulle","department":"17","center":{"lng":-1.006,"lat":46.1966},"population":5016},{"code":"17429","name":"Soubise","department":"17","center":{"lng":-1.0041,"lat":45.9099},"population":3935},{"code":"21004","name":"Aignay-le-Duc","department":"21","center":{"lng":4.7482,"lat":47.6736},"population":263},{"code":"21026","name":"Asnières-en-Montagne","department":"21","center":{"lng":4.2974,"lat":47.7125},"population":170},{"code":"21048","name":"Barges","department":"21","center":{"lng":5.0578,"lat":47.2097},"population":656},{"code":"21103","name":"Brazey-en-Plaine","department":"21","center":{"lng":5.2102,"lat":47.1378},"population":2425},{"code":"21125","name":"Cérilly","department":"21","center":{"lng":4.4924,"lat":47.8529},"population":214},{"code":"21147","name":"Charny","department":"21","center":{"lng":4.4249,"lat":47.3326},"population":34},{"code":"21169","name":"Chevannes","department":"21","center":{"lng":4.8338,"lat":47.1586},"population":169},{"code":"21202","name":"Courban","department":"21","center":{"lng":4.747,"lat":47.9093},"population":140},{"code":"21224","name":"Dampierre-en-Montagne","department":"21","center":{"lng":4.5534,"lat":47.4428},"population":61},{"code":"21246","name":"Épernay-sous-Gevrey","department":"21","center":{"lng":5.0359,"lat":47.1721},"population":156},{"code":"21268","name":"Flagey-lès-Auxonne","department":"21","center":{"lng":5.393,"lat":47.131},"population":206},{"code":"21301","name":"Glanon","department":"21","center":{"lng":5.1089,"lat":47.0398},"population":275},{"code":"21323","name":"Jancigny","department":"21","center":{"lng":5.424,"lat":47.382},"population":153},{"code":"21345","name":"Léry","department":"21","center":{"lng":4.8496,"lat":47.5559},"population":203},{"code":"21367","name":"Magny-Montarlot","department":"21","center":{"lng":5.3466,"lat":47.247},"population":261},{"code":"21389","name":"Marmagne","department":"21","center":{"lng":4.3842,"lat":47.6416},"population":197},{"code":"21400","name":"Le Meix","department":"21","center":{"lng":4.9382,"lat":47.592},"population":43},{"code":"21422","name":"Molphey","department":"21","center":{"lng":4.2059,"lat":47.3337},"population":130},{"code":"21444","name":"Mosson","department":"21","center":{"lng":4.6298,"lat":47.9198},"population":68},{"code":"21466","name":"Oigny","department":"21","center":{"lng":4.7269,"lat":47.5846},"population":40},{"code":"21488","name":"Poinçon-lès-Larrey","department":"21","center":{"lng":4.4578,"lat":47.8745},"population":193},{"code":"21521","name":"Remilly-sur-Tille","department":"21","center":{"lng":5.2369,"lat":47.3082},"population":979},{"code":"21543","name":"Saint-Broing-les-Moines","department":"21","center":{"lng":4.8309,"lat":47.6996},"population":184},{"code":"21565","name":"Saint-Philibert","department":"21","center":{"lng":5.0112,"lat":47.204},"population":542},{"code":"21587","name":"Saulx-le-Duc","department":"21","center":{"lng":5.0259,"lat":47.5514},"population":248},{"code":"21620","name":"Tarsul","department":"21","center":{"lng":4.9783,"lat":47.521},"population":160},{"code":"21642","name":"Toutry","department":"21","center":{"lng":4.1287,"lat":47.5022},"population":408},{"code":"21664","name":"Verdonnet","department":"21","center":{"lng":4.33,"lat":47.7419},"population":69},{"code":"21686","name":"Villaines-les-Prévôtes","department":"21","center":{"lng":4.3006,"lat":47.5572},"population":143},{"code":"22016","name":"Île-de-Bréhat","department":"22","center":{"lng":-3.0083,"lat":48.8501},"population":427},{"code":"22115","name":"Lanrivain","department":"22","center":{"lng":-3.2086,"lat":48.351},"population":465},{"code":"22137","name":"Maël-Carhaix","department":"22","center":{"lng":-3.4168,"lat":48.2902},"population":1455},{"code":"22214","name":"Plouézec","department":"22","center":{"lng":-2.976,"lat":48.745},"population":3129},{"code":"22236","name":"Pludual","department":"22","center":{"lng":-2.9868,"lat":48.6653},"population":737},{"code":"22258","name":"Quessoy","department":"22","center":{"lng":-2.6587,"lat":48.4273},"population":3930},{"code":"22313","name":"Saint-Martin-des-Prés","department":"22","center":{"lng":-2.9674,"lat":48.3031},"population":321},{"code":"22335","name":"Senven-Léhart","department":"22","center":{"lng":-3.0609,"lat":48.4356},"population":241},{"code":"22379","name":"Trévou-Tréguignec","department":"22","center":{"lng":-3.3451,"lat":48.811},"population":1581},{"code":"23006","name":"Arrènes","department":"23","center":{"lng":1.5683,"lat":46.0714},"population":205},{"code":"23028","name":"Bosroger","department":"23","center":{"lng":2.2505,"lat":46.0045},"population":117},{"code":"23105","name":"Lavaveix-les-Mines","department":"23","center":{"lng":2.0934,"lat":46.0748},"population":642},{"code":"23127","name":"Mautes","department":"23","center":{"lng":2.3876,"lat":45.9354},"population":198},{"code":"23149","name":"Parsac","department":"23","center":{"lng":2.1338,"lat":46.2069},"population":713},{"code":"23204","name":"Saint-Julien-le-Châtel","department":"23","center":{"lng":2.2707,"lat":46.122},"population":150},{"code":"23226","name":"Saint-Pardoux-d'Arnet","department":"23","center":{"lng":2.3208,"lat":45.8769},"population":164},{"code":"23248","name":"Saint-Victor-en-Marche","department":"23","center":{"lng":1.8012,"lat":46.1226},"population":348},{"code":"24018","name":"Auriac-du-Périgord","department":"24","center":{"lng":1.1286,"lat":45.1116},"population":400},{"code":"24117","name":"Les Coteaux Périgourdins","department":"24","center":{"lng":1.3646,"lat":45.092},"population":551},{"code":"24139","name":"Coursac","department":"24","center":{"lng":0.645,"lat":45.131},"population":2326},{"code":"24216","name":"La Jemaye-Ponteyraud","department":"24","center":{"lng":0.2602,"lat":45.1666},"population":148},{"code":"24238","name":"Lempzours","department":"24","center":{"lng":0.8279,"lat":45.3556},"population":133},{"code":"24337","name":"Prats-du-Périgord","department":"24","center":{"lng":1.0696,"lat":44.6836},"population":144},{"code":"24359","name":"Sadillac","department":"24","center":{"lng":0.4907,"lat":44.7287},"population":102},{"code":"24414","name":"Saint-Georges-de-Montclard","department":"24","center":{"lng":0.6127,"lat":44.9312},"population":279},{"code":"24436","name":"Saint-Laurent-des-Hommes","department":"24","center":{"lng":0.2509,"lat":45.0421},"population":1022},{"code":"24458","name":"Saint-Martin-le-Pin","department":"24","center":{"lng":0.6307,"lat":45.5521},"population":273},{"code":"24513","name":"Saint-Vincent-sur-l'Isle","department":"24","center":{"lng":0.9002,"lat":45.2407},"population":309},{"code":"24535","name":"Simeyrols","department":"24","center":{"lng":1.3367,"lat":44.9137},"population":256},{"code":"24557","name":"Trélissac","department":"24","center":{"lng":0.7738,"lat":45.2114},"population":7319},{"code":"25008","name":"Aibre","department":"25","center":{"lng":6.6995,"lat":47.5532},"population":449},{"code":"25107","name":"Cendrey","department":"25","center":{"lng":6.2446,"lat":47.3935},"population":200},{"code":"25129","name":"Chassagne-Saint-Denis","department":"25","center":{"lng":6.1064,"lat":47.0828},"population":129},{"code":"25228","name":"Étupes","department":"25","center":{"lng":6.8734,"lat":47.5056},"population":3711},{"code":"25305","name":"L'Hôpital-du-Grosbois","department":"25","center":{"lng":6.2111,"lat":47.1794},"population":605},{"code":"25327","name":"Lanthenans","department":"25","center":{"lng":6.6257,"lat":47.3915},"population":70},{"code":"25349","name":"Loray","department":"25","center":{"lng":6.4933,"lat":47.1572},"population":636},{"code":"25404","name":"Montmahoux","department":"25","center":{"lng":6.0317,"lat":46.9817},"population":91},{"code":"25426","name":"Noirefontaine","department":"25","center":{"lng":6.7669,"lat":47.3461},"population":325},{"code":"25448","name":"Pelousey","department":"25","center":{"lng":5.9251,"lat":47.2798},"population":1588},{"code":"25503","name":"Rosières-sur-Barbèche","department":"25","center":{"lng":6.6583,"lat":47.3152},"population":110},{"code":"25525","name":"Saint-Point-Lac","department":"25","center":{"lng":6.2976,"lat":46.8078},"population":305},{"code":"25547","name":"Sochaux","department":"25","center":{"lng":6.8305,"lat":47.5146},"population":3772},{"code":"25569","name":"Trépot","department":"25","center":{"lng":6.1688,"lat":47.1688},"population":558},{"code":"25602","name":"Vergranne","department":"25","center":{"lng":6.3935,"lat":47.4081},"population":117},{"code":"25624","name":"Villers-Grélot","department":"25","center":{"lng":6.2357,"lat":47.362},"population":144},{"code":"26119","name":"Érôme","department":"26","center":{"lng":4.8352,"lat":45.1264},"population":835},{"code":"26218","name":"Mours-Saint-Eusèbe","department":"26","center":{"lng":5.058,"lat":45.0719},"population":3404},{"code":"26317","name":"Saint-Maurice-sur-Eygues","department":"26","center":{"lng":5.0082,"lat":44.3057},"population":795},{"code":"26339","name":"Savasse","department":"26","center":{"lng":4.7775,"lat":44.6056},"population":1630},{"code":"27109","name":"Bray","department":"27","center":{"lng":0.8363,"lat":49.1041},"population":400},{"code":"27208","name":"Duranville","department":"27","center":{"lng":0.5008,"lat":49.1436},"population":144},{"code":"27307","name":"Guiseniers","department":"27","center":{"lng":1.475,"lat":49.2127},"population":488},{"code":"27329","name":"Hennezis","department":"27","center":{"lng":1.459,"lat":49.1926},"population":749},{"code":"27406","name":"Mesnil-sur-l'Estrée","department":"27","center":{"lng":1.2923,"lat":48.7785},"population":942},{"code":"27428","name":"Le Neubourg","department":"27","center":{"lng":0.8903,"lat":49.149},"population":4251},{"code":"27505","name":"Saint-Agnan-de-Cernières","department":"27","center":{"lng":0.5308,"lat":48.9476},"population":154},{"code":"27527","name":"Saint-Cyr-de-Salerne","department":"27","center":{"lng":0.6509,"lat":49.1828},"population":206},{"code":"27604","name":"Saint-Sulpice-de-Grimbouville","department":"27","center":{"lng":0.4473,"lat":49.3756},"population":156},{"code":"28319","name":"Neuville Saint Denis","department":"28","center":{"lng":1.9222,"lat":48.2774},"population":345},{"code":"28418","name":"Villiers-Saint-Orien","department":"28","center":{"lng":1.4966,"lat":48.1424},"population":162},{"code":"30013","name":"Argilliers","department":"30","center":{"lng":4.49,"lat":43.9819},"population":441},{"code":"30035","name":"Belvézet","department":"30","center":{"lng":4.3545,"lat":44.0904},"population":235},{"code":"30057","name":"Cabrières","department":"30","center":{"lng":4.4687,"lat":43.9079},"population":1781},{"code":"30079","name":"Chambon","department":"30","center":{"lng":4.0155,"lat":44.3038},"population":262},{"code":"30112","name":"Fons","department":"30","center":{"lng":4.1801,"lat":43.9073},"population":1734},{"code":"30134","name":"Issirac","department":"30","center":{"lng":4.4747,"lat":44.2704},"population":320},{"code":"30156","name":"Marguerittes","department":"30","center":{"lng":4.4594,"lat":43.8661},"population":8370},{"code":"30178","name":"Montfaucon","department":"30","center":{"lng":4.7348,"lat":44.0765},"population":1525},{"code":"30211","name":"Redessan","department":"30","center":{"lng":4.5113,"lat":43.8298},"population":4227},{"code":"30233","name":"Saint-Bauzély","department":"30","center":{"lng":4.1933,"lat":43.9215},"population":681},{"code":"30255","name":"Saint-Geniès-de-Malgoirès","department":"30","center":{"lng":4.214,"lat":43.9477},"population":3172},{"code":"30277","name":"Saint-Laurent-de-Carnols","department":"30","center":{"lng":4.5338,"lat":44.2238},"population":535},{"code":"30299","name":"Saint-Siffret","department":"30","center":{"lng":4.4677,"lat":44.0148},"population":1121},{"code":"30310","name":"Saumane","department":"30","center":{"lng":3.7693,"lat":44.1178},"population":296},{"code":"30332","name":"Trèves","department":"30","center":{"lng":3.3869,"lat":44.0622},"population":108},{"code":"30354","name":"Montagnac","department":"30","center":{"lng":4.1503,"lat":43.9366},"population":233},{"code":"31003","name":"Aigrefeuille","department":"31","center":{"lng":1.5845,"lat":43.5684},"population":1326},{"code":"31025","name":"Aureville","department":"31","center":{"lng":1.4574,"lat":43.4794},"population":1022},{"code":"31047","name":"Bax","department":"31","center":{"lng":1.2892,"lat":43.2269},"population":99},{"code":"31069","name":"Blagnac","department":"31","center":{"lng":1.377,"lat":43.641},"population":27314},{"code":"31102","name":"Cambiac","department":"31","center":{"lng":1.7928,"lat":43.4911},"population":228},{"code":"31124","name":"Castillon-de-Saint-Martory","department":"31","center":{"lng":0.8575,"lat":43.1397},"population":399},{"code":"31146","name":"Cirès","department":"31","center":{"lng":0.5063,"lat":42.8527},"population":11},{"code":"31168","name":"Eoux","department":"31","center":{"lng":0.8835,"lat":43.2773},"population":131},{"code":"31201","name":"Frontignan-Savès","department":"31","center":{"lng":0.9129,"lat":43.399},"population":67},{"code":"31223","name":"Goudex","department":"31","center":{"lng":0.9559,"lat":43.38},"population":40},{"code":"31245","name":"Juzet-d'Izaut","department":"31","center":{"lng":0.7575,"lat":42.9708},"population":181},{"code":"31267","name":"Lahitère","department":"31","center":{"lng":1.1878,"lat":43.1412},"population":53},{"code":"31289","name":"Lécussan","department":"31","center":{"lng":0.489,"lat":43.1512},"population":260},{"code":"31300","name":"Lieoux","department":"31","center":{"lng":0.7734,"lat":43.1492},"population":126},{"code":"31322","name":"Martisserre","department":"31","center":{"lng":0.8847,"lat":43.3961},"population":66},{"code":"31344","name":"Miramont-de-Comminges","department":"31","center":{"lng":0.7586,"lat":43.0886},"population":743},{"code":"31366","name":"Montbrun-Lauragais","department":"31","center":{"lng":1.5219,"lat":43.4555},"population":711},{"code":"31388","name":"Montpitol","department":"31","center":{"lng":1.6449,"lat":43.7074},"population":341},{"code":"31421","name":"Pins-Justaret","department":"31","center":{"lng":1.3914,"lat":43.4825},"population":4377},{"code":"31443","name":"Puymaurin","department":"31","center":{"lng":0.7494,"lat":43.3712},"population":310},{"code":"31465","name":"Saccourvielle","department":"31","center":{"lng":0.5671,"lat":42.8209},"population":22},{"code":"31487","name":"Saint-Ignan","department":"31","center":{"lng":0.686,"lat":43.1582},"population":222},{"code":"31520","name":"Sajas","department":"31","center":{"lng":1.0259,"lat":43.3765},"population":105},{"code":"31542","name":"Seilhan","department":"31","center":{"lng":0.581,"lat":43.0517},"population":209},{"code":"31564","name":"Valcabrère","department":"31","center":{"lng":0.5828,"lat":43.03},"population":150},{"code":"31586","name":"Villeneuve-Lécussan","department":"31","center":{"lng":0.4843,"lat":43.1344},"population":570},{"code":"32015","name":"Aujan-Mournède","department":"32","center":{"lng":0.5016,"lat":43.3748},"population":90},{"code":"32037","name":"Beaumont","department":"32","center":{"lng":0.2882,"lat":43.937},"population":125},{"code":"32059","name":"Bonas","department":"32","center":{"lng":0.4068,"lat":43.7808},"population":116},{"code":"32114","name":"Cuélas","department":"32","center":{"lng":0.4473,"lat":43.351},"population":125},{"code":"32136","name":"Galiax","department":"32","center":{"lng":0.0104,"lat":43.611},"population":184},{"code":"32158","name":"L'Isle-Bouzon","department":"32","center":{"lng":0.7383,"lat":43.9254},"population":248},{"code":"32213","name":"Lombez","department":"32","center":{"lng":0.8995,"lat":43.4641},"population":2188},{"code":"32235","name":"Margouët-Meymes","department":"32","center":{"lng":0.1211,"lat":43.7284},"population":159},{"code":"32257","name":"Mirannes","department":"32","center":{"lng":0.3815,"lat":43.6223},"population":64},{"code":"32279","name":"Montaut-les-Créneaux","department":"32","center":{"lng":0.6652,"lat":43.7067},"population":714},{"code":"32312","name":"Pessan","department":"32","center":{"lng":0.6671,"lat":43.6039},"population":659},{"code":"32334","name":"Pujaudran","department":"32","center":{"lng":1.1679,"lat":43.592},"population":1708},{"code":"32356","name":"Saint-André","department":"32","center":{"lng":0.8548,"lat":43.5583},"population":126},{"code":"32378","name":"Saint-Germé","department":"32","center":{"lng":-0.1499,"lat":43.6753},"population":509},{"code":"32411","name":"Sansan","department":"32","center":{"lng":0.6082,"lat":43.5277},"population":100},{"code":"32433","name":"Simorre","department":"32","center":{"lng":0.7417,"lat":43.4586},"population":695},{"code":"32455","name":"Troncens","department":"32","center":{"lng":0.2202,"lat":43.4542},"population":162},{"code":"33005","name":"Andernos-les-Bains","department":"33","center":{"lng":-1.082,"lat":44.7529},"population":12614},{"code":"33027","name":"Barie","department":"33","center":{"lng":-0.1131,"lat":44.5721},"population":277},{"code":"33049","name":"Beychac-et-Caillau","department":"33","center":{"lng":-0.3726,"lat":44.8708},"population":2608},{"code":"33104","name":"Castelnau-de-Médoc","department":"33","center":{"lng":-0.8162,"lat":45.0033},"population":4850},{"code":"33126","name":"Civrac-de-Blaye","department":"33","center":{"lng":-0.4574,"lat":45.1124},"population":791},{"code":"33148","name":"Dardenac","department":"33","center":{"lng":-0.2377,"lat":44.7834},"population":92},{"code":"33203","name":"Hourtin","department":"33","center":{"lng":-1.0534,"lat":45.1831},"population":4028},{"code":"33225","name":"Landiras","department":"33","center":{"lng":-0.4333,"lat":44.5696},"population":2245},{"code":"33247","name":"Listrac-de-Durèze","department":"33","center":{"lng":0.0369,"lat":44.7618},"population":137},{"code":"33269","name":"Margueron","department":"33","center":{"lng":0.2538,"lat":44.7669},"population":373},{"code":"33302","name":"Néac","department":"33","center":{"lng":-0.1795,"lat":44.9434},"population":324},{"code":"33324","name":"Pineuilh","department":"33","center":{"lng":0.2284,"lat":44.8242},"population":4447},{"code":"33346","name":"Puybarban","department":"33","center":{"lng":-0.0711,"lat":44.544},"population":411},{"code":"33401","name":"Sainte-Florence","department":"33","center":{"lng":-0.0937,"lat":44.817},"population":146},{"code":"33423","name":"Saint-Julien-Beychevelle","department":"33","center":{"lng":-0.739,"lat":45.1606},"population":621},{"code":"33445","name":"Saint-Martin-du-Bois","department":"33","center":{"lng":-0.2615,"lat":45.0218},"population":845},{"code":"33467","name":"Saint-Quentin-de-Caplong","department":"33","center":{"lng":0.1365,"lat":44.795},"population":256},{"code":"33489","name":"Saint-Vivien-de-Blaye","department":"33","center":{"lng":-0.5063,"lat":45.1051},"population":359},{"code":"33500","name":"Samonac","department":"33","center":{"lng":-0.5715,"lat":45.0709},"population":471},{"code":"33522","name":"Talence","department":"33","center":{"lng":-0.5918,"lat":44.8061},"population":45869},{"code":"33544","name":"Le Verdon-sur-Mer","department":"33","center":{"lng":-1.0826,"lat":45.5481},"population":1389},{"code":"34017","name":"Aumes","department":"34","center":{"lng":3.4695,"lat":43.4632},"population":502},{"code":"34039","name":"Bouzigues","department":"34","center":{"lng":3.6563,"lat":43.445},"population":1613},{"code":"34116","name":"Grabels","department":"34","center":{"lng":3.7894,"lat":43.6503},"population":9060},{"code":"34138","name":"Lieuran-Cabrières","department":"34","center":{"lng":3.4096,"lat":43.5907},"population":338},{"code":"34215","name":"Pouzols","department":"34","center":{"lng":3.5083,"lat":43.6224},"population":956},{"code":"34237","name":"Roujan","department":"34","center":{"lng":3.3082,"lat":43.5119},"population":2297},{"code":"34259","name":"Saint-Georges-d'Orques","department":"34","center":{"lng":3.775,"lat":43.6167},"population":5707},{"code":"34314","name":"Le Triadou","department":"34","center":{"lng":3.8574,"lat":43.7358},"population":692},{"code":"34336","name":"Villeneuve-lès-Béziers","department":"34","center":{"lng":3.2909,"lat":43.3178},"population":4283},{"code":"35007","name":"Aubigné","department":"35","center":{"lng":-1.6312,"lat":48.2983},"population":465},{"code":"35029","name":"Bonnemain","department":"35","center":{"lng":-1.7715,"lat":48.4709},"population":1533},{"code":"35106","name":"Ercé-en-Lamée","department":"35","center":{"lng":-1.5636,"lat":47.8167},"population":1568},{"code":"35128","name":"Guipel","department":"35","center":{"lng":-1.7244,"lat":48.2942},"population":1735},{"code":"35205","name":"Noyal-sous-Bazouges","department":"35","center":{"lng":-1.6207,"lat":48.4191},"population":382},{"code":"35227","name":"Pleumeleuc","department":"35","center":{"lng":-1.8889,"lat":48.1793},"population":3535},{"code":"35249","name":"Sainte-Anne-sur-Vilaine","department":"35","center":{"lng":-1.8081,"lat":47.7363},"population":1032},{"code":"35304","name":"Saint-Ouen-des-Alleux","department":"35","center":{"lng":-1.4346,"lat":48.3287},"population":1308},{"code":"35326","name":"Sens-de-Bretagne","department":"35","center":{"lng":-1.5563,"lat":48.3367},"population":2620},{"code":"36019","name":"Bommiers","department":"36","center":{"lng":2.0013,"lat":46.7765},"population":320},{"code":"36118","name":"Méobecq","department":"36","center":{"lng":1.4106,"lat":46.7453},"population":366},{"code":"36217","name":"Sembleçay","department":"36","center":{"lng":1.695,"lat":47.2156},"population":101},{"code":"36239","name":"Vigoux","department":"36","center":{"lng":1.4686,"lat":46.5136},"population":469},{"code":"37009","name":"Autrèche","department":"37","center":{"lng":1.0028,"lat":47.5216},"population":419},{"code":"37108","name":"Ferrière-sur-Beaulieu","department":"37","center":{"lng":1.053,"lat":47.1506},"population":707},{"code":"37207","name":"Saint-Aubin-le-Dépeint","department":"37","center":{"lng":0.3981,"lat":47.619},"population":351},{"code":"37229","name":"Saint-Nicolas-des-Motets","department":"37","center":{"lng":1.0335,"lat":47.5836},"population":241},{"code":"38219","name":"Marcollin","department":"38","center":{"lng":5.0897,"lat":45.3116},"population":613},{"code":"38318","name":"Pont-Évêque","department":"38","center":{"lng":4.9278,"lat":45.5335},"population":5843},{"code":"38417","name":"Sainte-Marie-d'Alloix","department":"38","center":{"lng":5.9735,"lat":45.3853},"population":484},{"code":"38439","name":"Crêts en Belledonne","department":"38","center":{"lng":6.0314,"lat":45.3569},"population":3430},{"code":"38516","name":"La Tronche","department":"38","center":{"lng":5.7443,"lat":45.2117},"population":6447},{"code":"38538","name":"Le Versoud","department":"38","center":{"lng":5.8598,"lat":45.22},"population":4940},{"code":"39209","name":"Val-d'Épy","department":"39","center":{"lng":5.3975,"lat":46.3888},"population":302},{"code":"39308","name":"Malange","department":"39","center":{"lng":5.6132,"lat":47.1855},"population":319},{"code":"39407","name":"Passenans","department":"39","center":{"lng":5.625,"lat":46.805},"population":336},{"code":"39429","name":"Pleure","department":"39","center":{"lng":5.4633,"lat":46.9157},"population":437},{"code":"39528","name":"Thervay","department":"39","center":{"lng":5.6137,"lat":47.2375},"population":389},{"code":"40012","name":"Artassenx","department":"40","center":{"lng":-0.395,"lat":43.8461},"population":260},{"code":"40034","name":"Bélus","department":"40","center":{"lng":-1.1184,"lat":43.5922},"population":616},{"code":"40056","name":"Brocas","department":"40","center":{"lng":-0.5446,"lat":44.0533},"population":727},{"code":"40078","name":"Caupenne","department":"40","center":{"lng":-0.7538,"lat":43.6878},"population":397},{"code":"40111","name":"Geloux","department":"40","center":{"lng":-0.6374,"lat":43.9784},"population":708},{"code":"40133","name":"Labenne","department":"40","center":{"lng":-1.4371,"lat":43.5982},"population":7095},{"code":"40155","name":"Linxe","department":"40","center":{"lng":-1.2195,"lat":43.9287},"population":1550},{"code":"40177","name":"Maylis","department":"40","center":{"lng":-0.7047,"lat":43.6948},"population":301},{"code":"40199","name":"Mouscardès","department":"40","center":{"lng":-0.8883,"lat":43.5955},"population":268},{"code":"40210","name":"Onesse-Laharie","department":"40","center":{"lng":-1.0224,"lat":44.063},"population":1057},{"code":"40232","name":"Poudenx","department":"40","center":{"lng":-0.5918,"lat":43.5819},"population":219},{"code":"40254","name":"Saint-Cricq-du-Gave","department":"40","center":{"lng":-1.0161,"lat":43.5245},"population":444},{"code":"40276","name":"Saint-Michel-Escalus","department":"40","center":{"lng":-1.2475,"lat":43.8752},"population":324},{"code":"40298","name":"Serres-Gaston","department":"40","center":{"lng":-0.5198,"lat":43.6709},"population":401},{"code":"40331","name":"Villeneuve-de-Marsan","department":"40","center":{"lng":-0.3057,"lat":43.9087},"population":2487},{"code":"41002","name":"Angé","department":"41","center":{"lng":1.242,"lat":47.3142},"population":801},{"code":"41024","name":"Boursay","department":"41","center":{"lng":0.9812,"lat":48.0185},"population":179},{"code":"41046","name":"Chaumont-sur-Tharonne","department":"41","center":{"lng":1.9216,"lat":47.6212},"population":1045},{"code":"41068","name":"Courmemin","department":"41","center":{"lng":1.6284,"lat":47.4715},"population":498},{"code":"41101","name":"Herbault","department":"41","center":{"lng":1.1576,"lat":47.6126},"population":1139},{"code":"41123","name":"Marchenoir","department":"41","center":{"lng":1.4145,"lat":47.8345},"population":679},{"code":"41145","name":"Monthou-sur-Bièvre","department":"41","center":{"lng":1.2611,"lat":47.4652},"population":793},{"code":"41167","name":"Veuzain-sur-Loire","department":"41","center":{"lng":1.15,"lat":47.5079},"population":3327},{"code":"41189","name":"Rilly-sur-Loire","department":"41","center":{"lng":1.1409,"lat":47.4577},"population":455},{"code":"41200","name":"Sainte-Anne","department":"41","center":{"lng":1.0844,"lat":47.7598},"population":478},{"code":"41222","name":"Saint-Loup","department":"41","center":{"lng":1.8268,"lat":47.2538},"population":365},{"code":"41266","name":"Valaire","department":"41","center":{"lng":1.2543,"lat":47.4752},"population":84},{"code":"41288","name":"Villerbon","department":"41","center":{"lng":1.3607,"lat":47.6643},"population":832},{"code":"42014","name":"Belleroche","department":"42","center":{"lng":4.4103,"lat":46.1591},"population":313},{"code":"42036","name":"Chagnon","department":"42","center":{"lng":4.5525,"lat":45.5337},"population":522},{"code":"42058","name":"Chazelles-sur-Lavieu","department":"42","center":{"lng":3.9988,"lat":45.5405},"population":255},{"code":"42113","name":"Jas","department":"42","center":{"lng":4.3193,"lat":45.7448},"population":240},{"code":"42135","name":"Marclopt","department":"42","center":{"lng":4.2227,"lat":45.6632},"population":550},{"code":"42157","name":"Noailly","department":"42","center":{"lng":4.0052,"lat":46.1382},"population":814},{"code":"42179","name":"Pralong","department":"42","center":{"lng":4.0169,"lat":45.661},"population":851},{"code":"42212","name":"Saint-Cyr-de-Favières","department":"42","center":{"lng":4.1018,"lat":45.959},"population":1028},{"code":"42234","name":"Saint-Héand","department":"42","center":{"lng":4.3841,"lat":45.5317},"population":3684},{"code":"42256","name":"Saint-Marcellin-en-Forez","department":"42","center":{"lng":4.1672,"lat":45.4883},"population":5088},{"code":"42278","name":"Saint-Priest-la-Vêtre","department":"42","center":{"lng":3.8086,"lat":45.8008},"population":141},{"code":"42311","name":"La Tour-en-Jarez","department":"42","center":{"lng":4.3973,"lat":45.4899},"population":1484},{"code":"42333","name":"Villers","department":"42","center":{"lng":4.2254,"lat":46.1247},"population":599},{"code":"43004","name":"Alleyrac","department":"43","center":{"lng":3.9898,"lat":44.8953},"population":118},{"code":"43026","name":"Bellevue-la-Montagne","department":"43","center":{"lng":3.816,"lat":45.2102},"population":448},{"code":"43048","name":"La Chaise-Dieu","department":"43","center":{"lng":3.691,"lat":45.3213},"population":595},{"code":"43103","name":"Grenier-Montgon","department":"43","center":{"lng":3.2123,"lat":45.2864},"population":111},{"code":"43125","name":"Lubilhac","department":"43","center":{"lng":3.2564,"lat":45.2459},"population":102},{"code":"43147","name":"Paulhac","department":"43","center":{"lng":3.3394,"lat":45.2945},"population":607},{"code":"43169","name":"Saint-Austremoine","department":"43","center":{"lng":3.3532,"lat":45.119},"population":52},{"code":"43202","name":"Saint-Julien-des-Chazes","department":"43","center":{"lng":3.5735,"lat":45.049},"population":54},{"code":"43224","name":"Sainte-Sigolène","department":"43","center":{"lng":4.2265,"lat":45.2436},"population":6060},{"code":"43246","name":"Tiranges","department":"43","center":{"lng":4.0154,"lat":45.2875},"population":455},{"code":"43268","name":"Yssingeaux","department":"43","center":{"lng":4.1246,"lat":45.1342},"population":7380},{"code":"44016","name":"La Boissière-du-Doré","department":"44","center":{"lng":-1.2063,"lat":47.2347},"population":1114},{"code":"44038","name":"Chauvé","department":"44","center":{"lng":-2.0132,"lat":47.1602},"population":3035},{"code":"44115","name":"Oudon","department":"44","center":{"lng":-1.2676,"lat":47.3532},"population":3915},{"code":"44137","name":"Prinquiau","department":"44","center":{"lng":-2.0239,"lat":47.3784},"population":3557},{"code":"44159","name":"Saint-Fiacre-sur-Maine","department":"44","center":{"lng":-1.4198,"lat":47.1419},"population":1246},{"code":"44214","name":"Vay","department":"44","center":{"lng":-1.7031,"lat":47.5381},"population":2084},{"code":"45006","name":"Ardon","department":"45","center":{"lng":1.8745,"lat":47.7825},"population":1201},{"code":"45028","name":"Beaugency","department":"45","center":{"lng":1.6376,"lat":47.777},"population":7811},{"code":"45105","name":"Cortrat","department":"45","center":{"lng":2.771,"lat":47.9094},"population":82},{"code":"45127","name":"Dordives","department":"45","center":{"lng":2.7741,"lat":48.1435},"population":3257},{"code":"45149","name":"Foucherolles","department":"45","center":{"lng":3.0191,"lat":48.0935},"population":303},{"code":"45204","name":"Mézières-lez-Cléry","department":"45","center":{"lng":1.8212,"lat":47.8115},"population":857},{"code":"45226","name":"Neuvy-en-Sullias","department":"45","center":{"lng":2.245,"lat":47.7767},"population":1365},{"code":"45248","name":"Patay","department":"45","center":{"lng":1.6936,"lat":48.0513},"population":2341},{"code":"45303","name":"Sceaux-du-Gâtinais","department":"45","center":{"lng":2.592,"lat":48.1126},"population":613},{"code":"45325","name":"Tivernon","department":"45","center":{"lng":1.9365,"lat":48.1581},"population":282},{"code":"45347","name":"Vrigny","department":"45","center":{"lng":2.2424,"lat":48.0673},"population":797},{"code":"46018","name":"Le Bastit","department":"46","center":{"lng":1.6782,"lat":44.7101},"population":141},{"code":"46117","name":"Gagnac-sur-Cère","department":"46","center":{"lng":1.8808,"lat":44.938},"population":657},{"code":"46139","name":"Labathude","department":"46","center":{"lng":1.9855,"lat":44.7363},"population":201},{"code":"46216","name":"Payrignac","department":"46","center":{"lng":1.3423,"lat":44.7612},"population":654},{"code":"46238","name":"Rignac","department":"46","center":{"lng":1.6987,"lat":44.8067},"population":292},{"code":"46315","name":"Teyssieu","department":"46","center":{"lng":1.9594,"lat":44.9169},"population":163},{"code":"46337","name":"Mayrac","department":"46","center":{"lng":1.5464,"lat":44.9002},"population":256},{"code":"47008","name":"Ambrus","department":"47","center":{"lng":0.2455,"lat":44.2319},"population":109},{"code":"47107","name":"Galapian","department":"47","center":{"lng":0.4102,"lat":44.2985},"population":334},{"code":"47129","name":"Lagarrigue","department":"47","center":{"lng":0.3849,"lat":44.2904},"population":274},{"code":"47206","name":"Pinel-Hauterive","department":"47","center":{"lng":0.5719,"lat":44.4637},"population":572},{"code":"47228","name":"Saint-Antoine-de-Ficalba","department":"47","center":{"lng":0.7182,"lat":44.3393},"population":714},{"code":"47305","name":"Tayrac","department":"47","center":{"lng":0.8351,"lat":44.2087},"population":380},{"code":"47327","name":"Xaintrailles","department":"47","center":{"lng":0.2547,"lat":44.2077},"population":378},{"code":"48119","name":"Prévenchères","department":"48","center":{"lng":3.9119,"lat":44.5144},"population":270},{"code":"49109","name":"Coron","department":"49","center":{"lng":-0.6383,"lat":47.1201},"population":1575},{"code":"49307","name":"Loire-Authion","department":"49","center":{"lng":-0.3734,"lat":47.4695},"population":16588},{"code":"49329","name":"Savennières","department":"49","center":{"lng":-0.664,"lat":47.4064},"population":1351},{"code":"50033","name":"Baubigny","department":"50","center":{"lng":-1.8029,"lat":49.4277},"population":134},{"code":"50055","name":"Biniville","department":"50","center":{"lng":-1.4866,"lat":49.4303},"population":116},{"code":"50077","name":"Bretteville","department":"50","center":{"lng":-1.5084,"lat":49.6514},"population":1006},{"code":"50099","name":"Carentan-les-Marais","department":"50","center":{"lng":-1.2118,"lat":49.3061},"population":10220},{"code":"50110","name":"Cerisy-la-Forêt","department":"50","center":{"lng":-0.938,"lat":49.1967},"population":1014},{"code":"50176","name":"L'Étang-Bertrand","department":"50","center":{"lng":-1.5709,"lat":49.4707},"population":344},{"code":"50198","name":"Geffosses","department":"50","center":{"lng":-1.5543,"lat":49.1269},"population":498},{"code":"50231","name":"Hauteville-sur-Mer","department":"50","center":{"lng":-1.541,"lat":48.9748},"population":707},{"code":"50253","name":"Huisnes-sur-Mer","department":"50","center":{"lng":-1.4498,"lat":48.6103},"population":168},{"code":"50275","name":"Les Loges-sur-Brécey","department":"50","center":{"lng":-1.1623,"lat":48.754},"population":117},{"code":"50297","name":"La Meauffe","department":"50","center":{"lng":-1.0985,"lat":49.1697},"population":998},{"code":"50352","name":"Montreuil-sur-Lozon","department":"50","center":{"lng":-1.2429,"lat":49.1307},"population":345},{"code":"50374","name":"Neuville-en-Beaumont","department":"50","center":{"lng":-1.5966,"lat":49.3494},"population":25},{"code":"50451","name":"Saint-Brice","department":"50","center":{"lng":-1.2978,"lat":48.7003},"population":136},{"code":"50473","name":"Saint-Georges-d'Elle","department":"50","center":{"lng":-0.9792,"lat":49.1511},"population":378},{"code":"50495","name":"Saint-Jean-du-Corail-des-Bois","department":"50","center":{"lng":-1.2031,"lat":48.7704},"population":75},{"code":"50550","name":"Saint-Sauveur-Villages","department":"50","center":{"lng":-1.4117,"lat":49.1342},"population":3250},{"code":"50572","name":"Sénoville","department":"50","center":{"lng":-1.7718,"lat":49.4302},"population":191},{"code":"50594","name":"Teurthéville-Hague","department":"50","center":{"lng":-1.7385,"lat":49.5812},"population":1029},{"code":"51001","name":"Ablancourt","department":"51","center":{"lng":4.531,"lat":48.8103},"population":165},{"code":"51023","name":"Aulnay-sur-Marne","department":"51","center":{"lng":4.2091,"lat":48.9986},"population":276},{"code":"51045","name":"Beaunay","department":"51","center":{"lng":3.8857,"lat":48.8771},"population":103},{"code":"51089","name":"Brouillet","department":"51","center":{"lng":3.7371,"lat":49.2271},"population":60},{"code":"51100","name":"La Caure","department":"51","center":{"lng":3.7765,"lat":48.9086},"population":99},{"code":"51122","name":"Changy","department":"51","center":{"lng":4.6788,"lat":48.7804},"population":116},{"code":"51144","name":"Cheminon","department":"51","center":{"lng":4.9217,"lat":48.7421},"population":595},{"code":"51166","name":"Contault","department":"51","center":{"lng":4.7879,"lat":48.9143},"population":67},{"code":"51188","name":"Courmas","department":"51","center":{"lng":3.9103,"lat":49.19},"population":225},{"code":"51243","name":"Faux-Fresnay","department":"51","center":{"lng":3.9508,"lat":48.6558},"population":330},{"code":"51265","name":"Gaye","department":"51","center":{"lng":3.8069,"lat":48.6788},"population":581},{"code":"51287","name":"Hautvillers","department":"51","center":{"lng":3.942,"lat":49.0839},"population":628},{"code":"51320","name":"Leuvrigny","department":"51","center":{"lng":3.7763,"lat":49.0525},"population":302},{"code":"51342","name":"Mancy","department":"51","center":{"lng":3.937,"lat":48.9827},"population":237},{"code":"51364","name":"Méry-Prémecy","department":"51","center":{"lng":3.8743,"lat":49.2286},"population":67},{"code":"51386","name":"Morsains","department":"51","center":{"lng":3.5601,"lat":48.8037},"population":149},{"code":"51441","name":"Ponthion","department":"51","center":{"lng":4.7162,"lat":48.7518},"population":103},{"code":"51463","name":"Les Rivières-Henruel","department":"51","center":{"lng":4.5299,"lat":48.6543},"population":158},{"code":"51485","name":"La Neuville-au-Temple","department":"51","center":{"lng":4.3863,"lat":49.0419},"population":304},{"code":"51562","name":"Taissy","department":"51","center":{"lng":4.084,"lat":49.2046},"population":2202},{"code":"51584","name":"Trois-Puits","department":"51","center":{"lng":4.0424,"lat":49.2054},"population":159},{"code":"52013","name":"Anrosey","department":"52","center":{"lng":5.6574,"lat":47.8468},"population":125},{"code":"52035","name":"Baissey","department":"52","center":{"lng":5.2523,"lat":47.7493},"population":172},{"code":"52057","name":"Blumeray","department":"52","center":{"lng":4.8651,"lat":48.3555},"population":100},{"code":"52079","name":"Brousseval","department":"52","center":{"lng":4.9766,"lat":48.4914},"population":625},{"code":"52134","name":"Cohons","department":"52","center":{"lng":5.341,"lat":47.7882},"population":208},{"code":"52156","name":"Curel","department":"52","center":{"lng":5.1459,"lat":48.4991},"population":407},{"code":"52178","name":"Doulevant-le-Château","department":"52","center":{"lng":4.9159,"lat":48.3726},"population":367},{"code":"52211","name":"Froncles","department":"52","center":{"lng":5.1343,"lat":48.2982},"population":1375},{"code":"52233","name":"Guyonvelle","department":"52","center":{"lng":5.7049,"lat":47.8594},"population":90},{"code":"52277","name":"Lavilleneuve","department":"52","center":{"lng":5.5185,"lat":48.0379},"population":57},{"code":"52310","name":"Marbéville","department":"52","center":{"lng":5.0249,"lat":48.2638},"population":100},{"code":"52332","name":"Val-de-Meuse","department":"52","center":{"lng":5.5387,"lat":47.9975},"population":1807},{"code":"52354","name":"Noidant-Chatenoy","department":"52","center":{"lng":5.3772,"lat":47.791},"population":81},{"code":"52376","name":"Pansey","department":"52","center":{"lng":5.2794,"lat":48.48},"population":93},{"code":"52398","name":"Poissons","department":"52","center":{"lng":5.2146,"lat":48.4221},"population":611},{"code":"52431","name":"Rochetaillée","department":"52","center":{"lng":5.1185,"lat":47.8435},"population":156},{"code":"52453","name":"Saint-Maurice","department":"52","center":{"lng":5.417,"lat":47.8541},"population":127},{"code":"52475","name":"Sommancourt","department":"52","center":{"lng":5.0408,"lat":48.5034},"population":55},{"code":"52497","name":"Troisfontaines-la-Ville","department":"52","center":{"lng":5.0108,"lat":48.5473},"population":432},{"code":"53003","name":"Ambrières-les-Vallées","department":"53","center":{"lng":-0.6268,"lat":48.4242},"population":2603},{"code":"53025","name":"Bazougers","department":"53","center":{"lng":-0.6002,"lat":48.03},"population":1086},{"code":"53047","name":"Carelles","department":"53","center":{"lng":-0.9003,"lat":48.3916},"population":254},{"code":"53069","name":"Chevaigné-du-Maine","department":"53","center":{"lng":-0.4046,"lat":48.4393},"population":152},{"code":"53102","name":"Gastines","department":"53","center":{"lng":-1.1141,"lat":47.9407},"population":166},{"code":"53124","name":"Prée-d'Anjou","department":"53","center":{"lng":-0.8273,"lat":47.8212},"population":1392},{"code":"53146","name":"Martigné-sur-Mayenne","department":"53","center":{"lng":-0.6611,"lat":48.2014},"population":1884},{"code":"53168","name":"Nuillé-sur-Vicoin","department":"53","center":{"lng":-0.7781,"lat":47.9808},"population":1250},{"code":"53201","name":"Saint-Berthevin","department":"53","center":{"lng":-0.8462,"lat":48.0739},"population":7384},{"code":"53223","name":"Saint-Germain-de-Coulamer","department":"53","center":{"lng":-0.1887,"lat":48.2653},"population":329},{"code":"53245","name":"Saint-Pierre-des-Landes","department":"53","center":{"lng":-1.0295,"lat":48.2894},"population":927},{"code":"53267","name":"Vaiges","department":"53","center":{"lng":-0.474,"lat":48.0503},"population":1164},{"code":"54015","name":"Anderny","department":"54","center":{"lng":5.8818,"lat":49.3371},"population":255},{"code":"54037","name":"Azelot","department":"54","center":{"lng":6.2281,"lat":48.5807},"population":417},{"code":"54059","name":"Belleau","department":"54","center":{"lng":6.1831,"lat":48.85},"population":752},{"code":"54114","name":"Champey-sur-Moselle","department":"54","center":{"lng":6.0628,"lat":48.9568},"population":316},{"code":"54136","name":"Conflans-en-Jarnisy","department":"54","center":{"lng":5.8462,"lat":49.1666},"population":2378},{"code":"54158","name":"Dolcourt","department":"54","center":{"lng":5.9678,"lat":48.4925},"population":147},{"code":"54213","name":"Friauville","department":"54","center":{"lng":5.8298,"lat":49.1425},"population":369},{"code":"54235","name":"Goviller","department":"54","center":{"lng":6.0164,"lat":48.5039},"population":419},{"code":"54257","name":"Heillecourt","department":"54","center":{"lng":6.1967,"lat":48.6501},"population":5396},{"code":"54279","name":"Jezainville","department":"54","center":{"lng":6.0127,"lat":48.8637},"population":1016},{"code":"54312","name":"Lesménils","department":"54","center":{"lng":6.1116,"lat":48.9317},"population":503},{"code":"54334","name":"Mairy-Mainville","department":"54","center":{"lng":5.8631,"lat":49.3046},"population":555},{"code":"54356","name":"Mattexey","department":"54","center":{"lng":6.523,"lat":48.4389},"population":64},{"code":"54378","name":"Montigny-sur-Chiers","department":"54","center":{"lng":5.6672,"lat":49.4753},"population":479},{"code":"54411","name":"Ormes-et-Ville","department":"54","center":{"lng":6.2026,"lat":48.4876},"population":221},{"code":"54433","name":"Port-sur-Seille","department":"54","center":{"lng":6.1588,"lat":48.8976},"population":230},{"code":"54455","name":"Remenoville","department":"54","center":{"lng":6.4727,"lat":48.4659},"population":156},{"code":"54477","name":"Saint-Julien-lès-Gorze","department":"54","center":{"lng":5.9037,"lat":49.0183},"population":162},{"code":"54499","name":"Seicheprey","department":"54","center":{"lng":5.7945,"lat":48.8682},"population":109},{"code":"54510","name":"Sornéville","department":"54","center":{"lng":6.417,"lat":48.7379},"population":327},{"code":"54532","name":"Tremblecourt","department":"54","center":{"lng":5.945,"lat":48.8065},"population":158},{"code":"54554","name":"Vaudigny","department":"54","center":{"lng":6.206,"lat":48.436},"population":82},{"code":"54576","name":"Villers-le-Rond","department":"54","center":{"lng":5.4872,"lat":49.4706},"population":116},{"code":"54598","name":"Xivry-Circourt","department":"54","center":{"lng":5.7642,"lat":49.3577},"population":267},{"code":"55005","name":"Amanty","department":"55","center":{"lng":5.6016,"lat":48.516},"population":35},{"code":"55027","name":"Bannoncourt","department":"55","center":{"lng":5.4805,"lat":48.9551},"population":161},{"code":"55049","name":"Beurey-sur-Saulx","department":"55","center":{"lng":5.029,"lat":48.7593},"population":418},{"code":"55104","name":"Chassey-Beaupré","department":"55","center":{"lng":5.4375,"lat":48.4446},"population":87},{"code":"55148","name":"Delouze-Rosières","department":"55","center":{"lng":5.5354,"lat":48.568},"population":118},{"code":"55225","name":"Halles-sous-les-Côtes","department":"55","center":{"lng":5.1273,"lat":49.4465},"population":138},{"code":"55247","name":"Horville-en-Ornois","department":"55","center":{"lng":5.4689,"lat":48.4857},"population":46},{"code":"55269","name":"Lahaymeix","department":"55","center":{"lng":5.4186,"lat":48.9339},"population":76},{"code":"55302","name":"Longeville-en-Barrois","department":"55","center":{"lng":5.2051,"lat":48.7387},"population":1092},{"code":"55324","name":"Marville","department":"55","center":{"lng":5.439,"lat":49.4423},"population":514},{"code":"55346","name":"Montfaucon-d'Argonne","department":"55","center":{"lng":5.1353,"lat":49.2551},"population":276},{"code":"55368","name":"Naives-en-Blois","department":"55","center":{"lng":5.5508,"lat":48.6665},"population":156},{"code":"55401","name":"Les Paroches","department":"55","center":{"lng":5.482,"lat":48.9105},"population":415},{"code":"55423","name":"Rembercourt-Sommaisne","department":"55","center":{"lng":5.1813,"lat":48.9207},"population":311},{"code":"55445","name":"Rouvrois-sur-Othain","department":"55","center":{"lng":5.6319,"lat":49.3883},"population":193},{"code":"55467","name":"Sampigny","department":"55","center":{"lng":5.4869,"lat":48.8198},"population":693},{"code":"55489","name":"Sivry-la-Perche","department":"55","center":{"lng":5.2553,"lat":49.138},"population":279},{"code":"55500","name":"Spincourt","department":"55","center":{"lng":5.6925,"lat":49.3359},"population":815},{"code":"55522","name":"Ugny-sur-Meuse","department":"55","center":{"lng":5.6882,"lat":48.6372},"population":106},{"code":"55544","name":"Velosnes","department":"55","center":{"lng":5.4559,"lat":49.5008},"population":139},{"code":"55566","name":"Villers-sur-Meuse","department":"55","center":{"lng":5.3986,"lat":49.0235},"population":284},{"code":"56017","name":"Bignan","department":"56","center":{"lng":-2.7498,"lat":47.8737},"population":2750},{"code":"56039","name":"La Chapelle-Neuve","department":"56","center":{"lng":-2.9351,"lat":47.855},"population":1002},{"code":"56116","name":"Locmariaquer","department":"56","center":{"lng":-2.9592,"lat":47.5802},"population":1567},{"code":"56215","name":"Saint-Gonnery","department":"56","center":{"lng":-2.8208,"lat":48.1248},"population":1087},{"code":"56237","name":"Saint-Thuriau","department":"56","center":{"lng":-2.9438,"lat":48.02},"population":1880},{"code":"56259","name":"La Trinité-Surzur","department":"56","center":{"lng":-2.5924,"lat":47.6046},"population":1699},{"code":"57007","name":"Adaincourt","department":"57","center":{"lng":6.4445,"lat":49.0064},"population":134},{"code":"57029","name":"Arriance","department":"57","center":{"lng":6.5041,"lat":49.0162},"population":216},{"code":"57106","name":"Bouzonville","department":"57","center":{"lng":6.5399,"lat":49.297},"population":3824},{"code":"57128","name":"Charleville-sous-Bois","department":"57","center":{"lng":6.4058,"lat":49.1929},"population":285},{"code":"57205","name":"Falck","department":"57","center":{"lng":6.6385,"lat":49.2257},"population":2516},{"code":"57227","name":"Forbach","department":"57","center":{"lng":6.8985,"lat":49.1916},"population":21111},{"code":"57249","name":"Glatigny","department":"57","center":{"lng":6.3488,"lat":49.141},"population":259},{"code":"57304","name":"Haut-Clocher","department":"57","center":{"lng":6.9859,"lat":48.7646},"population":349},{"code":"57326","name":"Hinckange","department":"57","center":{"lng":6.446,"lat":49.1851},"population":328},{"code":"57348","name":"Ippling","department":"57","center":{"lng":7.0037,"lat":49.1053},"population":790},{"code":"57403","name":"Liéhon","department":"57","center":{"lng":6.262,"lat":48.9924},"population":131},{"code":"57425","name":"Luppy","department":"57","center":{"lng":6.3361,"lat":48.9802},"population":588},{"code":"57447","name":"Marly","department":"57","center":{"lng":6.154,"lat":49.068},"population":9937},{"code":"57469","name":"Mittersheim","department":"57","center":{"lng":6.9422,"lat":48.8574},"population":579},{"code":"57502","name":"Neunkirchen-lès-Bouzonville","department":"57","center":{"lng":6.5614,"lat":49.3497},"population":333},{"code":"57524","name":"Ommeray","department":"57","center":{"lng":6.6932,"lat":48.7193},"population":128},{"code":"57546","name":"Plesnois","department":"57","center":{"lng":6.1095,"lat":49.1715},"population":782},{"code":"57568","name":"Rémelfing","department":"57","center":{"lng":7.087,"lat":49.0903},"population":1308},{"code":"57601","name":"Rozérieulles","department":"57","center":{"lng":6.0558,"lat":49.1203},"population":1330},{"code":"57623","name":"Saint-Quirin","department":"57","center":{"lng":7.1233,"lat":48.5828},"population":693},{"code":"57645","name":"Semécourt","department":"57","center":{"lng":6.1359,"lat":49.1977},"population":1023},{"code":"57667","name":"Téterchen","department":"57","center":{"lng":6.5696,"lat":49.2293},"population":765},{"code":"57689","name":"Valmestroff","department":"57","center":{"lng":6.2598,"lat":49.3578},"population":352},{"code":"57700","name":"Vaudreching","department":"57","center":{"lng":6.5208,"lat":49.2754},"population":486},{"code":"58019","name":"Avrée","department":"58","center":{"lng":3.8801,"lat":46.8251},"population":84},{"code":"58118","name":"Fours","department":"58","center":{"lng":3.722,"lat":46.8114},"population":602},{"code":"58217","name":"Pousseaux","department":"58","center":{"lng":3.5446,"lat":47.4974},"population":190},{"code":"58239","name":"Saint-Firmin","department":"58","center":{"lng":3.3923,"lat":47.0412},"population":152},{"code":"59009","name":"Villeneuve-d'Ascq","department":"59","center":{"lng":3.1619,"lat":50.6362},"population":62342},{"code":"59108","name":"Briastre","department":"59","center":{"lng":3.4895,"lat":50.1508},"population":695},{"code":"59207","name":"Escautpont","department":"59","center":{"lng":3.5513,"lat":50.424},"population":4174},{"code":"59229","name":"Féron","department":"59","center":{"lng":4.0168,"lat":50.0476},"population":509},{"code":"59306","name":"Hestrud","department":"59","center":{"lng":4.1402,"lat":50.2035},"population":299},{"code":"59328","name":"Lambersart","department":"59","center":{"lng":3.0248,"lat":50.6538},"population":27105},{"code":"59405","name":"Mœuvres","department":"59","center":{"lng":3.0682,"lat":50.159},"population":493},{"code":"59427","name":"La Neuville","department":"59","center":{"lng":3.0537,"lat":50.4983},"population":606},{"code":"59449","name":"Orchies","department":"59","center":{"lng":3.2398,"lat":50.4684},"population":8390},{"code":"59504","name":"Rœulx","department":"59","center":{"lng":3.3281,"lat":50.3137},"population":3767},{"code":"59526","name":"Saint-Amand-les-Eaux","department":"59","center":{"lng":3.4447,"lat":50.4382},"population":16042},{"code":"59548","name":"Saint-Waast","department":"59","center":{"lng":3.7472,"lat":50.3033},"population":672},{"code":"59603","name":"Trith-Saint-Léger","department":"59","center":{"lng":3.4879,"lat":50.3295},"population":6062},{"code":"59625","name":"Villers-Plouich","department":"59","center":{"lng":3.1379,"lat":50.0791},"population":389},{"code":"59647","name":"Watten","department":"59","center":{"lng":2.2315,"lat":50.8317},"population":2567},{"code":"59669","name":"Zuytpeene","department":"59","center":{"lng":2.4217,"lat":50.7903},"population":542},{"code":"60010","name":"Amblainville","department":"60","center":{"lng":2.1249,"lat":49.2062},"population":1786},{"code":"60032","name":"Autrêches","department":"60","center":{"lng":3.1295,"lat":49.4501},"population":725},{"code":"60054","name":"Beaumont-les-Nonains","department":"60","center":{"lng":2.0051,"lat":49.3234},"population":337},{"code":"60076","name":"Blargies","department":"60","center":{"lng":1.7586,"lat":49.6716},"population":505},{"code":"60098","name":"Bouvresse","department":"60","center":{"lng":1.7587,"lat":49.651},"population":170},{"code":"60131","name":"Catheux","department":"60","center":{"lng":2.1034,"lat":49.6507},"population":101},{"code":"60153","name":"Choqueuse-les-Bénards","department":"60","center":{"lng":2.0738,"lat":49.6483},"population":99},{"code":"60175","name":"Creil","department":"60","center":{"lng":2.4841,"lat":49.2557},"population":36494},{"code":"60197","name":"Dieudonné","department":"60","center":{"lng":2.2373,"lat":49.2384},"population":973},{"code":"60230","name":"Le Fay-Saint-Quentin","department":"60","center":{"lng":2.251,"lat":49.4517},"population":529},{"code":"60252","name":"Fournival","department":"60","center":{"lng":2.3796,"lat":49.4629},"population":521},{"code":"60274","name":"Glaignes","department":"60","center":{"lng":2.8399,"lat":49.273},"population":364},{"code":"60296","name":"Hannaches","department":"60","center":{"lng":1.8105,"lat":49.5085},"population":130},{"code":"60351","name":"Lataule","department":"60","center":{"lng":2.6759,"lat":49.5352},"population":117},{"code":"60373","name":"Machemont","department":"60","center":{"lng":2.8754,"lat":49.5108},"population":808},{"code":"60395","name":"Méru","department":"60","center":{"lng":2.1298,"lat":49.2459},"population":14091},{"code":"60450","name":"Neuilly-en-Thelle","department":"60","center":{"lng":2.2769,"lat":49.2281},"population":4132},{"code":"60472","name":"Offoy","department":"60","center":{"lng":2.0433,"lat":49.6985},"population":112},{"code":"60494","name":"Plailly","department":"60","center":{"lng":2.5741,"lat":49.1107},"population":1791},{"code":"60571","name":"Saint-Deniscourt","department":"60","center":{"lng":1.8639,"lat":49.6077},"population":80},{"code":"60593","name":"Saint-Pierre-lès-Bitry","department":"60","center":{"lng":3.0854,"lat":49.4304},"population":147},{"code":"60670","name":"Verneuil-en-Halatte","department":"60","center":{"lng":2.5347,"lat":49.2723},"population":4795},{"code":"60692","name":"Villers-Vicomte","department":"60","center":{"lng":2.2304,"lat":49.6419},"population":151},{"code":"61044","name":"Berjou","department":"61","center":{"lng":-0.4813,"lat":48.8512},"population":427},{"code":"61066","name":"Buré","department":"61","center":{"lng":0.402,"lat":48.5048},"population":101},{"code":"61088","name":"Champ-Haut","department":"61","center":{"lng":0.3232,"lat":48.7276},"population":42},{"code":"61121","name":"Coulimer","department":"61","center":{"lng":0.4634,"lat":48.4795},"population":292},{"code":"61143","name":"Damigny","department":"61","center":{"lng":0.0699,"lat":48.4519},"population":2425},{"code":"61165","name":"La Ferrière-Bochard","department":"61","center":{"lng":-0.0345,"lat":48.4143},"population":706},{"code":"61187","name":"Les Genettes","department":"61","center":{"lng":0.5822,"lat":48.6623},"population":162},{"code":"61242","name":"Le Mage","department":"61","center":{"lng":0.8128,"lat":48.5039},"population":217},{"code":"61264","name":"Ménil-Froger","department":"61","center":{"lng":0.2673,"lat":48.7331},"population":62},{"code":"61286","name":"Montgaudry","department":"61","center":{"lng":0.4028,"lat":48.4071},"population":99},{"code":"61341","name":"Écouves","department":"61","center":{"lng":0.1057,"lat":48.5101},"population":1673},{"code":"61363","name":"Saint-Aquilin-de-Corbion","department":"61","center":{"lng":0.5285,"lat":48.6416},"population":54},{"code":"61385","name":"Saint-Evroult-de-Montfort","department":"61","center":{"lng":0.3134,"lat":48.8139},"population":359},{"code":"61440","name":"Saint-Ouen-sur-Iton","department":"61","center":{"lng":0.6736,"lat":48.7364},"population":827},{"code":"61462","name":"Sarceaux","department":"61","center":{"lng":-0.0336,"lat":48.7157},"population":1047},{"code":"61484","name":"Val-au-Perche","department":"61","center":{"lng":0.6987,"lat":48.2883},"population":3324},{"code":"62012","name":"Agnières","department":"62","center":{"lng":2.6098,"lat":50.3507},"population":255},{"code":"62034","name":"Annequin","department":"62","center":{"lng":2.718,"lat":50.5028},"population":2147},{"code":"62056","name":"Audresselles","department":"62","center":{"lng":1.6131,"lat":50.8288},"population":616},{"code":"62078","name":"Balinghem","department":"62","center":{"lng":1.9375,"lat":50.8627},"population":1225},{"code":"62111","name":"Berlencourt-le-Cauroy","department":"62","center":{"lng":2.4251,"lat":50.2751},"population":273},{"code":"62133","name":"Billy-Montigny","department":"62","center":{"lng":2.9068,"lat":50.4152},"population":8027},{"code":"62155","name":"Bonningues-lès-Ardres","department":"62","center":{"lng":2.0206,"lat":50.7767},"population":620},{"code":"62177","name":"Brimeux","department":"62","center":{"lng":1.837,"lat":50.4353},"population":872},{"code":"62199","name":"Camblain-l'Abbé","department":"62","center":{"lng":2.6369,"lat":50.3759},"population":681},{"code":"62232","name":"La Comté","department":"62","center":{"lng":2.4996,"lat":50.4285},"population":884},{"code":"62254","name":"Coyecques","department":"62","center":{"lng":2.183,"lat":50.601},"population":598},{"code":"62276","name":"Douvrin","department":"62","center":{"lng":2.8321,"lat":50.5103},"population":5799},{"code":"62298","name":"Épinoy","department":"62","center":{"lng":3.1616,"lat":50.2322},"population":509},{"code":"62331","name":"Feuchy","department":"62","center":{"lng":2.8478,"lat":50.2842},"population":1003},{"code":"62353","name":"Frémicourt","department":"62","center":{"lng":2.904,"lat":50.1122},"population":239},{"code":"62375","name":"Gommecourt","department":"62","center":{"lng":2.6533,"lat":50.1377},"population":87},{"code":"62397","name":"Guînes","department":"62","center":{"lng":1.8726,"lat":50.855},"population":5508},{"code":"62430","name":"Hénu","department":"62","center":{"lng":2.5335,"lat":50.1556},"population":151},{"code":"62452","name":"Heuringhem","department":"62","center":{"lng":2.2984,"lat":50.6941},"population":1389},{"code":"62474","name":"Isques","department":"62","center":{"lng":1.6548,"lat":50.6806},"population":1141},{"code":"62496","name":"Lefaux","department":"62","center":{"lng":1.6519,"lat":50.5497},"population":222},{"code":"62551","name":"Marenla","department":"62","center":{"lng":1.8678,"lat":50.4509},"population":264},{"code":"62573","name":"Meurchin","department":"62","center":{"lng":2.8972,"lat":50.495},"population":3715},{"code":"62595","name":"Moulle","department":"62","center":{"lng":2.1721,"lat":50.7914},"population":1166},{"code":"62650","name":"Pelves","department":"62","center":{"lng":2.9174,"lat":50.2878},"population":777},{"code":"62672","name":"Puisieux","department":"62","center":{"lng":2.6877,"lat":50.1042},"population":666},{"code":"62694","name":"Rebreuve-sur-Canche","department":"62","center":{"lng":2.3404,"lat":50.2655},"population":188},{"code":"62771","name":"Sallaumines","department":"62","center":{"lng":2.8631,"lat":50.4215},"population":9633},{"code":"62793","name":"Servins","department":"62","center":{"lng":2.6364,"lat":50.4063},"population":1146},{"code":"62870","name":"Wailly-Beaucamp","department":"62","center":{"lng":1.7246,"lat":50.4065},"population":1063},{"code":"62892","name":"Willerval","department":"62","center":{"lng":2.8486,"lat":50.3628},"population":661},{"code":"63002","name":"Aix-la-Fayette","department":"63","center":{"lng":3.5295,"lat":45.5082},"population":99},{"code":"63024","name":"Avèze","department":"63","center":{"lng":2.6023,"lat":45.5966},"population":159},{"code":"63046","name":"Boudes","department":"63","center":{"lng":3.1842,"lat":45.4536},"population":262},{"code":"63101","name":"Château-sur-Cher","department":"63","center":{"lng":2.5725,"lat":46.1155},"population":67},{"code":"63123","name":"Cournols","department":"63","center":{"lng":3.0393,"lat":45.6408},"population":230},{"code":"63145","name":"Égliseneuve-des-Liards","department":"63","center":{"lng":3.4198,"lat":45.5679},"population":156},{"code":"63167","name":"Gimeaux","department":"63","center":{"lng":3.0983,"lat":45.9488},"population":388},{"code":"63189","name":"Laqueuille","department":"63","center":{"lng":2.7501,"lat":45.6525},"population":351},{"code":"63200","name":"Lussat","department":"63","center":{"lng":3.2312,"lat":45.836},"population":944},{"code":"63222","name":"Meilhaud","department":"63","center":{"lng":3.1656,"lat":45.5434},"population":495},{"code":"63244","name":"Chambaron sur Morge","department":"63","center":{"lng":3.1502,"lat":45.9566},"population":1779},{"code":"63288","name":"Prompsat","department":"63","center":{"lng":3.0684,"lat":45.9459},"population":476},{"code":"63321","name":"Saint-Babel","department":"63","center":{"lng":3.2972,"lat":45.6053},"population":942},{"code":"63343","name":"Saint-Flour-l'Étang","department":"63","center":{"lng":3.5092,"lat":45.7095},"population":272},{"code":"63365","name":"Saint-Jean-des-Ollières","department":"63","center":{"lng":3.44,"lat":45.641},"population":437},{"code":"63387","name":"Saint-Priest-Bramefant","department":"63","center":{"lng":3.4338,"lat":46.0318},"population":869},{"code":"63420","name":"Seychalles","department":"63","center":{"lng":3.3391,"lat":45.807},"population":787},{"code":"63442","name":"Valz-sous-Châteauneuf","department":"63","center":{"lng":3.4194,"lat":45.4307},"population":53},{"code":"63464","name":"Vitrac","department":"63","center":{"lng":2.8928,"lat":45.9778},"population":338},{"code":"64014","name":"Ainhoa","department":"64","center":{"lng":-1.4828,"lat":43.2968},"population":665},{"code":"64036","name":"Arbouet-Sussaute","department":"64","center":{"lng":-0.9874,"lat":43.3783},"population":312},{"code":"64058","name":"Arthez-d'Asson","department":"64","center":{"lng":-0.2532,"lat":43.0808},"population":458},{"code":"64113","name":"Bergouey-Viellenave","department":"64","center":{"lng":-1.063,"lat":43.4257},"population":120},{"code":"64135","name":"Bonnut","department":"64","center":{"lng":-0.7659,"lat":43.5514},"population":801},{"code":"64157","name":"Buzy","department":"64","center":{"lng":-0.4462,"lat":43.1421},"population":1011},{"code":"64179","name":"Castetner","department":"64","center":{"lng":-0.7321,"lat":43.4377},"population":137},{"code":"64212","name":"Espéchède","department":"64","center":{"lng":-0.1972,"lat":43.3181},"population":157},{"code":"64234","name":"Garos","department":"64","center":{"lng":-0.4853,"lat":43.508},"population":263},{"code":"64256","name":"Hasparren","department":"64","center":{"lng":-1.3196,"lat":43.3951},"population":7615},{"code":"64311","name":"Lannecaube","department":"64","center":{"lng":-0.2208,"lat":43.4806},"population":144},{"code":"64355","name":"Louvigny","department":"64","center":{"lng":-0.442,"lat":43.5056},"population":136},{"code":"64377","name":"Mendionde","department":"64","center":{"lng":-1.293,"lat":43.3315},"population":849},{"code":"64399","name":"Montardon","department":"64","center":{"lng":-0.352,"lat":43.3657},"population":2420},{"code":"64410","name":"Mourenx","department":"64","center":{"lng":-0.6156,"lat":43.374},"population":5744},{"code":"64432","name":"Ossas-Suhare","department":"64","center":{"lng":-0.9088,"lat":43.139},"population":89},{"code":"64454","name":"Pontiacq-Viellepinte","department":"64","center":{"lng":-0.0561,"lat":43.3637},"population":176},{"code":"64476","name":"Saint-Esteben","department":"64","center":{"lng":-1.2191,"lat":43.3249},"population":443},{"code":"64498","name":"Saint-Vincent","department":"64","center":{"lng":-0.1588,"lat":43.1604},"population":395},{"code":"64531","name":"Tabaille-Usquain","department":"64","center":{"lng":-0.8914,"lat":43.3602},"population":47},{"code":"65004","name":"Agos-Vidalos","department":"65","center":{"lng":-0.0732,"lat":43.0383},"population":393},{"code":"65026","name":"Aries-Espénan","department":"65","center":{"lng":0.5299,"lat":43.2769},"population":86},{"code":"65048","name":"Aurensan","department":"65","center":{"lng":0.0995,"lat":43.3046},"population":768},{"code":"65103","name":"Bouilh-Péreuilh","department":"65","center":{"lng":0.1926,"lat":43.3088},"population":121},{"code":"65125","name":"Campistrous","department":"65","center":{"lng":0.378,"lat":43.1437},"population":314},{"code":"65147","name":"Cieutat","department":"65","center":{"lng":0.213,"lat":43.1261},"population":606},{"code":"65169","name":"Estaing","department":"65","center":{"lng":-0.2035,"lat":42.8882},"population":94},{"code":"65202","name":"Gez","department":"65","center":{"lng":-0.1275,"lat":43.0103},"population":328},{"code":"65224","name":"Houeydets","department":"65","center":{"lng":0.3553,"lat":43.1542},"population":284},{"code":"65268","name":"Layrisse","department":"65","center":{"lng":0.0496,"lat":43.1377},"population":245},{"code":"65301","name":"Marseillan","department":"65","center":{"lng":0.2129,"lat":43.3027},"population":267},{"code":"65323","name":"Montsérié","department":"65","center":{"lng":0.4367,"lat":43.0499},"population":73},{"code":"65345","name":"Ossun-ez-Angles","department":"65","center":{"lng":0.0563,"lat":43.0802},"population":57},{"code":"65367","name":"Poumarous","department":"65","center":{"lng":0.2179,"lat":43.1573},"population":154},{"code":"65389","name":"Saint-Laurent-de-Neste","department":"65","center":{"lng":0.4799,"lat":43.0919},"population":960},{"code":"65400","name":"Salles","department":"65","center":{"lng":-0.1673,"lat":43.0298},"population":248},{"code":"65422","name":"Séron","department":"65","center":{"lng":-0.0921,"lat":43.3226},"population":331},{"code":"65444","name":"Tibiran-Jaunac","department":"65","center":{"lng":0.5481,"lat":43.0539},"population":330},{"code":"65466","name":"Vielle-Louron","department":"65","center":{"lng":0.3965,"lat":42.8346},"population":81},{"code":"66016","name":"Banyuls-sur-Mer","department":"66","center":{"lng":3.1014,"lat":42.4602},"population":4583},{"code":"66038","name":"Canohès","department":"66","center":{"lng":2.8294,"lat":42.6514},"population":6575},{"code":"66115","name":"Montesquieu-des-Albères","department":"66","center":{"lng":2.8685,"lat":42.5206},"population":1283},{"code":"66137","name":"Le Perthus","department":"66","center":{"lng":2.8639,"lat":42.4664},"population":565},{"code":"66159","name":"Réal","department":"66","center":{"lng":2.1488,"lat":42.64},"population":75},{"code":"66214","name":"Tresserre","department":"66","center":{"lng":2.842,"lat":42.5559},"population":1171},{"code":"67006","name":"Altenheim","department":"67","center":{"lng":7.4637,"lat":48.7225},"population":228},{"code":"67028","name":"Benfeld","department":"67","center":{"lng":7.5991,"lat":48.3625},"population":5922},{"code":"67105","name":"Drulingen","department":"67","center":{"lng":7.193,"lat":48.8672},"population":1406},{"code":"67127","name":"Ergersheim","department":"67","center":{"lng":7.5326,"lat":48.5748},"population":1467},{"code":"67149","name":"Furchhausen","department":"67","center":{"lng":7.4308,"lat":48.7208},"population":391},{"code":"67204","name":"Hœnheim","department":"67","center":{"lng":7.7509,"lat":48.6274},"population":11413},{"code":"67226","name":"Ittenheim","department":"67","center":{"lng":7.6174,"lat":48.6007},"population":2081},{"code":"67248","name":"Krautergersheim","department":"67","center":{"lng":7.5662,"lat":48.4754},"population":1767},{"code":"67303","name":"Morsbronn-les-Bains","department":"67","center":{"lng":7.7354,"lat":48.9077},"population":680},{"code":"67325","name":"Niederhaslach","department":"67","center":{"lng":7.3466,"lat":48.5371},"population":1382},{"code":"67347","name":"Obermodern-Zutzendorf","department":"67","center":{"lng":7.5422,"lat":48.8483},"population":1767},{"code":"67369","name":"Ottwiller","department":"67","center":{"lng":7.2314,"lat":48.8636},"population":245},{"code":"67424","name":"Saint-Blaise-la-Roche","department":"67","center":{"lng":7.1713,"lat":48.409},"population":243},{"code":"67446","name":"Schillersdorf","department":"67","center":{"lng":7.5253,"lat":48.8694},"population":413},{"code":"67468","name":"Siltzheim","department":"67","center":{"lng":7.0934,"lat":49.0614},"population":615},{"code":"67501","name":"Uttenheim","department":"67","center":{"lng":7.5954,"lat":48.4134},"population":584},{"code":"67523","name":"Weitbruch","department":"67","center":{"lng":7.7806,"lat":48.7606},"population":2721},{"code":"67545","name":"Witternheim","department":"67","center":{"lng":7.6155,"lat":48.3126},"population":509},{"code":"68018","name":"Balschwiller","department":"68","center":{"lng":7.1621,"lat":47.674},"population":736},{"code":"68117","name":"Gunsbach","department":"68","center":{"lng":7.1659,"lat":48.061},"population":864},{"code":"68139","name":"Hirtzbach","department":"68","center":{"lng":7.2104,"lat":47.5891},"population":1438},{"code":"68216","name":"Mooslargue","department":"68","center":{"lng":7.2151,"lat":47.511},"population":405},{"code":"68238","name":"Niffer","department":"68","center":{"lng":7.5013,"lat":47.7138},"population":977},{"code":"68315","name":"Soultz-Haut-Rhin","department":"68","center":{"lng":7.181,"lat":47.8835},"population":7019},{"code":"68337","name":"Traubach-le-Haut","department":"68","center":{"lng":7.0936,"lat":47.6712},"population":636},{"code":"68359","name":"Wattwiller","department":"68","center":{"lng":7.1765,"lat":47.8418},"population":1648},{"code":"69008","name":"Ancy","department":"69","center":{"lng":4.5098,"lat":45.8362},"population":674},{"code":"69107","name":"Lamure-sur-Azergues","department":"69","center":{"lng":4.5088,"lat":46.053},"population":1051},{"code":"69206","name":"Saint-Georges-de-Reneins","department":"69","center":{"lng":4.7164,"lat":46.0587},"population":4533},{"code":"69228","name":"Chabanière","department":"69","center":{"lng":4.6187,"lat":45.5853},"population":4274},{"code":"70031","name":"Athesans-Étroitefontaine","department":"70","center":{"lng":6.5178,"lat":47.5924},"population":630},{"code":"70053","name":"Les Bâties","department":"70","center":{"lng":5.9013,"lat":47.5055},"population":76},{"code":"70075","name":"Bonboillon","department":"70","center":{"lng":5.6949,"lat":47.3417},"population":198},{"code":"70097","name":"Briaucourt","department":"70","center":{"lng":6.2479,"lat":47.8196},"population":250},{"code":"70130","name":"Charcenne","department":"70","center":{"lng":5.7729,"lat":47.3706},"population":298},{"code":"70152","name":"Colombine","department":"70","center":{"lng":5.7549,"lat":47.4001},"population":475},{"code":"70174","name":"Cordonnet","department":"70","center":{"lng":5.9625,"lat":47.4146},"population":147},{"code":"70196","name":"Dampierre-lès-Conflans","department":"70","center":{"lng":6.179,"lat":47.8411},"population":258},{"code":"70251","name":"Francourt","department":"70","center":{"lng":5.7321,"lat":47.6526},"population":101},{"code":"70273","name":"Grammont","department":"70","center":{"lng":6.5141,"lat":47.5161},"population":67},{"code":"70295","name":"La Lanterne-et-les-Armonts","department":"70","center":{"lng":6.5284,"lat":47.7871},"population":196},{"code":"70350","name":"Molay","department":"70","center":{"lng":5.742,"lat":47.7356},"population":68},{"code":"70372","name":"Montureux-lès-Baulay","department":"70","center":{"lng":5.9796,"lat":47.8204},"population":159},{"code":"70394","name":"Onay","department":"70","center":{"lng":5.6877,"lat":47.3915},"population":62},{"code":"70471","name":"Sainte-Reine","department":"70","center":{"lng":5.7728,"lat":47.4999},"population":22},{"code":"70493","name":"Sorans-lès-Breurey","department":"70","center":{"lng":6.0482,"lat":47.3995},"population":433},{"code":"71021","name":"Baron","department":"71","center":{"lng":4.2819,"lat":46.4964},"population":279},{"code":"71043","name":"Les Bordes","department":"71","center":{"lng":5.0434,"lat":46.9004},"population":84},{"code":"71065","name":"Buffières","department":"71","center":{"lng":4.5392,"lat":46.4324},"population":277},{"code":"71087","name":"Chapaize","department":"71","center":{"lng":4.7345,"lat":46.5526},"population":166},{"code":"71120","name":"Chauffailles","department":"71","center":{"lng":4.3418,"lat":46.2055},"population":3656},{"code":"71142","name":"La Comelle","department":"71","center":{"lng":4.1192,"lat":46.8771},"population":248},{"code":"71164","name":"Curtil-sous-Burnand","department":"71","center":{"lng":4.6291,"lat":46.5837},"population":139},{"code":"71186","name":"Écuelles","department":"71","center":{"lng":5.0708,"lat":46.9516},"population":255},{"code":"71241","name":"Jambles","department":"71","center":{"lng":4.6724,"lat":46.7749},"population":475},{"code":"71263","name":"Louhans","department":"71","center":{"lng":5.2424,"lat":46.6344},"population":6483},{"code":"71285","name":"Martigny-le-Comte","department":"71","center":{"lng":4.3351,"lat":46.5365},"population":404},{"code":"71340","name":"Palinges","department":"71","center":{"lng":4.2028,"lat":46.5478},"population":1413},{"code":"71362","name":"Pruzilly","department":"71","center":{"lng":4.698,"lat":46.26},"population":330},{"code":"71384","name":"Saint-Ambreuil","department":"71","center":{"lng":4.82,"lat":46.6792},"population":525},{"code":"71461","name":"Saint-Maurice-des-Champs","department":"71","center":{"lng":4.6256,"lat":46.6224},"population":65},{"code":"71483","name":"Saint-Symphorien-des-Bois","department":"71","center":{"lng":4.2891,"lat":46.3266},"population":412},{"code":"71582","name":"La Vineuse sur Fregande","department":"71","center":{"lng":4.5851,"lat":46.468},"population":653},{"code":"72011","name":"Assé-le-Boisne","department":"72","center":{"lng":-0.0112,"lat":48.3188},"population":898},{"code":"72077","name":"Chenu","department":"72","center":{"lng":0.3553,"lat":47.6076},"population":436},{"code":"72099","name":"Courcebœufs","department":"72","center":{"lng":0.281,"lat":48.1268},"population":641},{"code":"72110","name":"Crosmières","department":"72","center":{"lng":-0.1601,"lat":47.7387},"population":993},{"code":"72132","name":"La Ferté-Bernard","department":"72","center":{"lng":0.6366,"lat":48.1847},"population":8769},{"code":"72154","name":"La Flèche","department":"72","center":{"lng":-0.0605,"lat":47.6908},"population":15081},{"code":"72176","name":"Le Lude","department":"72","center":{"lng":0.1432,"lat":47.6404},"population":4016},{"code":"72198","name":"La Milesse","department":"72","center":{"lng":0.1331,"lat":48.0663},"population":2631},{"code":"72231","name":"Parigné-l'Évêque","department":"72","center":{"lng":0.364,"lat":47.9251},"population":5367},{"code":"72253","name":"Roëzé-sur-Sarthe","department":"72","center":{"lng":0.0641,"lat":47.8939},"population":2546},{"code":"72275","name":"Saint-Corneille","department":"72","center":{"lng":0.344,"lat":48.0785},"population":1517},{"code":"72297","name":"Saint-Marceau","department":"72","center":{"lng":0.1225,"lat":48.1833},"population":536},{"code":"72330","name":"Savigné-sous-le-Lude","department":"72","center":{"lng":0.0648,"lat":47.6338},"population":447},{"code":"72352","name":"Terrehault","department":"72","center":{"lng":0.4078,"lat":48.2025},"population":143},{"code":"72374","name":"Villaines-la-Carelle","department":"72","center":{"lng":0.2975,"lat":48.393},"population":137},{"code":"73001","name":"Aiguebelette-le-Lac","department":"73","center":{"lng":5.8111,"lat":45.5446},"population":247},{"code":"73023","name":"Aussois","department":"73","center":{"lng":6.7266,"lat":45.248},"population":682},{"code":"73067","name":"La Chambre","department":"73","center":{"lng":6.293,"lat":45.3687},"population":1191},{"code":"73089","name":"Coise-Saint-Jean-Pied-Gauthier","department":"73","center":{"lng":6.1303,"lat":45.5199},"population":1306},{"code":"73100","name":"Domessin","department":"73","center":{"lng":5.6988,"lat":45.5354},"population":1999},{"code":"73122","name":"Gerbaix","department":"73","center":{"lng":5.7378,"lat":45.6069},"population":445},{"code":"73166","name":"Montendry","department":"73","center":{"lng":6.2402,"lat":45.524},"population":50},{"code":"73188","name":"Notre-Dame-des-Millières","department":"73","center":{"lng":6.3576,"lat":45.6147},"population":1000},{"code":"73221","name":"Saint-Alban-des-Villards","department":"73","center":{"lng":6.2327,"lat":45.3091},"population":88},{"code":"73243","name":"Saint-Jean-d'Arvey","department":"73","center":{"lng":5.991,"lat":45.605},"population":1704},{"code":"73265","name":"Saint-Ours","department":"73","center":{"lng":5.9824,"lat":45.7561},"population":760},{"code":"73320","name":"Villargondran","department":"73","center":{"lng":6.3773,"lat":45.2525},"population":804},{"code":"74013","name":"Anthy-sur-Léman","department":"74","center":{"lng":6.4275,"lat":46.3537},"population":2370},{"code":"74035","name":"Bloye","department":"74","center":{"lng":5.9501,"lat":45.8212},"population":565},{"code":"74057","name":"Champanges","department":"74","center":{"lng":6.5529,"lat":46.3704},"population":1181},{"code":"74079","name":"Les Clefs","department":"74","center":{"lng":6.3311,"lat":45.8486},"population":704},{"code":"74112","name":"Epagny Metz-Tessy","department":"74","center":{"lng":6.0934,"lat":45.943},"population":8642},{"code":"74134","name":"Les Gets","department":"74","center":{"lng":6.6571,"lat":46.1553},"population":1227},{"code":"74156","name":"Lully","department":"74","center":{"lng":6.4086,"lat":46.2935},"population":736},{"code":"74178","name":"Menthonnex-sous-Clermont","department":"74","center":{"lng":5.9382,"lat":45.9596},"population":785},{"code":"74211","name":"Pers-Jussy","department":"74","center":{"lng":6.264,"lat":46.1006},"population":3207},{"code":"74233","name":"Saint-Félix","department":"74","center":{"lng":5.9774,"lat":45.8078},"population":2438},{"code":"74255","name":"Sales","department":"74","center":{"lng":5.9609,"lat":45.8809},"population":2267},{"code":"74299","name":"Veyrier-du-Lac","department":"74","center":{"lng":6.1755,"lat":45.8854},"population":2308},{"code":"74310","name":"Viuz-la-Chiésaz","department":"74","center":{"lng":6.0771,"lat":45.8125},"population":1302},{"code":"76015","name":"Angiens","department":"76","center":{"lng":0.8021,"lat":49.8336},"population":518},{"code":"76059","name":"Bazinval","department":"76","center":{"lng":1.5457,"lat":49.9481},"population":410},{"code":"76114","name":"Bolbec","department":"76","center":{"lng":0.483,"lat":49.5755},"population":11618},{"code":"76136","name":"Brachy","department":"76","center":{"lng":0.9487,"lat":49.8168},"population":676},{"code":"76158","name":"Canville-les-Deux-Églises","department":"76","center":{"lng":0.8354,"lat":49.7729},"population":307},{"code":"76213","name":"Daubeuf-Serville","department":"76","center":{"lng":0.4854,"lat":49.6951},"population":396},{"code":"76235","name":"Envermeu","department":"76","center":{"lng":1.2634,"lat":49.898},"population":1973},{"code":"76257","name":"Fallencourt","department":"76","center":{"lng":1.5652,"lat":49.8673},"population":180},{"code":"76279","name":"Foucart","department":"76","center":{"lng":0.5907,"lat":49.6175},"population":339},{"code":"76312","name":"Gournay-en-Bray","department":"76","center":{"lng":1.7168,"lat":49.4763},"population":5834},{"code":"76334","name":"Gueures","department":"76","center":{"lng":0.9499,"lat":49.8423},"population":524},{"code":"76356","name":"Hermanville","department":"76","center":{"lng":0.9867,"lat":49.8201},"population":116},{"code":"76378","name":"Jumièges","department":"76","center":{"lng":0.8305,"lat":49.4283},"population":1743},{"code":"76411","name":"Marques","department":"76","center":{"lng":1.6831,"lat":49.7797},"population":236},{"code":"76433","name":"Mesnil-Panneville","department":"76","center":{"lng":0.885,"lat":49.5919},"population":764},{"code":"76455","name":"Morville-le-Héron","department":"76","center":{"lng":1.412,"lat":49.49},"population":293},{"code":"76477","name":"Notre-Dame-du-Bec","department":"76","center":{"lng":0.2235,"lat":49.595},"population":477},{"code":"76499","name":"Petiville","department":"76","center":{"lng":0.5789,"lat":49.4542},"population":1179},{"code":"76510","name":"Prétot-Vicquemare","department":"76","center":{"lng":0.847,"lat":49.7342},"population":229},{"code":"76532","name":"Rocquemont","department":"76","center":{"lng":1.2962,"lat":49.609},"population":762},{"code":"76554","name":"Saint-Aignan-sur-Ry","department":"76","center":{"lng":1.3488,"lat":49.4976},"population":341},{"code":"76576","name":"Saint-Eustache-la-Forêt","department":"76","center":{"lng":0.4494,"lat":49.5535},"population":1213},{"code":"76598","name":"Saint-Léger-aux-Bois","department":"76","center":{"lng":1.6144,"lat":49.823},"population":479},{"code":"76631","name":"Saint-Paër","department":"76","center":{"lng":0.8844,"lat":49.5227},"population":1318},{"code":"76653","name":"Saint-Vaast-Dieppedalle","department":"76","center":{"lng":0.7244,"lat":49.7579},"population":377},{"code":"76675","name":"Sierville","department":"76","center":{"lng":1.0348,"lat":49.593},"population":1105},{"code":"76697","name":"Torcy-le-Grand","department":"76","center":{"lng":1.183,"lat":49.7936},"population":793},{"code":"76730","name":"Veauville-lès-Quelles","department":"76","center":{"lng":0.7118,"lat":49.7397},"population":125},{"code":"76752","name":"Yerville","department":"76","center":{"lng":0.8902,"lat":49.6752},"population":2658},{"code":"77005","name":"Annet-sur-Marne","department":"77","center":{"lng":2.7067,"lat":48.9232},"population":3329},{"code":"77027","name":"Beaumont-du-Gâtinais","department":"77","center":{"lng":2.4896,"lat":48.1435},"population":1136},{"code":"77049","name":"Boutigny","department":"77","center":{"lng":2.9326,"lat":48.9144},"population":850},{"code":"77104","name":"Châtres","department":"77","center":{"lng":2.8166,"lat":48.7066},"population":712},{"code":"77126","name":"Congis-sur-Thérouanne","department":"77","center":{"lng":2.976,"lat":49.0116},"population":1776},{"code":"77148","name":"Crouy-sur-Ourcq","department":"77","center":{"lng":3.0812,"lat":49.0853},"population":1806},{"code":"77203","name":"Germigny-l'Évêque","department":"77","center":{"lng":2.9577,"lat":48.9888},"population":1350},{"code":"77225","name":"La Haute-Maison","department":"77","center":{"lng":3.0059,"lat":48.883},"population":342},{"code":"77247","name":"Lescherolles","department":"77","center":{"lng":3.353,"lat":48.7645},"population":450},{"code":"77269","name":"Maincy","department":"77","center":{"lng":2.7038,"lat":48.5541},"population":1833},{"code":"77302","name":"Moncourt-Fromonville","department":"77","center":{"lng":2.7153,"lat":48.2983},"population":1908},{"code":"77368","name":"Poigny","department":"77","center":{"lng":3.2772,"lat":48.5449},"population":505},{"code":"77401","name":"Sainte-Aulde","department":"77","center":{"lng":3.1731,"lat":49.0049},"population":692},{"code":"77423","name":"Saint-Martin-des-Champs","department":"77","center":{"lng":3.3347,"lat":48.7838},"population":660},{"code":"77445","name":"Savigny-le-Temple","department":"77","center":{"lng":2.5759,"lat":48.5846},"population":30630},{"code":"77467","name":"La Tombe","department":"77","center":{"lng":3.0949,"lat":48.3873},"population":201},{"code":"77489","name":"Vaux-sur-Lunain","department":"77","center":{"lng":2.9559,"lat":48.2143},"population":232},{"code":"77500","name":"Villebéon","department":"77","center":{"lng":2.9277,"lat":48.2033},"population":464},{"code":"77522","name":"Villiers-sur-Seine","department":"77","center":{"lng":3.383,"lat":48.4569},"population":285},{"code":"78138","name":"Chanteloup-les-Vignes","department":"78","center":{"lng":2.0336,"lat":48.9773},"population":10793},{"code":"78237","name":"Flins-Neuve-Église","department":"78","center":{"lng":1.5773,"lat":48.8927},"population":160},{"code":"78314","name":"Issou","department":"78","center":{"lng":1.7865,"lat":48.9884},"population":3858},{"code":"78358","name":"Maisons-Laffitte","department":"78","center":{"lng":2.1533,"lat":48.9503},"population":22855},{"code":"78413","name":"Mondreville","department":"78","center":{"lng":1.5568,"lat":48.9034},"population":390},{"code":"78655","name":"Vieille-Église-en-Yvelines","department":"78","center":{"lng":1.8759,"lat":48.6695},"population":618},{"code":"78677","name":"Villette","department":"78","center":{"lng":1.6917,"lat":48.9244},"population":537},{"code":"79007","name":"Allonne","department":"79","center":{"lng":-0.3783,"lat":46.5749},"population":616},{"code":"79029","name":"Beaulieu-sous-Parthenay","department":"79","center":{"lng":-0.2136,"lat":46.5762},"population":676},{"code":"79106","name":"Couture-d'Argenson","department":"79","center":{"lng":-0.0876,"lat":45.9972},"population":408},{"code":"79128","name":"François","department":"79","center":{"lng":-0.3424,"lat":46.3761},"population":976},{"code":"79249","name":"Saint-Gelais","department":"79","center":{"lng":-0.3919,"lat":46.3797},"population":2217},{"code":"79304","name":"Sansais","department":"79","center":{"lng":-0.5947,"lat":46.2924},"population":765},{"code":"79326","name":"Thénezay","department":"79","center":{"lng":-0.0414,"lat":46.7239},"population":1398},{"code":"79348","name":"Villefollet","department":"79","center":{"lng":-0.2737,"lat":46.1197},"population":203},{"code":"80030","name":"Arry","department":"80","center":{"lng":1.7202,"lat":50.2815},"population":218},{"code":"80052","name":"Baizieux","department":"80","center":{"lng":2.514,"lat":49.9895},"population":242},{"code":"80074","name":"Becquigny","department":"80","center":{"lng":2.622,"lat":49.6887},"population":116},{"code":"80096","name":"Béthencourt-sur-Mer","department":"80","center":{"lng":1.4969,"lat":50.0775},"population":897},{"code":"80151","name":"Buire-sur-l'Ancre","department":"80","center":{"lng":2.5942,"lat":49.9754},"population":296},{"code":"80173","name":"Cardonnette","department":"80","center":{"lng":2.3582,"lat":49.9516},"population":514},{"code":"80195","name":"Chuignolles","department":"80","center":{"lng":2.726,"lat":49.9029},"population":147},{"code":"80250","name":"Domvast","department":"80","center":{"lng":1.9002,"lat":50.1999},"population":341},{"code":"80272","name":"Épénancourt","department":"80","center":{"lng":2.9291,"lat":49.8211},"population":126},{"code":"80294","name":"Éterpigny","department":"80","center":{"lng":2.9151,"lat":49.8867},"population":168},{"code":"80371","name":"Froyelles","department":"80","center":{"lng":1.9258,"lat":50.2245},"population":94},{"code":"80393","name":"Gruny","department":"80","center":{"lng":2.8169,"lat":49.7265},"population":306},{"code":"80470","name":"Léalvillers","department":"80","center":{"lng":2.5074,"lat":50.0687},"population":158},{"code":"80591","name":"Neuville-au-Bois","department":"80","center":{"lng":1.7853,"lat":49.9681},"population":146},{"code":"80690","name":"Rumigny","department":"80","center":{"lng":2.2825,"lat":49.8037},"population":623},{"code":"81020","name":"Aussac","department":"81","center":{"lng":2.0373,"lat":43.8617},"population":263},{"code":"81042","name":"Burlats","department":"81","center":{"lng":2.3374,"lat":43.6358},"population":2010},{"code":"81064","name":"Castelnau-de-Montmiral","department":"81","center":{"lng":1.7857,"lat":43.9912},"population":1055},{"code":"81086","name":"Espérausses","department":"81","center":{"lng":2.5264,"lat":43.6989},