[{"code":"01319","name":"Relevant","department":"01","center":{"lng":4.9399,"lat":46.0808},"population":467},{"code":"01418","name":"Thil","department":"01","center":{"lng":5.0189,"lat":45.8184},"population":1208},{"code":"02309","name":"Festieux","department":"02","center":{"lng":3.7609,"lat":49.5255},"population":707},{"code":"02408","name":"Laon","department":"02","center":{"lng":3.613,"lat":49.5711},"population":24066},{"code":"02507","name":"Montgru-Saint-Hilaire","department":"02","center":{"lng":3.326,"lat":49.177},"population":30},{"code":"02529","name":"Mortiers","department":"02","center":{"lng":3.6658,"lat":49.6966},"population":184},{"code":"02606","name":"Le Plessier-Huleu","department":"02","center":{"lng":3.3481,"lat":49.2391},"population":85},{"code":"02628","name":"Puiseux-en-Retz","department":"02","center":{"lng":3.1357,"lat":49.2939},"population":221},{"code":"02705","name":"La Selve","department":"02","center":{"lng":3.9946,"lat":49.5706},"population":198},{"code":"02727","name":"Sons-et-Ronchères","department":"02","center":{"lng":3.6682,"lat":49.7669},"population":207},{"code":"02749","name":"Troësnes","department":"02","center":{"lng":3.1773,"lat":49.1984},"population":211},{"code":"02804","name":"Villemontoire","department":"02","center":{"lng":3.3204,"lat":49.3004},"population":210},{"code":"02826","name":"Voulpaix","department":"02","center":{"lng":3.8332,"lat":49.8408},"population":348},{"code":"10009","name":"Arrelles","department":"10","center":{"lng":4.2835,"lat":48.0458},"population":88},{"code":"10108","name":"Courtaoult","department":"10","center":{"lng":3.8691,"lat":48.024},"population":90},{"code":"10207","name":"Longueville-sur-Aube","department":"10","center":{"lng":3.9116,"lat":48.5484},"population":133},{"code":"10229","name":"Maupas","department":"10","center":{"lng":4.076,"lat":48.1373},"population":99},{"code":"10306","name":"Proverville","department":"10","center":{"lng":4.6761,"lat":48.2337},"population":223},{"code":"10328","name":"Rouilly-Sacey","department":"10","center":{"lng":4.2718,"lat":48.3471},"population":388},{"code":"10405","name":"Verricourt","department":"10","center":{"lng":4.3337,"lat":48.4536},"population":60},{"code":"10427","name":"Ville-sur-Arce","department":"10","center":{"lng":4.4473,"lat":48.1143},"population":203},{"code":"11219","name":"Marsa","department":"11","center":{"lng":2.1411,"lat":42.8211},"population":22},{"code":"11318","name":"Roquecourbe-Minervois","department":"11","center":{"lng":2.6506,"lat":43.2124},"population":140},{"code":"11417","name":"Villarzel-du-Razès","department":"11","center":{"lng":2.2009,"lat":43.1447},"population":95},{"code":"11439","name":"Villespy","department":"11","center":{"lng":2.0974,"lat":43.321},"population":425},{"code":"12209","name":"Saint-Amans-des-Cots","department":"12","center":{"lng":2.6839,"lat":44.6905},"population":732},{"code":"14409","name":"Merville-Franceville-Plage","department":"14","center":{"lng":-0.1999,"lat":49.2671},"population":2222},{"code":"14607","name":"Saint-Louet-sur-Seulles","department":"14","center":{"lng":-0.6778,"lat":49.0972},"population":135},{"code":"14706","name":"Tourville-en-Auge","department":"14","center":{"lng":0.1956,"lat":49.3195},"population":258},{"code":"14728","name":"Vaucelles","department":"14","center":{"lng":-0.7388,"lat":49.2789},"population":600},{"code":"21119","name":"Bussières","department":"21","center":{"lng":4.9639,"lat":47.6585},"population":44},{"code":"21218","name":"Curtil-Saint-Seine","department":"21","center":{"lng":4.9259,"lat":47.4637},"population":113},{"code":"21317","name":"Is-sur-Tille","department":"21","center":{"lng":5.1136,"lat":47.5252},"population":4308},{"code":"21339","name":"Lantenay","department":"21","center":{"lng":4.8672,"lat":47.3435},"population":501},{"code":"21416","name":"Mirebeau-sur-Bèze","department":"21","center":{"lng":5.3222,"lat":47.4054},"population":1937},{"code":"21438","name":"Montmoyen","department":"21","center":{"lng":4.7955,"lat":47.7303},"population":72},{"code":"21515","name":"Quetigny","department":"21","center":{"lng":5.1123,"lat":47.3209},"population":8897},{"code":"21537","name":"Saffres","department":"21","center":{"lng":4.5797,"lat":47.366},"population":120},{"code":"21559","name":"Sainte-Marie-sur-Ouche","department":"21","center":{"lng":4.8056,"lat":47.2887},"population":701},{"code":"21614","name":"Spoy","department":"21","center":{"lng":5.1868,"lat":47.4476},"population":391},{"code":"21636","name":"Thury","department":"21","center":{"lng":4.5313,"lat":47.0312},"population":260},{"code":"21713","name":"Vonges","department":"21","center":{"lng":5.3933,"lat":47.2886},"population":360},{"code":"22109","name":"Lanloup","department":"22","center":{"lng":-2.9706,"lat":48.7096},"population":251},{"code":"22208","name":"Plouasne","department":"22","center":{"lng":-2.0102,"lat":48.3118},"population":1749},{"code":"22307","name":"Saint-Julien","department":"22","center":{"lng":-2.8177,"lat":48.4486},"population":2072},{"code":"24309","name":"Neuvic","department":"24","center":{"lng":0.4728,"lat":45.0889},"population":3663},{"code":"24408","name":"Saint-Front-d'Alemps","department":"24","center":{"lng":0.7986,"lat":45.3203},"population":252},{"code":"24507","name":"Sainte-Trie","department":"24","center":{"lng":1.2066,"lat":45.2908},"population":113},{"code":"24529","name":"Segonzac","department":"24","center":{"lng":0.4389,"lat":45.2022},"population":204},{"code":"25519","name":"Saint-Hippolyte","department":"25","center":{"lng":6.8124,"lat":47.3082},"population":965},{"code":"25618","name":"Villars-sous-Écot","department":"25","center":{"lng":6.6992,"lat":47.4183},"population":338},{"code":"2B093","name":"Corbara","department":"2B","center":{"lng":8.8995,"lat":42.6197},"population":942},{"code":"2B170","name":"Morsiglia","department":"2B","center":{"lng":9.3742,"lat":42.9363},"population":107},{"code":"2B192","name":"Olmo","department":"2B","center":{"lng":9.4139,"lat":42.5018},"population":139},{"code":"2B291","name":"Stazzona","department":"2B","center":{"lng":9.3745,"lat":42.38},"population":34},{"code":"30007","name":"Alès","department":"30","center":{"lng":4.0905,"lat":44.125},"population":45025},{"code":"30029","name":"Barjac","department":"30","center":{"lng":4.3456,"lat":44.3137},"population":1606},{"code":"30106","name":"Durfort-et-Saint-Martin-de-Sossenac","department":"30","center":{"lng":3.948,"lat":43.9874},"population":757},{"code":"30128","name":"Générac","department":"30","center":{"lng":4.3587,"lat":43.719},"population":4039},{"code":"30205","name":"Pougnadoresse","department":"30","center":{"lng":4.5098,"lat":44.0912},"population":263},{"code":"30227","name":"Saint-Ambroix","department":"30","center":{"lng":4.1913,"lat":44.2489},"population":3353},{"code":"30249","name":"Saint-Dionisy","department":"30","center":{"lng":4.2232,"lat":43.8056},"population":1071},{"code":"30304","name":"Salazac","department":"30","center":{"lng":4.5373,"lat":44.2587},"population":215},{"code":"30326","name":"Tavel","department":"30","center":{"lng":4.6872,"lat":44.0086},"population":2032},{"code":"30348","name":"Vézénobres","department":"30","center":{"lng":4.1368,"lat":44.052},"population":1839},{"code":"31019","name":"Artigue","department":"31","center":{"lng":0.6409,"lat":42.8268},"population":32},{"code":"31118","name":"Castelnau-d'Estrétefonds","department":"31","center":{"lng":1.3516,"lat":43.7956},"population":6915},{"code":"31217","name":"Génos","department":"31","center":{"lng":0.6681,"lat":43.0004},"population":73},{"code":"31239","name":"L'Isle-en-Dodon","department":"31","center":{"lng":0.831,"lat":43.3792},"population":1622},{"code":"31316","name":"Marignac","department":"31","center":{"lng":0.6649,"lat":42.893},"population":488},{"code":"31338","name":"Menville","department":"31","center":{"lng":1.1888,"lat":43.6789},"population":799},{"code":"31415","name":"Peyrouzet","department":"31","center":{"lng":0.8362,"lat":43.209},"population":81},{"code":"31437","name":"Pouze","department":"31","center":{"lng":1.5353,"lat":43.4341},"population":87},{"code":"31459","name":"Roquesérière","department":"31","center":{"lng":1.634,"lat":43.7299},"population":882},{"code":"31514","name":"Saint-Rome","department":"31","center":{"lng":1.6745,"lat":43.4151},"population":58},{"code":"31536","name":"Saux-et-Pomarède","department":"31","center":{"lng":0.7043,"lat":43.1508},"population":241},{"code":"31558","name":"Toutens","department":"31","center":{"lng":1.7463,"lat":43.4747},"population":430},{"code":"32009","name":"Armous-et-Cau","department":"32","center":{"lng":0.1883,"lat":43.5707},"population":95},{"code":"32108","name":"Corneillan","department":"32","center":{"lng":-0.1841,"lat":43.6547},"population":156},{"code":"32207","name":"Leboulin","department":"32","center":{"lng":0.6608,"lat":43.6728},"population":344},{"code":"32229","name":"Mansempuy","department":"32","center":{"lng":0.8085,"lat":43.7433},"population":58},{"code":"32306","name":"Pauilhac","department":"32","center":{"lng":0.6231,"lat":43.8834},"population":601},{"code":"32328","name":"Pouy-Roquelaure","department":"32","center":{"lng":0.5217,"lat":44.0391},"population":115},{"code":"32405","name":"Sainte-Radegonde","department":"32","center":{"lng":0.5867,"lat":43.8407},"population":175},{"code":"32427","name":"Sembouès","department":"32","center":{"lng":0.1714,"lat":43.4672},"population":58},{"code":"32449","name":"Toujouse","department":"32","center":{"lng":-0.1826,"lat":43.8229},"population":306},{"code":"33219","name":"La Lande-de-Fronsac","department":"33","center":{"lng":-0.3797,"lat":44.9849},"population":2739},{"code":"33318","name":"Pessac","department":"33","center":{"lng":-0.681,"lat":44.786},"population":66874},{"code":"33417","name":"Sainte-Hélène","department":"33","center":{"lng":-0.9071,"lat":44.9653},"population":3068},{"code":"33439","name":"Saint-Mariens","department":"33","center":{"lng":-0.4093,"lat":45.1228},"population":1637},{"code":"33516","name":"Soussac","department":"33","center":{"lng":0.0093,"lat":44.7359},"population":184},{"code":"33538","name":"Valeyrac","department":"33","center":{"lng":-0.8768,"lat":45.4057},"population":544},{"code":"34209","name":"Portiragnes","department":"34","center":{"lng":3.3458,"lat":43.3024},"population":3388},{"code":"34308","name":"Taussac-la-Billière","department":"34","center":{"lng":3.0766,"lat":43.6339},"population":462},{"code":"40006","name":"Arengosse","department":"40","center":{"lng":-0.7811,"lat":44.0299},"population":713},{"code":"40028","name":"Bastennes","department":"40","center":{"lng":-0.7802,"lat":43.6504},"population":244},{"code":"40105","name":"Garein","department":"40","center":{"lng":-0.6514,"lat":44.0521},"population":426},{"code":"40127","name":"Hontanx","department":"40","center":{"lng":-0.27,"lat":43.8197},"population":611},{"code":"40149","name":"Lencouacq","department":"40","center":{"lng":-0.3856,"lat":44.1482},"population":376},{"code":"40204","name":"Nerbis","department":"40","center":{"lng":-0.7229,"lat":43.7498},"population":267},{"code":"40226","name":"Pimbo","department":"40","center":{"lng":-0.3744,"lat":43.5799},"population":198},{"code":"40248","name":"Saint-André-de-Seignanx","department":"40","center":{"lng":-1.3619,"lat":43.5621},"population":1913},{"code":"40303","name":"Solférino","department":"40","center":{"lng":-0.907,"lat":44.1155},"population":361},{"code":"40325","name":"Vielle-Tursan","department":"40","center":{"lng":-0.4639,"lat":43.6857},"population":283},{"code":"41018","name":"Blois","department":"41","center":{"lng":1.3049,"lat":47.5813},"population":47092},{"code":"41139","name":"Meusnes","department":"41","center":{"lng":1.501,"lat":47.2419},"population":1039},{"code":"41216","name":"Saint-Jean-Froidmentel","department":"41","center":{"lng":1.2089,"lat":47.9622},"population":507},{"code":"41238","name":"Savigny-sur-Braye","department":"41","center":{"lng":0.838,"lat":47.8666},"population":1960},{"code":"42008","name":"Arcon","department":"42","center":{"lng":3.8669,"lat":46.0091},"population":110},{"code":"42107","name":"Gumières","department":"42","center":{"lng":3.9831,"lat":45.5294},"population":319},{"code":"42129","name":"Maclas","department":"42","center":{"lng":4.6973,"lat":45.363},"population":1867},{"code":"42206","name":"Saint-Bonnet-les-Oules","department":"42","center":{"lng":4.3341,"lat":45.5393},"population":1817},{"code":"42228","name":"Saint-Georges-Haute-Ville","department":"42","center":{"lng":4.093,"lat":45.5426},"population":1458},{"code":"42305","name":"La Talaudière","department":"42","center":{"lng":4.4257,"lat":45.4775},"population":7103},{"code":"42327","name":"Vérin","department":"42","center":{"lng":4.743,"lat":45.46},"population":655},{"code":"43119","name":"Lavoûte-sur-Loire","department":"43","center":{"lng":3.9049,"lat":45.1197},"population":813},{"code":"43218","name":"Saint-Pierre-Eynac","department":"43","center":{"lng":4.0343,"lat":45.0426},"population":1250},{"code":"44109","name":"Nantes","department":"44","center":{"lng":-1.5603,"lat":47.2382},"population":325070},{"code":"44208","name":"Treffieux","department":"44","center":{"lng":-1.5281,"lat":47.614},"population":976},{"code":"46309","name":"Souillac","department":"46","center":{"lng":1.465,"lat":44.9144},"population":3199},{"code":"50027","name":"Bacilly","department":"50","center":{"lng":-1.4313,"lat":48.7052},"population":935},{"code":"50049","name":"Besneville","department":"50","center":{"lng":-1.6318,"lat":49.3766},"population":662},{"code":"50126","name":"Chavoy","department":"50","center":{"lng":-1.3346,"lat":48.7368},"population":130},{"code":"50148","name":"Couvains","department":"50","center":{"lng":-1.0099,"lat":49.1618},"population":577},{"code":"50225","name":"Le Guislain","department":"50","center":{"lng":-1.2186,"lat":48.9683},"population":139},{"code":"50247","name":"Hocquigny","department":"50","center":{"lng":-1.4014,"lat":48.8083},"population":194},{"code":"50269","name":"Liesville-sur-Douve","department":"50","center":{"lng":-1.3244,"lat":49.3504},"population":214},{"code":"50302","name":"Le Mesnil-Amey","department":"50","center":{"lng":-1.2128,"lat":49.1045},"population":287},{"code":"50324","name":"Le Mesnil-Véneron","department":"50","center":{"lng":-1.1644,"lat":49.2254},"population":108},{"code":"50368","name":"Nay","department":"50","center":{"lng":-1.3724,"lat":49.2414},"population":68},{"code":"50401","name":"Pierreville","department":"50","center":{"lng":-1.773,"lat":49.4665},"population":759},{"code":"50423","name":"Rampan","department":"50","center":{"lng":-1.1314,"lat":49.1465},"population":227},{"code":"50445","name":"Saint-André-de-Bohon","department":"50","center":{"lng":-1.2515,"lat":49.2405},"population":369},{"code":"50467","name":"Saint-Floxel","department":"50","center":{"lng":-1.3558,"lat":49.4907},"population":490},{"code":"50489","name":"Saint-Jean-de-la-Haize","department":"50","center":{"lng":-1.3598,"lat":48.7258},"population":538},{"code":"50500","name":"Saint-Laurent-de-Terregatte","department":"50","center":{"lng":-1.2448,"lat":48.5745},"population":645},{"code":"50522","name":"Saint-Maurice-en-Cotentin","department":"50","center":{"lng":-1.6993,"lat":49.3925},"population":248},{"code":"50588","name":"Tamerville","department":"50","center":{"lng":-1.4675,"lat":49.5402},"population":693},{"code":"50621","name":"Vaudreville","department":"50","center":{"lng":-1.3581,"lat":49.5159},"population":72},{"code":"50643","name":"Virandeville","department":"50","center":{"lng":-1.7147,"lat":49.5694},"population":771},{"code":"51017","name":"Arzillières-Neuville","department":"51","center":{"lng":4.6041,"lat":48.6419},"population":326},{"code":"51039","name":"Bassu","department":"51","center":{"lng":4.6918,"lat":48.8334},"population":94},{"code":"51116","name":"Champguyon","department":"51","center":{"lng":3.5639,"lat":48.7729},"population":296},{"code":"51138","name":"Châtrices","department":"51","center":{"lng":4.9395,"lat":49.0388},"population":36},{"code":"51215","name":"Dompremy","department":"51","center":{"lng":4.7395,"lat":48.7326},"population":116},{"code":"51237","name":"Esternay","department":"51","center":{"lng":3.5839,"lat":48.7281},"population":1776},{"code":"51259","name":"Francheville","department":"51","center":{"lng":4.54,"lat":48.8797},"population":192},{"code":"51314","name":"Lagery","department":"51","center":{"lng":3.7279,"lat":49.2084},"population":234},{"code":"51336","name":"Maffrécourt","department":"51","center":{"lng":4.8208,"lat":49.1165},"population":57},{"code":"51358","name":"Maurupt-le-Montois","department":"51","center":{"lng":4.8559,"lat":48.7319},"population":534},{"code":"51413","name":"Oiry","department":"51","center":{"lng":4.0415,"lat":49.0075},"population":886},{"code":"51435","name":"Pocancy","department":"51","center":{"lng":4.1413,"lat":48.9436},"population":177},{"code":"51457","name":"Cœur-de-la-Vallée","department":"51","center":{"lng":3.8089,"lat":49.0945},"population":645},{"code":"51479","name":"Saint-Euphraise-et-Clairizet","department":"51","center":{"lng":3.8866,"lat":49.213},"population":245},{"code":"51512","name":"Saint-Quentin-sur-Coole","department":"51","center":{"lng":4.3299,"lat":48.8486},"population":104},{"code":"51534","name":"Serzy-et-Prin","department":"51","center":{"lng":3.766,"lat":49.2465},"population":212},{"code":"51556","name":"Soudron","department":"51","center":{"lng":4.1959,"lat":48.8336},"population":299},{"code":"51578","name":"Trécon","department":"51","center":{"lng":4.0946,"lat":48.8674},"population":87},{"code":"51611","name":"Vert-Toulon","department":"51","center":{"lng":3.9046,"lat":48.8425},"population":285},{"code":"51633","name":"Villers-Franqueux","department":"51","center":{"lng":3.9527,"lat":49.331},"population":299},{"code":"51655","name":"Vouzy","department":"51","center":{"lng":4.1115,"lat":48.9183},"population":296},{"code":"52007","name":"Ambonville","department":"52","center":{"lng":5.0139,"lat":48.3153},"population":85},{"code":"52029","name":"Autigny-le-Grand","department":"52","center":{"lng":5.1504,"lat":48.4726},"population":130},{"code":"52106","name":"Chanoy","department":"52","center":{"lng":5.2858,"lat":47.9195},"population":128},{"code":"52128","name":"Cirey-lès-Mareilles","department":"52","center":{"lng":5.2993,"lat":48.1956},"population":152},{"code":"52205","name":"Foulain","department":"52","center":{"lng":5.1632,"lat":48.0234},"population":681},{"code":"52227","name":"Graffigny-Chemin","department":"52","center":{"lng":5.6486,"lat":48.1683},"population":198},{"code":"52249","name":"Isômes","department":"52","center":{"lng":5.3032,"lat":47.6355},"population":147},{"code":"52304","name":"Malaincourt-sur-Meuse","department":"52","center":{"lng":5.6062,"lat":48.1552},"population":49},{"code":"52326","name":"Mirbel","department":"52","center":{"lng":5.0388,"lat":48.2847},"population":37},{"code":"52348","name":"Neuilly-l'Évêque","department":"52","center":{"lng":5.4393,"lat":47.9182},"population":591},{"code":"52403","name":"Praslay","department":"52","center":{"lng":5.1094,"lat":47.7381},"population":82},{"code":"52425","name":"Rivière-les-Fosses","department":"52","center":{"lng":5.2243,"lat":47.6453},"population":184},{"code":"52447","name":"Saint-Ciergues","department":"52","center":{"lng":5.259,"lat":47.8821},"population":179},{"code":"52469","name":"Semoutiers-Montsaon","department":"52","center":{"lng":5.0466,"lat":48.0606},"population":723},{"code":"52502","name":"Valleret","department":"52","center":{"lng":5.0081,"lat":48.4886},"population":63},{"code":"52524","name":"Vignory","department":"52","center":{"lng":5.0894,"lat":48.2715},"population":219},{"code":"52546","name":"Voncourt","department":"52","center":{"lng":5.6746,"lat":47.7172},"population":17},{"code":"53019","name":"Bannes","department":"53","center":{"lng":-0.3491,"lat":47.9859},"population":119},{"code":"53118","name":"Le Housseau-Brétignolles","department":"53","center":{"lng":-0.5424,"lat":48.473},"population":228},{"code":"54009","name":"Allamont","department":"54","center":{"lng":5.7815,"lat":49.1266},"population":159},{"code":"54108","name":"Burthecourt-aux-Chênes","department":"54","center":{"lng":6.2487,"lat":48.5773},"population":153},{"code":"54207","name":"Fraisnes-en-Saintois","department":"54","center":{"lng":6.0598,"lat":48.3735},"population":84},{"code":"54229","name":"Glonville","department":"54","center":{"lng":6.6856,"lat":48.4546},"population":376},{"code":"54306","name":"Lay-Saint-Remy","department":"54","center":{"lng":5.7643,"lat":48.6801},"population":339},{"code":"54328","name":"Ludres","department":"54","center":{"lng":6.1751,"lat":48.6213},"population":5899},{"code":"54405","name":"Ochey","department":"54","center":{"lng":5.953,"lat":48.5955},"population":522},{"code":"54427","name":"Pierre-Percée","department":"54","center":{"lng":6.9418,"lat":48.4612},"population":96},{"code":"54449","name":"Rehainviller","department":"54","center":{"lng":6.4685,"lat":48.5668},"population":1053},{"code":"54504","name":"Serrouville","department":"54","center":{"lng":5.8783,"lat":49.3941},"population":674},{"code":"54526","name":"Tomblaine","department":"54","center":{"lng":6.2212,"lat":48.6851},"population":9040},{"code":"54548","name":"Vannes-le-Châtel","department":"54","center":{"lng":5.7849,"lat":48.5738},"population":511},{"code":"55219","name":"Grimaucourt-en-Woëvre","department":"55","center":{"lng":5.5668,"lat":49.164},"population":97},{"code":"55439","name":"Ronvaux","department":"55","center":{"lng":5.5596,"lat":49.1315},"population":105},{"code":"55516","name":"Tréveray","department":"55","center":{"lng":5.3929,"lat":48.6043},"population":550},{"code":"56209","name":"Sainte-Brigitte","department":"56","center":{"lng":-3.1048,"lat":48.1777},"population":178},{"code":"57419","name":"Loupershouse","department":"57","center":{"lng":6.909,"lat":49.0823},"population":899},{"code":"57518","name":"Oberstinzel","department":"57","center":{"lng":7.0377,"lat":48.7929},"population":320},{"code":"57617","name":"Saint-Jure","department":"57","center":{"lng":6.2329,"lat":48.9416},"population":281},{"code":"57639","name":"Schorbach","department":"57","center":{"lng":7.4099,"lat":49.0795},"population":541},{"code":"57716","name":"Vigy","department":"57","center":{"lng":6.3126,"lat":49.2084},"population":1541},{"code":"57738","name":"Waldhouse","department":"57","center":{"lng":7.4592,"lat":49.1419},"population":350},{"code":"59619","name":"Villereau","department":"59","center":{"lng":3.6803,"lat":50.2487},"population":1062},{"code":"60004","name":"Achy","department":"60","center":{"lng":1.9701,"lat":49.5624},"population":406},{"code":"60026","name":"Auchy-la-Montagne","department":"60","center":{"lng":2.121,"lat":49.5742},"population":561},{"code":"60048","name":"Baugy","department":"60","center":{"lng":2.7535,"lat":49.453},"population":284},{"code":"60103","name":"Bresles","department":"60","center":{"lng":2.2463,"lat":49.4124},"population":4032},{"code":"60125","name":"Canly","department":"60","center":{"lng":2.6956,"lat":49.3911},"population":743},{"code":"60147","name":"Chevincourt","department":"60","center":{"lng":2.8498,"lat":49.5165},"population":782},{"code":"60169","name":"Courcelles-lès-Gisors","department":"60","center":{"lng":1.7349,"lat":49.2607},"population":811},{"code":"60224","name":"Étavigny","department":"60","center":{"lng":2.9804,"lat":49.1287},"population":177},{"code":"60268","name":"Gannes","department":"60","center":{"lng":2.4164,"lat":49.5749},"population":356},{"code":"60301","name":"Haucourt","department":"60","center":{"lng":1.9313,"lat":49.5051},"population":132},{"code":"60323","name":"Janville","department":"60","center":{"lng":2.8576,"lat":49.4539},"population":635},{"code":"60345","name":"Lamécourt","department":"60","center":{"lng":2.4621,"lat":49.4304},"population":194},{"code":"60367","name":"Loconville","department":"60","center":{"lng":1.9185,"lat":49.2571},"population":331},{"code":"60389","name":"Maucourt","department":"60","center":{"lng":3.0809,"lat":49.6327},"population":232},{"code":"60400","name":"Le Mesnil-sur-Bulles","department":"60","center":{"lng":2.3555,"lat":49.4837},"population":266},{"code":"60422","name":"Montlognon","department":"60","center":{"lng":2.7074,"lat":49.1522},"population":206},{"code":"60444","name":"Mureaumont","department":"60","center":{"lng":1.7839,"lat":49.6236},"population":140},{"code":"60466","name":"Noroy","department":"60","center":{"lng":2.5106,"lat":49.4427},"population":254},{"code":"60488","name":"Passel","department":"60","center":{"lng":2.9647,"lat":49.557},"population":271},{"code":"60521","name":"Quincampoix-Fleuzy","department":"60","center":{"lng":1.7687,"lat":49.7455},"population":403},{"code":"60543","name":"Rocquemont","department":"60","center":{"lng":2.8194,"lat":49.2598},"population":118},{"code":"60565","name":"Saint-André-Farivillers","department":"60","center":{"lng":2.3047,"lat":49.5835},"population":512},{"code":"60587","name":"Saint-Martin-Longueau","department":"60","center":{"lng":2.6008,"lat":49.3461},"population":1431},{"code":"60620","name":"Silly-Tillard","department":"60","center":{"lng":2.153,"lat":49.3156},"population":452},{"code":"60642","name":"Tracy-le-Val","department":"60","center":{"lng":3.0142,"lat":49.4903},"population":1041},{"code":"60664","name":"Vendeuil-Caply","department":"60","center":{"lng":2.2955,"lat":49.6083},"population":444},{"code":"60686","name":"Villers-sous-Saint-Leu","department":"60","center":{"lng":2.3828,"lat":49.2184},"population":2301},{"code":"61038","name":"Bellême","department":"61","center":{"lng":0.5638,"lat":48.3719},"population":1457},{"code":"61137","name":"Craménil","department":"61","center":{"lng":-0.3712,"lat":48.7437},"population":128},{"code":"61159","name":"Fay","department":"61","center":{"lng":0.411,"lat":48.6637},"population":69},{"code":"61214","name":"L'Aigle","department":"61","center":{"lng":0.6118,"lat":48.7566},"population":7771},{"code":"61258","name":"Le Mêle-sur-Sarthe","department":"61","center":{"lng":0.3536,"lat":48.5116},"population":659},{"code":"61357","name":"Rouperroux","department":"61","center":{"lng":-0.079,"lat":48.5476},"population":175},{"code":"61379","name":"Saint-Cyr-la-Rosière","department":"61","center":{"lng":0.6428,"lat":48.3164},"population":234},{"code":"61412","name":"Saint-Julien-sur-Sarthe","department":"61","center":{"lng":0.372,"lat":48.4887},"population":679},{"code":"61456","name":"Saint-Sulpice-sur-Risle","department":"61","center":{"lng":0.6806,"lat":48.7784},"population":1587},{"code":"62006","name":"Achiet-le-Petit","department":"62","center":{"lng":2.7568,"lat":50.1285},"population":311},{"code":"62028","name":"Ames","department":"62","center":{"lng":2.4149,"lat":50.5345},"population":660},{"code":"62105","name":"Belle-et-Houllefort","department":"62","center":{"lng":1.7671,"lat":50.7473},"population":524},{"code":"62127","name":"Bezinghem","department":"62","center":{"lng":1.8591,"lat":50.5987},"population":374},{"code":"62149","name":"Boisdinghem","department":"62","center":{"lng":2.0941,"lat":50.7493},"population":255},{"code":"62204","name":"Campagne-lès-Hesdin","department":"62","center":{"lng":1.8601,"lat":50.4009},"population":1944},{"code":"62248","name":"Courcelles-le-Comte","department":"62","center":{"lng":2.779,"lat":50.1577},"population":479},{"code":"62303","name":"Érin","department":"62","center":{"lng":2.2201,"lat":50.4309},"population":220},{"code":"62325","name":"Fauquembergues","department":"62","center":{"lng":2.0935,"lat":50.5902},"population":942},{"code":"62347","name":"Fosseux","department":"62","center":{"lng":2.5674,"lat":50.2516},"population":126},{"code":"62369","name":"Gavrelle","department":"62","center":{"lng":2.8822,"lat":50.3267},"population":785},{"code":"62402","name":"Halinghen","department":"62","center":{"lng":1.6795,"lat":50.6072},"population":309},{"code":"62424","name":"Hendecourt-lès-Cagnicourt","department":"62","center":{"lng":2.9507,"lat":50.2143},"population":297},{"code":"62446","name":"Hesdigneul-lès-Boulogne","department":"62","center":{"lng":1.6751,"lat":50.6527},"population":835},{"code":"62468","name":"Humières","department":"62","center":{"lng":2.2111,"lat":50.3833},"population":207},{"code":"62501","name":"Lespinoy","department":"62","center":{"lng":1.8621,"lat":50.4271},"population":243},{"code":"62523","name":"Loison-sous-Lens","department":"62","center":{"lng":2.8625,"lat":50.4458},"population":5202},{"code":"62545","name":"Maninghem","department":"62","center":{"lng":1.9393,"lat":50.5477},"population":150},{"code":"62567","name":"Mentque-Nortbécourt","department":"62","center":{"lng":2.0965,"lat":50.772},"population":653},{"code":"62589","name":"Mont-Saint-Éloi","department":"62","center":{"lng":2.6912,"lat":50.3491},"population":1023},{"code":"62600","name":"Nédon","department":"62","center":{"lng":2.3641,"lat":50.5216},"population":156},{"code":"62622","name":"Nort-Leulinghem","department":"62","center":{"lng":2.0889,"lat":50.7957},"population":268},{"code":"62644","name":"Ouve-Wirquin","department":"62","center":{"lng":2.1426,"lat":50.6537},"population":496},{"code":"62666","name":"Pont-à-Vendin","department":"62","center":{"lng":2.8865,"lat":50.4771},"population":3099},{"code":"62688","name":"Rang-du-Fliers","department":"62","center":{"lng":1.6454,"lat":50.4209},"population":4339},{"code":"62721","name":"Roquetoire","department":"62","center":{"lng":2.3361,"lat":50.6685},"population":1967},{"code":"62765","name":"Saint-Omer","department":"62","center":{"lng":2.2648,"lat":50.7673},"population":14358},{"code":"62787","name":"Sempy","department":"62","center":{"lng":1.8774,"lat":50.4968},"population":326},{"code":"62820","name":"Tincques","department":"62","center":{"lng":2.4943,"lat":50.3612},"population":808},{"code":"62842","name":"Vendin-le-Vieil","department":"62","center":{"lng":2.8492,"lat":50.4723},"population":8596},{"code":"62864","name":"Vis-en-Artois","department":"62","center":{"lng":2.9345,"lat":50.2458},"population":639},{"code":"62886","name":"Wicquinghem","department":"62","center":{"lng":1.9512,"lat":50.5733},"population":268},{"code":"63117","name":"Compains","department":"63","center":{"lng":2.925,"lat":45.4357},"population":126},{"code":"63139","name":"Dore-l'Église","department":"63","center":{"lng":3.7543,"lat":45.3766},"population":664},{"code":"63216","name":"Mauzun","department":"63","center":{"lng":3.4254,"lat":45.7049},"population":132},{"code":"63238","name":"Montfermy","department":"63","center":{"lng":2.7988,"lat":45.8664},"population":226},{"code":"63315","name":"Saint-Amant-Tallende","department":"63","center":{"lng":3.1104,"lat":45.6676},"population":1811},{"code":"63337","name":"Saint-Éloy-la-Glacière","department":"63","center":{"lng":3.5635,"lat":45.5607},"population":63},{"code":"63359","name":"Saint-Hilaire-les-Monges","department":"63","center":{"lng":2.6631,"lat":45.8077},"population":84},{"code":"63414","name":"Sauviat","department":"63","center":{"lng":3.5582,"lat":45.72},"population":587},{"code":"63436","name":"Tralaigues","department":"63","center":{"lng":2.5948,"lat":45.9025},"population":77},{"code":"63458","name":"Villeneuve","department":"63","center":{"lng":3.1893,"lat":45.4772},"population":139},{"code":"64008","name":"Ahaxe-Alciette-Bascassan","department":"64","center":{"lng":-1.1571,"lat":43.141},"population":262},{"code":"64107","name":"Béhorléguy","department":"64","center":{"lng":-1.0824,"lat":43.1191},"population":69},{"code":"64129","name":"Billère","department":"64","center":{"lng":-0.3952,"lat":43.3064},"population":14037},{"code":"64206","name":"Escot","department":"64","center":{"lng":-0.5693,"lat":43.0768},"population":120},{"code":"64228","name":"Gabat","department":"64","center":{"lng":-1.0283,"lat":43.3769},"population":276},{"code":"64305","name":"Lahontan","department":"64","center":{"lng":-0.9684,"lat":43.5207},"population":531},{"code":"64327","name":"Lecumberry","department":"64","center":{"lng":-1.1229,"lat":43.085},"population":184},{"code":"64349","name":"Loubieng","department":"64","center":{"lng":-0.7587,"lat":43.4195},"population":493},{"code":"64404","name":"Montory","department":"64","center":{"lng":-0.811,"lat":43.0947},"population":314},{"code":"64426","name":"Orin","department":"64","center":{"lng":-0.6758,"lat":43.2251},"population":266},{"code":"64448","name":"Poey-de-Lescar","department":"64","center":{"lng":-0.4564,"lat":43.3546},"population":1860},{"code":"64503","name":"Samsons-Lion","department":"64","center":{"lng":-0.1139,"lat":43.433},"population":95},{"code":"64525","name":"Siros","department":"64","center":{"lng":-0.4916,"lat":43.3433},"population":840},{"code":"64547","name":"Ustaritz","department":"64","center":{"lng":-1.4704,"lat":43.4019},"population":7684},{"code":"65119","name":"Caixon","department":"65","center":{"lng":0.0186,"lat":43.4107},"population":346},{"code":"65218","name":"Hèches","department":"65","center":{"lng":0.3765,"lat":42.998},"population":589},{"code":"65317","name":"Mont","department":"65","center":{"lng":0.4427,"lat":42.8223},"population":35},{"code":"65339","name":"Orincles","department":"65","center":{"lng":0.0386,"lat":43.1233},"population":361},{"code":"65416","name":"Seich","department":"65","center":{"lng":0.5,"lat":43.0015},"population":88},{"code":"65438","name":"Talazac","department":"65","center":{"lng":0.0387,"lat":43.3345},"population":76},{"code":"66109","name":"Molitg-les-Bains","department":"66","center":{"lng":2.3955,"lat":42.6624},"population":248},{"code":"66208","name":"Théza","department":"66","center":{"lng":2.947,"lat":42.6403},"population":2181},{"code":"67319","name":"Neuhaeusel","department":"67","center":{"lng":8.0903,"lat":48.8154},"population":396},{"code":"67418","name":"Rountzenheim-Auenheim","department":"67","center":{"lng":8.0057,"lat":48.8178},"population":2000},{"code":"67517","name":"Wangen","department":"67","center":{"lng":7.4613,"lat":48.6202},"population":637},{"code":"67539","name":"Wingersheim les Quatre Bans","department":"67","center":{"lng":7.6175,"lat":48.7228},"population":2340},{"code":"68309","name":"Sierentz","department":"68","center":{"lng":7.467,"lat":47.6639},"population":4296},{"code":"70003","name":"Achey","department":"70","center":{"lng":5.6075,"lat":47.574},"population":70},{"code":"70025","name":"Arbecey","department":"70","center":{"lng":5.9377,"lat":47.7403},"population":236},{"code":"70047","name":"Baignes","department":"70","center":{"lng":6.0491,"lat":47.5786},"population":99},{"code":"70069","name":"Betoncourt-Saint-Pancras","department":"70","center":{"lng":6.1826,"lat":47.9224},"population":41},{"code":"70102","name":"Brussey","department":"70","center":{"lng":5.8112,"lat":47.3078},"population":286},{"code":"70124","name":"Champtonnay","department":"70","center":{"lng":5.6625,"lat":47.3775},"population":80},{"code":"70146","name":"Chaux-lès-Port","department":"70","center":{"lng":6.0452,"lat":47.7165},"population":161},{"code":"70168","name":"Conflans-sur-Lanterne","department":"70","center":{"lng":6.2147,"lat":47.8113},"population":569},{"code":"70201","name":"Delain","department":"70","center":{"lng":5.6442,"lat":47.5927},"population":190},{"code":"70245","name":"Fougerolles-Saint-Valbert","department":"70","center":{"lng":6.4203,"lat":47.8925},"population":3777},{"code":"70267","name":"Gevigney-et-Mercey","department":"70","center":{"lng":5.9377,"lat":47.7954},"population":517},{"code":"70289","name":"Igny","department":"70","center":{"lng":5.7552,"lat":47.4813},"population":208},{"code":"70322","name":"Mailleroncourt-Charette","department":"70","center":{"lng":6.2631,"lat":47.7274},"population":279},{"code":"70344","name":"Meurcourt","department":"70","center":{"lng":6.2357,"lat":47.7685},"population":343},{"code":"70366","name":"Villers-Chemin-et-Mont-lès-Étrelles","department":"70","center":{"lng":5.872,"lat":47.4397},"population":123},{"code":"70388","name":"Noidans-lès-Vesoul","department":"70","center":{"lng":6.119,"lat":47.6102},"population":1979},{"code":"70421","name":"Port-sur-Saône","department":"70","center":{"lng":6.034,"lat":47.6893},"population":2966},{"code":"70443","name":"La Grande-Résie","department":"70","center":{"lng":5.5618,"lat":47.3374},"population":89},{"code":"70487","name":"Senargent-Mignafans","department":"70","center":{"lng":6.5297,"lat":47.5654},"population":284},{"code":"70520","name":"Vanne","department":"70","center":{"lng":5.8456,"lat":47.6008},"population":126},{"code":"70542","name":"Venère","department":"70","center":{"lng":5.6759,"lat":47.3589},"population":207},{"code":"70564","name":"Villers-lès-Luxeuil","department":"70","center":{"lng":6.2843,"lat":47.767},"population":312},{"code":"71015","name":"Auxy","department":"71","center":{"lng":4.4195,"lat":46.9378},"population":910},{"code":"71037","name":"Bissy-sur-Fley","department":"71","center":{"lng":4.6211,"lat":46.6645},"population":82},{"code":"71059","name":"Le Breuil","department":"71","center":{"lng":4.4982,"lat":46.7972},"population":3508},{"code":"71136","name":"Clessy","department":"71","center":{"lng":4.0843,"lat":46.5541},"population":276},{"code":"71158","name":"Cuisery","department":"71","center":{"lng":4.9943,"lat":46.5562},"population":1580},{"code":"71213","name":"La Genête","department":"71","center":{"lng":5.0491,"lat":46.5498},"population":567},{"code":"71235","name":"Hurigny","department":"71","center":{"lng":4.7967,"lat":46.3445},"population":1908},{"code":"71257","name":"Lessard-le-National","department":"71","center":{"lng":4.8474,"lat":46.8747},"population":662},{"code":"71279","name":"Le Rousset-Marizy","department":"71","center":{"lng":4.4339,"lat":46.5701},"population":603},{"code":"71312","name":"Montcoy","department":"71","center":{"lng":4.9982,"lat":46.7987},"population":241},{"code":"71334","name":"Oudry","department":"71","center":{"lng":4.1677,"lat":46.5817},"population":384},{"code":"71356","name":"Pouilloux","department":"71","center":{"lng":4.3558,"lat":46.6016},"population":955},{"code":"71378","name":"Rully","department":"71","center":{"lng":4.7601,"lat":46.871},"population":1581},{"code":"71411","name":"Saint-Eugène","department":"71","center":{"lng":4.2238,"lat":46.7351},"population":150},{"code":"71433","name":"Saint-Julien-de-Civry","department":"71","center":{"lng":4.2237,"lat":46.3714},"population":468},{"code":"71455","name":"Saint-Martin-du-Tartre","department":"71","center":{"lng":4.6078,"lat":46.651},"population":150},{"code":"71477","name":"Saint-Romain-sous-Gourdon","department":"71","center":{"lng":4.4162,"lat":46.6222},"population":480},{"code":"71499","name":"Sanvignes-les-Mines","department":"71","center":{"lng":4.2731,"lat":46.6651},"population":4265},{"code":"71510","name":"Semur-en-Brionnais","department":"71","center":{"lng":4.0874,"lat":46.2727},"population":608},{"code":"71532","name":"Taizé","department":"71","center":{"lng":4.6725,"lat":46.5104},"population":196},{"code":"71554","name":"Varenne-l'Arconce","department":"71","center":{"lng":4.1542,"lat":46.3412},"population":111},{"code":"71576","name":"Le Villars","department":"71","center":{"lng":4.9205,"lat":46.5302},"population":285},{"code":"72005","name":"Ancinnes","department":"72","center":{"lng":0.1772,"lat":48.3618},"population":917},{"code":"72027","name":"Beaumont-sur-Dême","department":"72","center":{"lng":0.5847,"lat":47.6903},"population":329},{"code":"72049","name":"La Bruère-sur-Loir","department":"72","center":{"lng":0.3525,"lat":47.6542},"population":250},{"code":"72104","name":"Courgains","department":"72","center":{"lng":0.2721,"lat":48.2874},"population":585},{"code":"72126","name":"Épineu-le-Chevreuil","department":"72","center":{"lng":-0.131,"lat":48.0416},"population":290},{"code":"72148","name":"Jauzé","department":"72","center":{"lng":0.3815,"lat":48.2102},"population":80},{"code":"72225","name":"Oisseau-le-Petit","department":"72","center":{"lng":0.0751,"lat":48.3473},"population":671},{"code":"72247","name":"Pruillé-le-Chétif","department":"72","center":{"lng":0.1062,"lat":47.9934},"population":1333},{"code":"72269","name":"Saint-Calais","department":"72","center":{"lng":0.7418,"lat":47.932},"population":2969},{"code":"72302","name":"Saint-Martin-des-Monts","department":"72","center":{"lng":0.5989,"lat":48.1503},"population":172},{"code":"72324","name":"Saint-Vincent-des-Prés","department":"72","center":{"lng":0.3718,"lat":48.297},"population":503},{"code":"72346","name":"La Suze-sur-Sarthe","department":"72","center":{"lng":0.0243,"lat":47.8766},"population":4628},{"code":"72368","name":"Vancé","department":"72","center":{"lng":0.6553,"lat":47.8305},"population":287},{"code":"73017","name":"Apremont","department":"73","center":{"lng":5.9375,"lat":45.4998},"population":968},{"code":"73039","name":"Belmont-Tramonet","department":"73","center":{"lng":5.6752,"lat":45.5656},"population":512},{"code":"73116","name":"Fontcouverte-la-Toussuire","department":"73","center":{"lng":6.2771,"lat":45.2516},"population":482},{"code":"73138","name":"Jarrier","department":"73","center":{"lng":6.3052,"lat":45.2885},"population":502},{"code":"73215","name":"Valgelon-La Rochette","department":"73","center":{"lng":6.1253,"lat":45.462},"population":4185},{"code":"73237","name":"Saint-Georges-d'Hurtières","department":"73","center":{"lng":6.2832,"lat":45.509},"population":409},{"code":"73259","name":"Saint-Martin-sur-la-Chambre","department":"73","center":{"lng":6.3218,"lat":45.3736},"population":530},{"code":"73314","name":"Villard-d'Héry","department":"73","center":{"lng":6.1401,"lat":45.5141},"population":264},{"code":"74007","name":"Amancy","department":"74","center":{"lng":6.3269,"lat":46.0722},"population":2786},{"code":"74029","name":"Bassy","department":"74","center":{"lng":5.83,"lat":45.9903},"population":398},{"code":"74106","name":"Draillant","department":"74","center":{"lng":6.4734,"lat":46.2956},"population":875},{"code":"74128","name":"Fillinges","department":"74","center":{"lng":6.3465,"lat":46.1703},"population":3550},{"code":"74205","name":"Onnion","department":"74","center":{"lng":6.5021,"lat":46.1858},"population":1281},{"code":"74249","name":"Saint-Paul-en-Chablais","department":"74","center":{"lng":6.6393,"lat":46.3685},"population":2598},{"code":"74304","name":"Ville-en-Sallaz","department":"74","center":{"lng":6.4178,"lat":46.1465},"population":918},{"code":"76009","name":"Ancourteville-sur-Héricourt","department":"76","center":{"lng":0.6613,"lat":49.6914},"population":353},{"code":"76108","name":"Bois-Guillaume","department":"76","center":{"lng":1.1194,"lat":49.4729},"population":14497},{"code":"76207","name":"Cuverville-sur-Yères","department":"76","center":{"lng":1.3893,"lat":49.9516},"population":193},{"code":"76229","name":"Elbeuf-en-Bray","department":"76","center":{"lng":1.6582,"lat":49.4946},"population":393},{"code":"76306","name":"Gonnetot","department":"76","center":{"lng":0.8962,"lat":49.7626},"population":170},{"code":"76328","name":"Grigneuseville","department":"76","center":{"lng":1.1915,"lat":49.6559},"population":373},{"code":"76405","name":"Manéhouville","department":"76","center":{"lng":1.0693,"lat":49.8319},"population":216},{"code":"76427","name":"Mesnières-en-Bray","department":"76","center":{"lng":1.3891,"lat":49.7652},"population":941},{"code":"76449","name":"Montreuil-en-Caux","department":"76","center":{"lng":1.1549,"lat":49.6851},"population":490},{"code":"76504","name":"Pleine-Sève","department":"76","center":{"lng":0.7515,"lat":49.8184},"population":129},{"code":"76526","name":"Ricarville-du-Val","department":"76","center":{"lng":1.2702,"lat":49.7976},"population":193},{"code":"76548","name":"Ry","department":"76","center":{"lng":1.3357,"lat":49.4736},"population":786},{"code":"76603","name":"Saint-Maclou-la-Brière","department":"76","center":{"lng":0.4697,"lat":49.6491},"population":470},{"code":"76647","name":"Saint-Romain-de-Colbosc","department":"76","center":{"lng":0.3652,"lat":49.5287},"population":4608},{"code":"76669","name":"Sausseuzemare-en-Caux","department":"76","center":{"lng":0.3434,"lat":49.6711},"population":430},{"code":"76702","name":"Touffreville-la-Corbeline","department":"76","center":{"lng":0.7672,"lat":49.5837},"population":839},{"code":"76724","name":"Vatierville","department":"76","center":{"lng":1.5214,"lat":49.7879},"population":130},{"code":"76746","name":"Vinnemerville","department":"76","center":{"lng":0.5558,"lat":49.808},"population":224},{"code":"77219","name":"Guérard","department":"77","center":{"lng":2.9533,"lat":48.8128},"population":2669},{"code":"77318","name":"Mortcerf","department":"77","center":{"lng":2.897,"lat":48.78},"population":1405},{"code":"77417","name":"Saint-Léger","department":"77","center":{"lng":3.2709,"lat":48.8424},"population":244},{"code":"77439","name":"Salins","department":"77","center":{"lng":3.0201,"lat":48.4342},"population":1171},{"code":"77516","name":"Ville-Saint-Jacques","department":"77","center":{"lng":2.8994,"lat":48.3436},"population":811},{"code":"78209","name":"Émancé","department":"78","center":{"lng":1.7342,"lat":48.5906},"population":882},{"code":"78407","name":"Mittainville","department":"78","center":{"lng":1.6363,"lat":48.6639},"population":650},{"code":"78506","name":"Prunay-en-Yvelines","department":"78","center":{"lng":1.8041,"lat":48.5257},"population":820},{"code":"78528","name":"Rolleboise","department":"78","center":{"lng":1.6006,"lat":49.0195},"population":351},{"code":"78605","name":"Tacoignières","department":"78","center":{"lng":1.664,"lat":48.8328},"population":1194},{"code":"80002","name":"Ablaincourt-Pressoir","department":"80","center":{"lng":2.8266,"lat":49.8412},"population":268},{"code":"80024","name":"Argœuves","department":"80","center":{"lng":2.245,"lat":49.9394},"population":562},{"code":"80046","name":"Avelesges","department":"80","center":{"lng":1.9323,"lat":49.9034},"population":51},{"code":"80068","name":"Beaumetz","department":"80","center":{"lng":2.1122,"lat":50.1338},"population":217},{"code":"80101","name":"Beuvraignes","department":"80","center":{"lng":2.7747,"lat":49.6394},"population":880},{"code":"80123","name":"Bourdon","department":"80","center":{"lng":2.0868,"lat":49.9883},"population":374},{"code":"80145","name":"Brucamps","department":"80","center":{"lng":2.0571,"lat":50.0701},"population":150},{"code":"80167","name":"Canchy","department":"80","center":{"lng":1.8744,"lat":50.1899},"population":346},{"code":"80189","name":"La Chavatte","department":"80","center":{"lng":2.7639,"lat":49.755},"population":64},{"code":"80200","name":"Cocquerel","department":"80","center":{"lng":1.9585,"lat":50.059},"population":219},{"code":"80222","name":"Crécy-en-Ponthieu","department":"80","center":{"lng":1.8401,"lat":50.2407},"population":1352},{"code":"80244","name":"Dominois","department":"80","center":{"lng":1.8489,"lat":50.3281},"population":170},{"code":"80266","name":"Englebelmer","department":"80","center":{"lng":2.6078,"lat":50.0563},"population":292},{"code":"80288","name":"Estrées-Deniécourt","department":"80","center":{"lng":2.8231,"lat":49.8715},"population":373},{"code":"80321","name":"Folleville","department":"80","center":{"lng":2.3547,"lat":49.6785},"population":142},{"code":"80343","name":"Framicourt","department":"80","center":{"lng":1.676,"lat":49.9543},"population":157},{"code":"80365","name":"Fricamps","department":"80","center":{"lng":1.9912,"lat":49.8187},"population":179},{"code":"80387","name":"Grattepanche","department":"80","center":{"lng":2.3046,"lat":49.7862},"population":320},{"code":"80420","name":"Harponville","department":"80","center":{"lng":2.5012,"lat":50.0365},"population":172},{"code":"80442","name":"Hombleux","department":"80","center":{"lng":2.992,"lat":49.7318},"population":1119},{"code":"80464","name":"Lanchères","department":"80","center":{"lng":1.5532,"lat":50.1687},"population":889},{"code":"80486","name":"Long","department":"80","center":{"lng":1.9864,"lat":50.0419},"population":599},{"code":"80541","name":"Mesnil-Saint-Georges","department":"80","center":{"lng":2.5272,"lat":49.6409},"population":211},{"code":"80563","name":"Montigny-les-Jongleurs","department":"80","center":{"lng":2.1358,"lat":50.1779},"population":101},{"code":"80585","name":"Nesle","department":"80","center":{"lng":2.9122,"lat":49.7601},"population":2296},{"code":"80640","name":"Pozières","department":"80","center":{"lng":2.724,"lat":50.0409},"population":262},{"code":"80662","name":"Ramburelles","department":"80","center":{"lng":1.7095,"lat":49.9682},"population":260},{"code":"80684","name":"Rouy-le-Petit","department":"80","center":{"lng":2.9537,"lat":49.7658},"population":103},{"code":"80783","name":"Vaux-Marquenneville","department":"80","center":{"lng":1.7837,"lat":49.9893},"population":80},{"code":"81014","name":"Anglès","department":"81","center":{"lng":2.5921,"lat":43.5368},"population":517},{"code":"81036","name":"Bout-du-Pont-de-Larn","department":"81","center":{"lng":2.4226,"lat":43.5041},"population":1249},{"code":"81058","name":"Carbes","department":"81","center":{"lng":2.1521,"lat":43.635},"population":241},{"code":"81135","name":"Laparrouquial","department":"81","center":{"lng":2.0302,"lat":44.1199},"population":93},{"code":"81157","name":"Marzens","department":"81","center":{"lng":1.8454,"lat":43.6583},"population":311},{"code":"81179","name":"Montgey","department":"81","center":{"lng":1.9418,"lat":43.5087},"population":274},{"code":"81212","name":"Prades","department":"81","center":{"lng":1.9721,"lat":43.6109},"population":118},{"code":"81234","name":"Roussayrolles","department":"81","center":{"lng":1.8266,"lat":44.0929},"population":85},{"code":"81256","name":"Saint-Jean-de-Vals","department":"81","center":{"lng":2.2565,"lat":43.6868},"population":84},{"code":"81278","name":"Sauveterre","department":"81","center":{"lng":2.5547,"lat":43.4494},"population":186},{"code":"81311","name":"Vénès","department":"81","center":{"lng":2.1904,"lat":43.7388},"population":723},{"code":"82004","name":"Asques","department":"82","center":{"lng":0.9509,"lat":44.0084},"population":132},{"code":"82026","name":"Bruniquel","department":"82","center":{"lng":1.6571,"lat":44.0535},"population":639},{"code":"82048","name":"Dieupentale","department":"82","center":{"lng":1.2816,"lat":43.8686},"population":1644},{"code":"82103","name":"Marignac","department":"82","center":{"lng":0.9191,"lat":43.8411},"population":102},{"code":"82125","name":"Montech","department":"82","center":{"lng":1.2363,"lat":43.9623},"population":6657},{"code":"82147","name":"Puylagarde","department":"82","center":{"lng":1.8502,"lat":44.3079},"population":345},{"code":"82169","name":"Saint-Nicolas-de-la-Grave","department":"82","center":{"lng":1.0262,"lat":44.0627},"population":2287},{"code":"83016","name":"Le Beausset","department":"83","center":{"lng":5.8239,"lat":43.205},"population":10098},{"code":"83038","name":"Châteaudouble","department":"83","center":{"lng":6.442,"lat":43.6259},"population":476},{"code":"83115","name":"Sainte-Maxime","department":"83","center":{"lng":6.6139,"lat":43.3584},"population":14394},{"code":"83137","name":"Toulon","department":"83","center":{"lng":5.9334,"lat":43.1364},"population":180834},{"code":"84006","name":"Auribeau","department":"84","center":{"lng":5.4444,"lat":43.8275},"population":70},{"code":"84028","name":"Cairanne","department":"84","center":{"lng":4.9339,"lat":44.2277},"population":1121},{"code":"84105","name":"Saignon","department":"84","center":{"lng":5.4405,"lat":43.868},"population":922},{"code":"84127","name":"Sérignan-du-Comtat","department":"84","center":{"lng":4.8496,"lat":44.1933},"population":2896},{"code":"84149","name":"Violès","department":"84","center":{"lng":4.9511,"lat":44.1764},"population":1745},{"code":"85018","name":"Beauvoir-sur-Mer","department":"85","center":{"lng":-2.0648,"lat":46.9047},"population":3955},{"code":"85117","name":"Lairoux","department":"85","center":{"lng":-1.2707,"lat":46.4477},"population":601},{"code":"85139","name":"Le Mazeau","department":"85","center":{"lng":-0.6769,"lat":46.332},"population":457},{"code":"85216","name":"Sainte-Gemme-la-Plaine","department":"85","center":{"lng":-1.113,"lat":46.4733},"population":2074},{"code":"85238","name":"Saint-Laurent-sur-Sèvre","department":"85","center":{"lng":-0.8996,"lat":46.9506},"population":3613},{"code":"86008","name":"Arçay","department":"86","center":{"lng":0.0012,"lat":46.9544},"population":342},{"code":"86107","name":"Gouex","department":"86","center":{"lng":0.6607,"lat":46.3701},"population":473},{"code":"86129","name":"Lésigny","department":"86","center":{"lng":0.7692,"lat":46.8346},"population":525},{"code":"86206","name":"Raslay","department":"86","center":{"lng":0.0036,"lat":47.1128},"population":135},{"code":"86228","name":"Saint-Laurent-de-Jourdes","department":"86","center":{"lng":0.5391,"lat":46.3904},"population":196},{"code":"87119","name":"Pierre-Buffière","department":"87","center":{"lng":1.3588,"lat":45.6909},"population":1147},{"code":"88109","name":"Cleurie","department":"88","center":{"lng":6.674,"lat":48.0552},"population":648},{"code":"88208","name":"Godoncourt","department":"88","center":{"lng":5.9306,"lat":47.9968},"population":116},{"code":"88307","name":"Mont-lès-Lamarche","department":"88","center":{"lng":5.7984,"lat":48.0229},"population":94},{"code":"88406","name":"Rugney","department":"88","center":{"lng":6.2499,"lat":48.3452},"population":131},{"code":"88428","name":"Saint-Michel-sur-Meurthe","department":"88","center":{"lng":6.8768,"lat":48.3132},"population":1794},{"code":"88505","name":"Vienville","department":"88","center":{"lng":6.8436,"lat":48.1762},"population":120},{"code":"88527","name":"Xaffévillers","department":"88","center":{"lng":6.611,"lat":48.4104},"population":133},{"code":"89319","name":"Quenne","department":"89","center":{"lng":3.6564,"lat":47.7781},"population":489},{"code":"89418","name":"Tonnerre","department":"89","center":{"lng":3.9771,"lat":47.8403},"population":4268},{"code":"90001","name":"Andelnans","department":"90","center":{"lng":6.8628,"lat":47.6017},"population":1123},{"code":"90023","name":"Chaux","department":"90","center":{"lng":6.8386,"lat":47.7141},"population":1181},{"code":"90045","name":"Fêche-l'Église","department":"90","center":{"lng":6.9573,"lat":47.5008},"population":721},{"code":"90067","name":"Menoncourt","department":"90","center":{"lng":6.954,"lat":47.6804},"population":391},{"code":"90089","name":"Rougemont-le-Château","department":"90","center":{"lng":6.96,"lat":47.7468},"population":1481},{"code":"90100","name":"Vauthiermont","department":"90","center":{"lng":7.0258,"lat":47.6801},"population":220},{"code":"91035","name":"Authon-la-Plaine","department":"91","center":{"lng":1.9545,"lat":48.456},"population":371},{"code":"91079","name":"Boissy-la-Rivière","department":"91","center":{"lng":2.1715,"lat":48.3801},"population":533},{"code":"91112","name":"Brouy","department":"91","center":{"lng":2.2927,"lat":48.3268},"population":129},{"code":"91156","name":"Cheptainville","department":"91","center":{"lng":2.276,"lat":48.5472},"population":2212},{"code":"91332","name":"Leudeville","department":"91","center":{"lng":2.3291,"lat":48.5726},"population":1560},{"code":"91376","name":"Marolles-en-Hurepoix","department":"91","center":{"lng":2.2992,"lat":48.5641},"population":5688},{"code":"91552","name":"Saint-Germain-lès-Arpajon","department":"91","center":{"lng":2.2644,"lat":48.5982},"population":11577},{"code":"92025","name":"Colombes","department":"92","center":{"lng":2.2469,"lat":48.9218},"population":90692},{"code":"92047","name":"Marnes-la-Coquette","department":"92","center":{"lng":2.1689,"lat":48.8286},"population":1758},{"code":"93015","name":"Coubron","department":"93","center":{"lng":2.5759,"lat":48.9173},"population":5156},{"code":"95039","name":"Auvers-sur-Oise","department":"95","center":{"lng":2.1569,"lat":49.0847},"population":6820},{"code":"95116","name":"Bruyères-sur-Oise","department":"95","center":{"lng":2.3342,"lat":49.1643},"population":4907},{"code":"95611","name":"Theuville","department":"95","center":{"lng":2.0678,"lat":49.1567},"population":53},{"code":"95633","name":"Vaudherland","department":"95","center":{"lng":2.4864,"lat":49.0005},"population":102},{"code":"97118","name":"Petit-Bourg","department":"971","center":{"lng":-61.658,"lat":16.1695},"population":24299},{"code":"97217","name":"Le Marin","department":"972","center":{"lng":-60.8589,"lat":14.4822},"population":8526},{"code":"97415","name":"Saint-Paul","department":"974","center":{"lng":55.3402,"lat":-21.0366},"population":106220},{"code":"97613","name":"M'Tsangamouji","department":"976","center":{"lng":45.0845,"lat":-12.755},"population":6432}]