[{"code":"01030","name":"Beauregard","department":"01","center":{"lng":4.7567,"lat":46.0012},"population":826},{"code":"01052","name":"Bouligneux","department":"01","center":{"lng":4.9957,"lat":46.0202},"population":323},{"code":"01074","name":"Chalamont","department":"01","center":{"lng":5.1735,"lat":46.0149},"population":2544},{"code":"01096","name":"Chaveyriat","department":"01","center":{"lng":5.0534,"lat":46.1991},"population":1057},{"code":"01151","name":"Druillat","department":"01","center":{"lng":5.2947,"lat":46.0691},"population":1144},{"code":"01173","name":"Gex","department":"01","center":{"lng":6.0488,"lat":46.3515},"population":13455},{"code":"01195","name":"Jasseron","department":"01","center":{"lng":5.317,"lat":46.2176},"population":1900},{"code":"01250","name":"Misérieux","department":"01","center":{"lng":4.8138,"lat":45.9745},"population":2010},{"code":"01272","name":"Neuville-les-Dames","department":"01","center":{"lng":5.0103,"lat":46.1599},"population":1540},{"code":"01294","name":"Peyrieu","department":"01","center":{"lng":5.6829,"lat":45.674},"population":918},{"code":"01371","name":"Saint-Marcel","department":"01","center":{"lng":4.9862,"lat":45.9485},"population":1300},{"code":"01393","name":"Sandrans","department":"01","center":{"lng":4.9824,"lat":46.0709},"population":578},{"code":"02020","name":"Any-Martin-Rieux","department":"02","center":{"lng":4.219,"lat":49.8851},"population":455},{"code":"02042","name":"Azy-sur-Marne","department":"02","center":{"lng":3.3575,"lat":49.0061},"population":370},{"code":"02064","name":"Belleu","department":"02","center":{"lng":3.3439,"lat":49.3597},"population":3624},{"code":"02086","name":"Bichancourt","department":"02","center":{"lng":3.2135,"lat":49.5787},"population":989},{"code":"02141","name":"La Capelle","department":"02","center":{"lng":3.9146,"lat":49.9705},"population":1757},{"code":"02163","name":"Charly-sur-Marne","department":"02","center":{"lng":3.2936,"lat":48.9821},"population":2584},{"code":"02185","name":"Chézy-en-Orxois","department":"02","center":{"lng":3.1565,"lat":49.1247},"population":377},{"code":"02240","name":"Croix-Fonsomme","department":"02","center":{"lng":3.3937,"lat":49.9329},"population":187},{"code":"02262","name":"Deuillet","department":"02","center":{"lng":3.3571,"lat":49.6271},"population":202},{"code":"02284","name":"Erloy","department":"02","center":{"lng":3.8394,"lat":49.9204},"population":100},{"code":"02361","name":"Guise","department":"02","center":{"lng":3.6229,"lat":49.8973},"population":4510},{"code":"02383","name":"Homblières","department":"02","center":{"lng":3.3709,"lat":49.8569},"population":1425},{"code":"02460","name":"Marcy-sous-Marle","department":"02","center":{"lng":3.7346,"lat":49.7487},"population":204},{"code":"02482","name":"Meurival","department":"02","center":{"lng":3.7621,"lat":49.3583},"population":58},{"code":"02581","name":"Paars","department":"02","center":{"lng":3.6024,"lat":49.3321},"population":314},{"code":"02680","name":"Saint-Gobain","department":"02","center":{"lng":3.394,"lat":49.5966},"population":2313},{"code":"03010","name":"Audes","department":"03","center":{"lng":2.5578,"lat":46.461},"population":408},{"code":"03032","name":"Blomard","department":"03","center":{"lng":2.9644,"lat":46.2908},"population":229},{"code":"03054","name":"Chapeau","department":"03","center":{"lng":3.5127,"lat":46.4928},"population":236},{"code":"03076","name":"Chézy","department":"03","center":{"lng":3.4514,"lat":46.6158},"population":214},{"code":"03098","name":"Désertines","department":"03","center":{"lng":2.6253,"lat":46.3571},"population":4323},{"code":"03131","name":"Isserpent","department":"03","center":{"lng":3.6226,"lat":46.1588},"population":560},{"code":"03175","name":"Monestier","department":"03","center":{"lng":3.1035,"lat":46.2641},"population":280},{"code":"03197","name":"Neuilly-le-Réal","department":"03","center":{"lng":3.4381,"lat":46.4642},"population":1440},{"code":"03230","name":"Saint-Étienne-de-Vicq","department":"03","center":{"lng":3.5384,"lat":46.1696},"population":527},{"code":"03252","name":"Saint-Pont","department":"03","center":{"lng":3.2935,"lat":46.1552},"population":692},{"code":"03274","name":"Sorbier","department":"03","center":{"lng":3.66,"lat":46.3616},"population":321},{"code":"03296","name":"Valigny","department":"03","center":{"lng":2.8214,"lat":46.7153},"population":376},{"code":"04022","name":"Barrême","department":"04","center":{"lng":6.386,"lat":43.9467},"population":402},{"code":"04066","name":"Curbans","department":"04","center":{"lng":6.0189,"lat":44.4132},"population":577},{"code":"04088","name":"Forcalquier","department":"04","center":{"lng":5.7842,"lat":43.9582},"population":5142},{"code":"04121","name":"Mézel","department":"04","center":{"lng":6.1799,"lat":43.9979},"population":617},{"code":"04143","name":"Oraison","department":"04","center":{"lng":5.9232,"lat":43.9116},"population":6042},{"code":"04187","name":"Saint-Lions","department":"04","center":{"lng":6.4045,"lat":43.978},"population":38},{"code":"04220","name":"Les Thuiles","department":"04","center":{"lng":6.5584,"lat":44.3917},"population":365},{"code":"04242","name":"Villeneuve","department":"04","center":{"lng":5.8509,"lat":43.8848},"population":4386},{"code":"05012","name":"Baratier","department":"05","center":{"lng":6.504,"lat":44.5051},"population":643},{"code":"05056","name":"Forest-Saint-Julien","department":"05","center":{"lng":6.1433,"lat":44.6316},"population":344},{"code":"05078","name":"Monêtier-Allemont","department":"05","center":{"lng":5.9317,"lat":44.3917},"population":296},{"code":"05111","name":"Puy-Sanières","department":"05","center":{"lng":6.4389,"lat":44.5596},"population":281},{"code":"05133","name":"Saint-Chaffrey","department":"05","center":{"lng":6.5989,"lat":44.9373},"population":1504},{"code":"05155","name":"Saint-Pierre-Avez","department":"05","center":{"lng":5.7672,"lat":44.2488},"population":33},{"code":"05177","name":"Vars","department":"05","center":{"lng":6.7211,"lat":44.5907},"population":592},{"code":"06002","name":"Amirat","department":"06","center":{"lng":6.8108,"lat":43.8973},"population":49},{"code":"06024","name":"Briançonnet","department":"06","center":{"lng":6.7325,"lat":43.8654},"population":168},{"code":"06046","name":"Colomars","department":"06","center":{"lng":7.2212,"lat":43.757},"population":3507},{"code":"06068","name":"Gourdon","department":"06","center":{"lng":6.9622,"lat":43.7266},"population":365},{"code":"06101","name":"Rigaud","department":"06","center":{"lng":6.976,"lat":43.9942},"population":167},{"code":"06123","name":"Saint-Laurent-du-Var","department":"06","center":{"lng":7.1822,"lat":43.6865},"population":31645},{"code":"06145","name":"Tourette-du-Château","department":"06","center":{"lng":7.1365,"lat":43.8812},"population":147},{"code":"07014","name":"Arlebosc","department":"07","center":{"lng":4.628,"lat":45.0381},"population":361},{"code":"07036","name":"Bogy","department":"07","center":{"lng":4.7682,"lat":45.2827},"population":471},{"code":"07058","name":"Chassiers","department":"07","center":{"lng":4.2936,"lat":44.5656},"population":992},{"code":"07113","name":"Labastide-de-Virac","department":"07","center":{"lng":4.4236,"lat":44.3551},"population":322},{"code":"07157","name":"Meysse","department":"07","center":{"lng":4.704,"lat":44.6188},"population":1380},{"code":"07179","name":"Pourchères","department":"07","center":{"lng":4.5051,"lat":44.7423},"population":137},{"code":"07212","name":"Saint-André-en-Vivarais","department":"07","center":{"lng":4.4162,"lat":45.1131},"population":211},{"code":"07234","name":"Saint-Étienne-de-Valoux","department":"07","center":{"lng":4.7754,"lat":45.2409},"population":274},{"code":"07278","name":"Saint-Michel-de-Chabrillanoux","department":"07","center":{"lng":4.6116,"lat":44.8365},"population":405},{"code":"07311","name":"Sceautres","department":"07","center":{"lng":4.609,"lat":44.6158},"population":147},{"code":"07333","name":"Vanosc","department":"07","center":{"lng":4.5355,"lat":45.2244},"population":934},{"code":"08004","name":"Aire","department":"08","center":{"lng":4.1624,"lat":49.4695},"population":247},{"code":"08026","name":"Aubigny-les-Pothées","department":"08","center":{"lng":4.4259,"lat":49.7646},"population":306},{"code":"08048","name":"Barby","department":"08","center":{"lng":4.3144,"lat":49.5252},"population":388},{"code":"08103","name":"Charbogne","department":"08","center":{"lng":4.5903,"lat":49.5078},"population":219},{"code":"08125","name":"Cliron","department":"08","center":{"lng":4.6195,"lat":49.8079},"population":412},{"code":"08147","name":"Dricourt","department":"08","center":{"lng":4.5216,"lat":49.3941},"population":71},{"code":"08169","name":"Flaignes-Havys","department":"08","center":{"lng":4.3993,"lat":49.825},"population":92},{"code":"08202","name":"Gué-d'Hossus","department":"08","center":{"lng":4.5416,"lat":49.9559},"population":504},{"code":"08246","name":"Landres-et-Saint-Georges","department":"08","center":{"lng":5.01,"lat":49.3504},"population":68},{"code":"08268","name":"Maisoncelle-et-Villers","department":"08","center":{"lng":4.9159,"lat":49.5874},"population":69},{"code":"08301","name":"Montgon","department":"08","center":{"lng":4.717,"lat":49.5157},"population":71},{"code":"08323","name":"La Neuville-lès-Wasigny","department":"08","center":{"lng":4.3618,"lat":49.6497},"population":162},{"code":"08367","name":"Rocroi","department":"08","center":{"lng":4.5548,"lat":49.9277},"population":2256},{"code":"08389","name":"Saint-Marcel","department":"08","center":{"lng":4.5696,"lat":49.7678},"population":320},{"code":"08400","name":"Sapogne-et-Feuchères","department":"08","center":{"lng":4.8045,"lat":49.6619},"population":516},{"code":"08422","name":"Singly","department":"08","center":{"lng":4.7097,"lat":49.6445},"population":137},{"code":"08444","name":"Tétaigne","department":"08","center":{"lng":5.115,"lat":49.6506},"population":131},{"code":"08466","name":"Vaux-lès-Mouzon","department":"08","center":{"lng":5.14,"lat":49.6009},"population":72},{"code":"08488","name":"Vivier-au-Court","department":"08","center":{"lng":4.8217,"lat":49.7325},"population":2811},{"code":"09016","name":"Arnave","department":"09","center":{"lng":1.648,"lat":42.8518},"population":214},{"code":"09038","name":"La Bastide-de-Besplas","department":"09","center":{"lng":1.2766,"lat":43.1684},"population":373},{"code":"09115","name":"Esclagne","department":"09","center":{"lng":1.8449,"lat":42.9828},"population":121},{"code":"09137","name":"Gudas","department":"09","center":{"lng":1.6787,"lat":43.0022},"population":197},{"code":"09159","name":"Lassur","department":"09","center":{"lng":1.7195,"lat":42.7425},"population":84},{"code":"09214","name":"Moulis","department":"09","center":{"lng":1.0957,"lat":42.9348},"population":796},{"code":"09236","name":"Prayols","department":"09","center":{"lng":1.5992,"lat":42.922},"population":366},{"code":"09258","name":"Saint-Félix-de-Rieutord","department":"09","center":{"lng":1.6697,"lat":43.0421},"population":469},{"code":"09313","name":"Tourtouse","department":"09","center":{"lng":1.1351,"lat":43.0901},"population":165},{"code":"09335","name":"Villeneuve","department":"09","center":{"lng":0.9847,"lat":42.9479},"population":42},{"code":"10061","name":"Brévonnes","department":"10","center":{"lng":4.4067,"lat":48.3478},"population":667},{"code":"10083","name":"Chappes","department":"10","center":{"lng":4.2544,"lat":48.1651},"population":356},{"code":"10160","name":"Fravaux","department":"10","center":{"lng":4.6417,"lat":48.2356},"population":36},{"code":"10182","name":"Juvancourt","department":"10","center":{"lng":4.8113,"lat":48.119},"population":108},{"code":"10281","name":"Le Pavillon-Sainte-Julie","department":"10","center":{"lng":3.8974,"lat":48.3635},"population":278},{"code":"10380","name":"Torcy-le-Petit","department":"10","center":{"lng":4.1898,"lat":48.518},"population":72},{"code":"11051","name":"Brézilhac","department":"11","center":{"lng":2.0746,"lat":43.1666},"population":176},{"code":"11073","name":"Cassaignes","department":"11","center":{"lng":2.2942,"lat":42.948},"population":59},{"code":"11095","name":"Comigne","department":"11","center":{"lng":2.5851,"lat":43.1651},"population":329},{"code":"11150","name":"Fontiers-Cabardès","department":"11","center":{"lng":2.2502,"lat":43.3735},"population":467},{"code":"11172","name":"Homps","department":"11","center":{"lng":2.7247,"lat":43.2685},"population":604},{"code":"11194","name":"Lastours","department":"11","center":{"lng":2.3794,"lat":43.3273},"population":148},{"code":"11271","name":"Palairac","department":"11","center":{"lng":2.6574,"lat":42.9584},"population":31},{"code":"11293","name":"Pomas","department":"11","center":{"lng":2.2811,"lat":43.1054},"population":985},{"code":"11370","name":"Salles-d'Aude","department":"11","center":{"lng":3.1082,"lat":43.2349},"population":3280},{"code":"11392","name":"Tournissan","department":"11","center":{"lng":2.6612,"lat":43.0847},"population":284},{"code":"12041","name":"Cabanès","department":"12","center":{"lng":2.2922,"lat":44.193},"population":279},{"code":"12063","name":"La Cavalerie","department":"12","center":{"lng":3.1746,"lat":44.0148},"population":2208},{"code":"12085","name":"Crespin","department":"12","center":{"lng":2.2447,"lat":44.1559},"population":317},{"code":"12140","name":"Martiel","department":"12","center":{"lng":1.9186,"lat":44.3763},"population":989},{"code":"12162","name":"Moyrazès","department":"12","center":{"lng":2.429,"lat":44.328},"population":1085},{"code":"12184","name":"Pomayrols","department":"12","center":{"lng":3.0563,"lat":44.4898},"population":118},{"code":"12261","name":"Saujac","department":"12","center":{"lng":1.9022,"lat":44.4767},"population":125},{"code":"12283","name":"Trémouilles","department":"12","center":{"lng":2.6371,"lat":44.2397},"population":473},{"code":"13031","name":"La Destrousse","department":"13","center":{"lng":5.5984,"lat":43.3788},"population":4023},{"code":"13053","name":"Mallemort","department":"13","center":{"lng":5.1849,"lat":43.728},"population":6190},{"code":"13075","name":"Plan-de-Cuques","department":"13","center":{"lng":5.4639,"lat":43.3642},"population":11504},{"code":"13097","name":"Saint-Martin-de-Crau","department":"13","center":{"lng":4.8688,"lat":43.6074},"population":13962},{"code":"14021","name":"Arromanches-les-Bains","department":"14","center":{"lng":-0.6217,"lat":49.3354},"population":431},{"code":"14043","name":"Barou-en-Auge","department":"14","center":{"lng":-0.0386,"lat":48.9271},"population":64},{"code":"14087","name":"Bonnœil","department":"14","center":{"lng":-0.3676,"lat":48.9245},"population":123},{"code":"14120","name":"Cahagnes","department":"14","center":{"lng":-0.7609,"lat":49.0615},"population":1408},{"code":"14241","name":"Épinay-sur-Odon","department":"14","center":{"lng":-0.6222,"lat":49.0723},"population":629},{"code":"14285","name":"Le Fournet","department":"14","center":{"lng":0.1107,"lat":49.1996},"population":76},{"code":"14362","name":"Lessard-et-le-Chêne","department":"14","center":{"lng":0.1293,"lat":49.0701},"population":155},{"code":"14384","name":"Luc-sur-Mer","department":"14","center":{"lng":-0.3562,"lat":49.3075},"population":3295},{"code":"14461","name":"Mutrécy","department":"14","center":{"lng":-0.424,"lat":49.067},"population":578},{"code":"14483","name":"Ouffières","department":"14","center":{"lng":-0.4908,"lat":49.0246},"population":197},{"code":"14582","name":"Saint-Germain-de-Livet","department":"14","center":{"lng":0.1974,"lat":49.0797},"population":698},{"code":"14681","name":"Surrain","department":"14","center":{"lng":-0.8576,"lat":49.3268},"population":142},{"code":"15011","name":"Arnac","department":"15","center":{"lng":2.2204,"lat":45.0646},"population":178},{"code":"15033","name":"Cézens","department":"15","center":{"lng":2.8572,"lat":44.9919},"population":217},{"code":"15055","name":"Coren","department":"15","center":{"lng":3.1021,"lat":45.0871},"population":445},{"code":"15077","name":"Gourdièges","department":"15","center":{"lng":2.8823,"lat":44.9448},"population":68},{"code":"15110","name":"Lugarde","department":"15","center":{"lng":2.7569,"lat":45.2858},"population":119},{"code":"15132","name":"Montgreleix","department":"15","center":{"lng":2.8874,"lat":45.3571},"population":31},{"code":"15154","name":"Polminhac","department":"15","center":{"lng":2.5816,"lat":44.9554},"population":1205},{"code":"15176","name":"Saint-Chamant","department":"15","center":{"lng":2.4493,"lat":45.0947},"population":237},{"code":"15198","name":"Sainte-Marie","department":"15","center":{"lng":2.888,"lat":44.8967},"population":103},{"code":"15231","name":"Talizat","department":"15","center":{"lng":3.0554,"lat":45.1302},"population":596},{"code":"15253","name":"Vernols","department":"15","center":{"lng":2.8822,"lat":45.2177},"population":59},{"code":"16001","name":"Abzac","department":"16","center":{"lng":0.7174,"lat":46.0999},"population":513},{"code":"16023","name":"Aunac-sur-Charente","department":"16","center":{"lng":0.2352,"lat":45.9253},"population":558},{"code":"16045","name":"Birac","department":"16","center":{"lng":-0.0559,"lat":45.5628},"population":368},{"code":"16067","name":"Bunzac","department":"16","center":{"lng":0.3444,"lat":45.6989},"population":453},{"code":"16089","name":"Châteaubernard","department":"16","center":{"lng":-0.3168,"lat":45.6753},"population":3793},{"code":"16100","name":"Chirac","department":"16","center":{"lng":0.6875,"lat":45.9154},"population":779},{"code":"16122","name":"Ébréon","department":"16","center":{"lng":0.0293,"lat":45.9453},"population":139},{"code":"16144","name":"Fouqueure","department":"16","center":{"lng":0.0709,"lat":45.887},"population":431},{"code":"16166","name":"L'Isle-d'Espagnac","department":"16","center":{"lng":0.199,"lat":45.6623},"population":5691},{"code":"16188","name":"Le Lindois","department":"16","center":{"lng":0.5936,"lat":45.754},"population":339},{"code":"16221","name":"Mons","department":"16","center":{"lng":-0.0318,"lat":45.8734},"population":235},{"code":"16243","name":"Nercillac","department":"16","center":{"lng":-0.2676,"lat":45.7255},"population":1036},{"code":"16287","name":"Roullet-Saint-Estèphe","department":"16","center":{"lng":0.0312,"lat":45.5776},"population":4334},{"code":"16320","name":"Saint-Genis-d'Hiersac","department":"16","center":{"lng":0.0438,"lat":45.7493},"population":915},{"code":"16342","name":"Saint-Palais-du-Né","department":"16","center":{"lng":-0.2852,"lat":45.542},"population":305},{"code":"16364","name":"Sauvagnac","department":"16","center":{"lng":0.6482,"lat":45.7483},"population":68},{"code":"17013","name":"Antezant-la-Chapelle","department":"17","center":{"lng":-0.4797,"lat":45.9987},"population":366},{"code":"17035","name":"Bazauges","department":"17","center":{"lng":-0.1623,"lat":45.9163},"population":104},{"code":"17057","name":"Bouhet","department":"17","center":{"lng":-0.8526,"lat":46.1625},"population":910},{"code":"17079","name":"Chaillevette","department":"17","center":{"lng":-1.0682,"lat":45.7316},"population":1652},{"code":"17112","name":"La Clisse","department":"17","center":{"lng":-0.7544,"lat":45.7317},"population":744},{"code":"17134","name":"Crazannes","department":"17","center":{"lng":-0.7046,"lat":45.8506},"population":442},{"code":"17156","name":"Expiremont","department":"17","center":{"lng":-0.3746,"lat":45.3323},"population":120},{"code":"17178","name":"Givrezac","department":"17","center":{"lng":-0.6318,"lat":45.5415},"population":77},{"code":"17211","name":"Loulay","department":"17","center":{"lng":-0.5129,"lat":46.0445},"population":761},{"code":"17233","name":"Meux","department":"17","center":{"lng":-0.3587,"lat":45.444},"population":329},{"code":"17255","name":"Nancras","department":"17","center":{"lng":-0.8764,"lat":45.751},"population":795},{"code":"17277","name":"Essouvert","department":"17","center":{"lng":-0.5412,"lat":45.9958},"population":1029},{"code":"17299","name":"Rochefort","department":"17","center":{"lng":-0.9745,"lat":45.9455},"population":23188},{"code":"17310","name":"Saint-André-de-Lidon","department":"17","center":{"lng":-0.7594,"lat":45.581},"population":1220},{"code":"17332","name":"Saint-Georges-Antignac","department":"17","center":{"lng":-0.4846,"lat":45.49},"population":407},{"code":"17354","name":"Saint-Léger","department":"17","center":{"lng":-0.5716,"lat":45.6159},"population":672},{"code":"17376","name":"Saint-Ouen-d'Aunis","department":"17","center":{"lng":-1.0268,"lat":46.232},"population":2133},{"code":"17398","name":"Saint-Seurin-de-Palenne","department":"17","center":{"lng":-0.5145,"lat":45.6224},"population":166},{"code":"17431","name":"Soulignonne","department":"17","center":{"lng":-0.7931,"lat":45.775},"population":742},{"code":"17453","name":"Trizay","department":"17","center":{"lng":-0.9036,"lat":45.8842},"population":1505},{"code":"18003","name":"Les Aix-d'Angillon","department":"18","center":{"lng":2.5625,"lat":47.193},"population":1871},{"code":"18025","name":"Beffes","department":"18","center":{"lng":2.9991,"lat":47.0931},"population":598},{"code":"18047","name":"La Chapelle-d'Angillon","department":"18","center":{"lng":2.4416,"lat":47.3705},"population":610},{"code":"18069","name":"Colombiers","department":"18","center":{"lng":2.5584,"lat":46.6983},"population":410},{"code":"18102","name":"Givardon","department":"18","center":{"lng":2.8031,"lat":46.8341},"population":302},{"code":"18124","name":"Lazenay","department":"18","center":{"lng":2.0805,"lat":47.0771},"population":282},{"code":"18146","name":"Ménétréol-sous-Sancerre","department":"18","center":{"lng":2.8702,"lat":47.3194},"population":296},{"code":"18168","name":"Le Noyer","department":"18","center":{"lng":2.6642,"lat":47.3688},"population":236},{"code":"18201","name":"Saint-Caprais","department":"18","center":{"lng":2.2917,"lat":46.9671},"population":757},{"code":"18223","name":"Saint-Martin-d'Auxigny","department":"18","center":{"lng":2.3843,"lat":47.2164},"population":2525},{"code":"18245","name":"Saulzais-le-Potier","department":"18","center":{"lng":2.4872,"lat":46.5988},"population":476},{"code":"18267","name":"Trouy","department":"18","center":{"lng":2.3618,"lat":47.0273},"population":4034},{"code":"18289","name":"Vornay","department":"18","center":{"lng":2.5934,"lat":46.9682},"population":586},{"code":"19015","name":"Ayen","department":"19","center":{"lng":1.325,"lat":45.2541},"population":712},{"code":"19037","name":"Chamboulive","department":"19","center":{"lng":1.7159,"lat":45.4276},"population":1158},{"code":"19059","name":"Concèze","department":"19","center":{"lng":1.3341,"lat":45.3614},"population":384},{"code":"19114","name":"Lignareix","department":"19","center":{"lng":2.3011,"lat":45.6114},"population":162},{"code":"19136","name":"Meymac","department":"19","center":{"lng":2.1266,"lat":45.5527},"population":2326},{"code":"19158","name":"Pandrignes","department":"19","center":{"lng":1.8632,"lat":45.22},"population":167},{"code":"19213","name":"Saint-Jal","department":"19","center":{"lng":1.6529,"lat":45.3946},"population":599},{"code":"19235","name":"Saint-Paul","department":"19","center":{"lng":1.9018,"lat":45.2038},"population":237},{"code":"19257","name":"Sérilhac","department":"19","center":{"lng":1.7365,"lat":45.096},"population":273},{"code":"19279","name":"Vars-sur-Roseix","department":"19","center":{"lng":1.3741,"lat":45.2625},"population":409},{"code":"21050","name":"Baubigny","department":"21","center":{"lng":4.6794,"lat":46.989},"population":208},{"code":"21072","name":"Bézouotte","department":"21","center":{"lng":5.3371,"lat":47.3845},"population":202},{"code":"21094","name":"Bourberain","department":"21","center":{"lng":5.2897,"lat":47.509},"population":388},{"code":"21171","name":"Chevigny-Saint-Sauveur","department":"21","center":{"lng":5.132,"lat":47.2986},"population":10895},{"code":"21193","name":"Corgengoux","department":"21","center":{"lng":5.0129,"lat":46.9866},"population":381},{"code":"21270","name":"Flavignerot","department":"21","center":{"lng":4.9173,"lat":47.2786},"population":231},{"code":"21292","name":"Genlis","department":"21","center":{"lng":5.2196,"lat":47.2403},"population":5125},{"code":"21391","name":"Marsannay-le-Bois","department":"21","center":{"lng":5.0968,"lat":47.4409},"population":842},{"code":"21490","name":"Poiseul-la-Ville-et-Laperrière","department":"21","center":{"lng":4.6587,"lat":47.566},"population":155},{"code":"22040","name":"Coadout","department":"22","center":{"lng":-3.1728,"lat":48.5154},"population":538},{"code":"22062","name":"Gomené","department":"22","center":{"lng":-2.4935,"lat":48.1835},"population":549},{"code":"22084","name":"Jugon-les-Lacs","department":"22","center":{"lng":-2.3217,"lat":48.4014},"population":2528},{"code":"22161","name":"Pabu","department":"22","center":{"lng":-3.1445,"lat":48.5861},"population":2769},{"code":"22183","name":"Plémet","department":"22","center":{"lng":-2.596,"lat":48.1732},"population":3751},{"code":"22260","name":"Le Quillio","department":"22","center":{"lng":-2.9033,"lat":48.2439},"population":591},{"code":"22282","name":"Saint-Cast-le-Guildo","department":"22","center":{"lng":-2.2499,"lat":48.6077},"population":3353},{"code":"22381","name":"Trézény","department":"22","center":{"lng":-3.361,"lat":48.7546},"population":355},{"code":"23030","name":"Bourganeuf","department":"23","center":{"lng":1.7466,"lat":45.9472},"population":2408},{"code":"23052","name":"La Chapelle-Taillefert","department":"23","center":{"lng":1.8304,"lat":46.1155},"population":444},{"code":"23074","name":"Le Donzeil","department":"23","center":{"lng":1.9882,"lat":46.0364},"population":188},{"code":"23096","name":"Guéret","department":"23","center":{"lng":1.8705,"lat":46.1585},"population":12814},{"code":"23151","name":"Peyrat-la-Nonière","department":"23","center":{"lng":2.2522,"lat":46.0758},"population":422},{"code":"23173","name":"Soubrebost","department":"23","center":{"lng":1.8391,"lat":45.9592},"population":139},{"code":"23195","name":"Saint-Fiel","department":"23","center":{"lng":1.8929,"lat":46.2109},"population":1079},{"code":"23250","name":"Saint-Yrieix-les-Bois","department":"23","center":{"lng":1.9577,"lat":46.0933},"population":281},{"code":"24020","name":"La Bachellerie","department":"24","center":{"lng":1.1612,"lat":45.1313},"population":895},{"code":"24042","name":"Biras","department":"24","center":{"lng":0.6393,"lat":45.2825},"population":715},{"code":"24064","name":"Brantôme en Périgord","department":"24","center":{"lng":0.6596,"lat":45.3756},"population":3748},{"code":"24086","name":"Castelnaud-la-Chapelle","department":"24","center":{"lng":1.1292,"lat":44.802},"population":449},{"code":"24141","name":"Coutures","department":"24","center":{"lng":0.3979,"lat":45.3269},"population":198},{"code":"24163","name":"Étouars","department":"24","center":{"lng":0.6148,"lat":45.6087},"population":165},{"code":"24240","name":"Limeuil","department":"24","center":{"lng":0.8967,"lat":44.8924},"population":339},{"code":"24262","name":"Mayac","department":"24","center":{"lng":0.9503,"lat":45.2788},"population":322},{"code":"24284","name":"Montagnac-d'Auberoche","department":"24","center":{"lng":0.9566,"lat":45.1875},"population":137},{"code":"24361","name":"Saint-Agne","department":"24","center":{"lng":0.6255,"lat":44.8345},"population":443},{"code":"24383","name":"Saint-Capraise-d'Eymet","department":"24","center":{"lng":0.5073,"lat":44.7081},"population":172},{"code":"24460","name":"Saint-Méard-de-Drône","department":"24","center":{"lng":0.4039,"lat":45.2532},"population":489},{"code":"24482","name":"Saint-Paul-Lizonne","department":"24","center":{"lng":0.2846,"lat":45.3169},"population":277},{"code":"24581","name":"Villamblard","department":"24","center":{"lng":0.5612,"lat":45.0304},"population":870},{"code":"25032","name":"Autechaux","department":"25","center":{"lng":6.3868,"lat":47.3818},"population":431},{"code":"25054","name":"Berche","department":"25","center":{"lng":6.7479,"lat":47.466},"population":543},{"code":"25098","name":"Buffard","department":"25","center":{"lng":5.8249,"lat":47.0325},"population":190},{"code":"25131","name":"Châtelblanc","department":"25","center":{"lng":6.1087,"lat":46.6661},"population":110},{"code":"25153","name":"Chevroz","department":"25","center":{"lng":5.9998,"lat":47.3314},"population":140},{"code":"25175","name":"Courtetain-et-Salans","department":"25","center":{"lng":6.4285,"lat":47.2579},"population":91},{"code":"25197","name":"Deluz","department":"25","center":{"lng":6.1905,"lat":47.2987},"population":627},{"code":"25230","name":"Exincourt","department":"25","center":{"lng":6.8371,"lat":47.5017},"population":3273},{"code":"25252","name":"Fourcatier-et-Maison-Neuve","department":"25","center":{"lng":6.313,"lat":46.7644},"population":124},{"code":"25274","name":"Glay","department":"25","center":{"lng":6.8944,"lat":47.4019},"population":340},{"code":"25296","name":"Les Gras","department":"25","center":{"lng":6.5404,"lat":46.9894},"population":804},{"code":"25351","name":"Le Luhier","department":"25","center":{"lng":6.6777,"lat":47.1689},"population":243},{"code":"25373","name":"Le Mémont","department":"25","center":{"lng":6.6885,"lat":47.1598},"population":45},{"code":"25395","name":"Montfaucon","department":"25","center":{"lng":6.0881,"lat":47.2408},"population":1608},{"code":"25450","name":"Pessans","department":"25","center":{"lng":5.8907,"lat":47.0716},"population":90},{"code":"25472","name":"Puessans","department":"25","center":{"lng":6.3214,"lat":47.4336},"population":33},{"code":"25494","name":"Rochejean","department":"25","center":{"lng":6.3086,"lat":46.7299},"population":748},{"code":"25571","name":"Trévillers","department":"25","center":{"lng":6.8792,"lat":47.2835},"population":532},{"code":"26022","name":"Ballons","department":"26","center":{"lng":5.6478,"lat":44.2476},"population":89},{"code":"26066","name":"Le Chaffal","department":"26","center":{"lng":5.1812,"lat":44.8728},"population":37},{"code":"26088","name":"Chatuzange-le-Goubet","department":"26","center":{"lng":5.0973,"lat":45.0068},"population":6375},{"code":"26121","name":"Espeluche","department":"26","center":{"lng":4.818,"lat":44.5181},"population":1137},{"code":"26143","name":"Le Grand-Serre","department":"26","center":{"lng":5.1029,"lat":45.2585},"population":949},{"code":"26165","name":"Livron-sur-Drôme","department":"26","center":{"lng":4.8257,"lat":44.7912},"population":9272},{"code":"26220","name":"Nyons","department":"26","center":{"lng":5.1243,"lat":44.3585},"population":6794},{"code":"26242","name":"Le Poët-en-Percip","department":"26","center":{"lng":5.3961,"lat":44.2498},"population":22},{"code":"26264","name":"Rémuzat","department":"26","center":{"lng":5.3564,"lat":44.4048},"population":317},{"code":"26286","name":"Roussieux","department":"26","center":{"lng":5.4793,"lat":44.3312},"population":24},{"code":"26341","name":"Serves-sur-Rhône","department":"26","center":{"lng":4.83,"lat":45.1433},"population":737},{"code":"26363","name":"Valouse","department":"26","center":{"lng":5.1901,"lat":44.4577},"population":41},{"code":"27012","name":"Amfreville-les-Champs","department":"27","center":{"lng":1.3223,"lat":49.3131},"population":444},{"code":"27034","name":"Bacqueville","department":"27","center":{"lng":1.3657,"lat":49.3238},"population":620},{"code":"27056","name":"Bernay","department":"27","center":{"lng":0.5978,"lat":49.0912},"population":9801},{"code":"27078","name":"La Boissière","department":"27","center":{"lng":1.3686,"lat":48.9513},"population":261},{"code":"27111","name":"Bretagnolles","department":"27","center":{"lng":1.3427,"lat":48.9467},"population":202},{"code":"27133","name":"Caumont","department":"27","center":{"lng":0.9078,"lat":49.3678},"population":1132},{"code":"27155","name":"Chennebrun","department":"27","center":{"lng":0.7752,"lat":48.6848},"population":100},{"code":"27177","name":"Coudres","department":"27","center":{"lng":1.2291,"lat":48.865},"population":541},{"code":"27199","name":"Dangu","department":"27","center":{"lng":1.6848,"lat":49.2593},"population":542},{"code":"27210","name":"Écardenville-la-Campagne","department":"27","center":{"lng":0.832,"lat":49.125},"population":446},{"code":"27232","name":"Farceaux","department":"27","center":{"lng":1.5292,"lat":49.2913},"population":343},{"code":"27254","name":"Fontaine-sous-Jouy","department":"27","center":{"lng":1.2784,"lat":49.0652},"population":848},{"code":"27276","name":"Gamaches-en-Vexin","department":"27","center":{"lng":1.6166,"lat":49.2671},"population":290},{"code":"27298","name":"Graveron-Sémerville","department":"27","center":{"lng":0.9692,"lat":49.0975},"population":321},{"code":"27331","name":"Heubécourt-Haricourt","department":"27","center":{"lng":1.5645,"lat":49.1285},"population":461},{"code":"27353","name":"Irreville","department":"27","center":{"lng":1.2019,"lat":49.0975},"population":472},{"code":"27375","name":"Louviers","department":"27","center":{"lng":1.1562,"lat":49.2213},"population":18347},{"code":"27397","name":"Ménilles","department":"27","center":{"lng":1.371,"lat":49.0383},"population":1722},{"code":"27430","name":"La Neuve-Grange","department":"27","center":{"lng":1.5603,"lat":49.3604},"population":389},{"code":"27474","name":"Poses","department":"27","center":{"lng":1.2416,"lat":49.2987},"population":1118},{"code":"27496","name":"Rosay-sur-Lieure","department":"27","center":{"lng":1.4271,"lat":49.3746},"population":510},{"code":"27595","name":"Saint-Pierre-du-Bosguérard","department":"27","center":{"lng":0.8914,"lat":49.26},"population":962},{"code":"27650","name":"Tournedos-Bois-Hubert","department":"27","center":{"lng":0.9873,"lat":49.0719},"population":450},{"code":"27672","name":"Vascœuil","department":"27","center":{"lng":1.3793,"lat":49.4485},"population":322},{"code":"27694","name":"Villez-sous-Bailleul","department":"27","center":{"lng":1.3692,"lat":49.1055},"population":318},{"code":"28024","name":"Barjouville","department":"28","center":{"lng":1.4713,"lat":48.4044},"population":1755},{"code":"28046","name":"Boissy-lès-Perche","department":"28","center":{"lng":0.9006,"lat":48.679},"population":495},{"code":"28068","name":"Challet","department":"28","center":{"lng":1.4276,"lat":48.5529},"population":432},{"code":"28123","name":"Dampierre-sous-Brou","department":"28","center":{"lng":1.1103,"lat":48.2232},"population":445},{"code":"28167","name":"Fruncé","department":"28","center":{"lng":1.1937,"lat":48.4069},"population":378},{"code":"28189","name":"Guilleville","department":"28","center":{"lng":1.8022,"lat":48.2244},"population":163},{"code":"28200","name":"Jaudrais","department":"28","center":{"lng":1.1202,"lat":48.5752},"population":409},{"code":"28222","name":"Luplanté","department":"28","center":{"lng":1.385,"lat":48.2987},"population":387},{"code":"28321","name":"Rouvres","department":"28","center":{"lng":1.4744,"lat":48.8327},"population":818},{"code":"28343","name":"Saint-Laurent-la-Gâtine","department":"28","center":{"lng":1.54,"lat":48.6924},"population":463},{"code":"28365","name":"Sandarville","department":"28","center":{"lng":1.3479,"lat":48.3448},"population":419},{"code":"28387","name":"Thiron-Gardais","department":"28","center":{"lng":1.0137,"lat":48.3047},"population":972},{"code":"29014","name":"Botsorhel","department":"29","center":{"lng":-3.6282,"lat":48.508},"population":428},{"code":"29036","name":"Collorec","department":"29","center":{"lng":-3.7642,"lat":48.2892},"population":592},{"code":"29058","name":"Fouesnant","department":"29","center":{"lng":-4.0403,"lat":47.8444},"population":10204},{"code":"29113","name":"Lanmeur","department":"29","center":{"lng":-3.7187,"lat":48.644},"population":2367},{"code":"29135","name":"Loctudy","department":"29","center":{"lng":-4.1852,"lat":47.8246},"population":4043},{"code":"29179","name":"Ploudaniel","department":"29","center":{"lng":-4.3095,"lat":48.5205},"population":3738},{"code":"29212","name":"Plouzané","department":"29","center":{"lng":-4.5976,"lat":48.3748},"population":13437},{"code":"29234","name":"Rédené","department":"29","center":{"lng":-3.4884,"lat":47.856},"population":2999},{"code":"29256","name":"Saint-Nic","department":"29","center":{"lng":-4.2809,"lat":48.2078},"population":756},{"code":"29278","name":"Spézet","department":"29","center":{"lng":-3.6959,"lat":48.1875},"population":1743},{"code":"2B309","name":"Santa-Maria-di-Lota","department":"2B","center":{"lng":9.428,"lat":42.7544},"population":1970},{"code":"30081","name":"Chusclan","department":"30","center":{"lng":4.6902,"lat":44.1549},"population":975},{"code":"30180","name":"Montignargues","department":"30","center":{"lng":4.205,"lat":43.9322},"population":559},{"code":"31071","name":"Bois-de-la-Pierre","department":"31","center":{"lng":1.1611,"lat":43.3404},"population":459},{"code":"31093","name":"Le Burgaud","department":"31","center":{"lng":1.1484,"lat":43.7919},"population":937},{"code":"31170","name":"Escanecrabe","department":"31","center":{"lng":0.7577,"lat":43.2734},"population":211},{"code":"31192","name":"Fourquevaux","department":"31","center":{"lng":1.6231,"lat":43.5004},"population":808},{"code":"31291","name":"Léguevin","department":"31","center":{"lng":1.2353,"lat":43.5928},"population":9710},{"code":"31390","name":"Montréjeau","department":"31","center":{"lng":0.5588,"lat":43.0876},"population":2676},{"code":"32061","name":"Boulaur","department":"32","center":{"lng":0.7646,"lat":43.5503},"population":179},{"code":"32083","name":"Castéra-Verduzan","department":"32","center":{"lng":0.4327,"lat":43.8026},"population":1042},{"code":"32160","name":"L'Isle-Jourdain","department":"32","center":{"lng":1.0826,"lat":43.6159},"population":9499},{"code":"32182","name":"Lahas","department":"32","center":{"lng":0.9009,"lat":43.5644},"population":181},{"code":"32281","name":"Mont-de-Marrast","department":"32","center":{"lng":0.3726,"lat":43.3886},"population":106},{"code":"32380","name":"Saint-Griède","department":"32","center":{"lng":-0.0969,"lat":43.7249},"population":141},{"code":"33051","name":"Biganos","department":"33","center":{"lng":-0.9582,"lat":44.6599},"population":11303},{"code":"33073","name":"Braud-et-Saint-Louis","department":"33","center":{"lng":-0.6581,"lat":45.2569},"population":1524},{"code":"33095","name":"Captieux","department":"33","center":{"lng":-0.2981,"lat":44.2621},"population":1382},{"code":"33150","name":"Dieulivol","department":"33","center":{"lng":0.1062,"lat":44.6817},"population":335},{"code":"33172","name":"Fours","department":"33","center":{"lng":-0.6392,"lat":45.1745},"population":265},{"code":"33194","name":"Grézillac","department":"33","center":{"lng":-0.2152,"lat":44.8147},"population":688},{"code":"33271","name":"Marions","department":"33","center":{"lng":-0.0881,"lat":44.373},"population":211},{"code":"33293","name":"Montussan","department":"33","center":{"lng":-0.4294,"lat":44.8843},"population":3506},{"code":"33370","name":"Saint-Androny","department":"33","center":{"lng":-0.6812,"lat":45.202},"population":582},{"code":"33392","name":"Sainte-Croix-du-Mont","department":"33","center":{"lng":-0.2719,"lat":44.5977},"population":841},{"code":"33491","name":"Saint-Vivien-de-Monségur","department":"33","center":{"lng":0.1208,"lat":44.6167},"population":402},{"code":"34041","name":"Brignac","department":"34","center":{"lng":3.4704,"lat":43.6228},"population":971},{"code":"34063","name":"Caux","department":"34","center":{"lng":3.3709,"lat":43.5031},"population":2692},{"code":"34085","name":"Coulobres","department":"34","center":{"lng":3.2746,"lat":43.4506},"population":371},{"code":"34140","name":"Lignan-sur-Orb","department":"34","center":{"lng":3.1728,"lat":43.383},"population":3227},{"code":"34162","name":"Montagnac","department":"34","center":{"lng":3.5067,"lat":43.4709},"population":4465},{"code":"34184","name":"Nizas","department":"34","center":{"lng":3.4167,"lat":43.5127},"population":661},{"code":"34261","name":"Saint-Guilhem-le-Désert","department":"34","center":{"lng":3.5439,"lat":43.7536},"population":243},{"code":"34283","name":"Saint-Pierre-de-la-Fage","department":"34","center":{"lng":3.4201,"lat":43.7938},"population":123},{"code":"35031","name":"La Bouëxière","department":"35","center":{"lng":-1.433,"lat":48.1747},"population":4602},{"code":"35075","name":"Chauvigné","department":"35","center":{"lng":-1.4472,"lat":48.3726},"population":807},{"code":"35097","name":"Domalain","department":"35","center":{"lng":-1.2445,"lat":47.9975},"population":2050},{"code":"35130","name":"Hédé-Bazouges","department":"35","center":{"lng":-1.7777,"lat":48.3009},"population":2273},{"code":"35152","name":"Liffré","department":"35","center":{"lng":-1.5064,"lat":48.2025},"population":8987},{"code":"35174","name":"Mellé","department":"35","center":{"lng":-1.1912,"lat":48.4844},"population":648},{"code":"35196","name":"Mordelles","department":"35","center":{"lng":-1.8515,"lat":48.0853},"population":7831},{"code":"35251","name":"Saint-Aubin-d'Aubigné","department":"35","center":{"lng":-1.6002,"lat":48.2618},"population":4231},{"code":"35273","name":"Saint-Germain-en-Coglès","department":"35","center":{"lng":-1.2556,"lat":48.4016},"population":2091},{"code":"35295","name":"Saint-Maugan","department":"35","center":{"lng":-2.1022,"lat":48.1367},"population":518},{"code":"35350","name":"Vergéal","department":"35","center":{"lng":-1.2562,"lat":48.0335},"population":804},{"code":"36021","name":"Les Bordes","department":"36","center":{"lng":1.9692,"lat":46.9896},"population":824},{"code":"36043","name":"Chassignolles","department":"36","center":{"lng":1.9378,"lat":46.533},"population":533},{"code":"36065","name":"Diou","department":"36","center":{"lng":2.0013,"lat":47.0442},"population":259},{"code":"36087","name":"Ingrandes","department":"36","center":{"lng":0.9626,"lat":46.5952},"population":299},{"code":"36120","name":"Mers-sur-Indre","department":"36","center":{"lng":1.8693,"lat":46.6689},"population":664},{"code":"36142","name":"Niherne","department":"36","center":{"lng":1.5599,"lat":46.8049},"population":1457},{"code":"36164","name":"Pouligny-Saint-Martin","department":"36","center":{"lng":2.0089,"lat":46.5165},"population":232},{"code":"36186","name":"Saint-Christophe-en-Boucherie","department":"36","center":{"lng":2.1196,"lat":46.6786},"population":234},{"code":"36241","name":"Villedieu-sur-Indre","department":"36","center":{"lng":1.5177,"lat":46.834},"population":2615},{"code":"37011","name":"Avoine","department":"37","center":{"lng":0.189,"lat":47.22},"population":1994},{"code":"37033","name":"Boussay","department":"37","center":{"lng":0.8852,"lat":46.8492},"population":226},{"code":"37055","name":"Channay-sur-Lathan","department":"37","center":{"lng":0.2483,"lat":47.4776},"population":809},{"code":"37077","name":"Cinq-Mars-la-Pile","department":"37","center":{"lng":0.4542,"lat":47.3483},"population":3943},{"code":"37099","name":"Druye","department":"37","center":{"lng":0.5354,"lat":47.2976},"population":999},{"code":"37110","name":"Francueil","department":"37","center":{"lng":1.0763,"lat":47.309},"population":1453},{"code":"37132","name":"Loches","department":"37","center":{"lng":0.9745,"lat":47.1223},"population":6233},{"code":"37154","name":"Montbazon","department":"37","center":{"lng":0.7046,"lat":47.2847},"population":4839},{"code":"37176","name":"Noyant-de-Touraine","department":"37","center":{"lng":0.5666,"lat":47.1022},"population":1170},{"code":"37198","name":"Rillé","department":"37","center":{"lng":0.225,"lat":47.4499},"population":314},{"code":"37231","name":"Saint-Paterne-Racan","department":"37","center":{"lng":0.4644,"lat":47.5791},"population":1697},{"code":"37253","name":"Sublaines","department":"37","center":{"lng":0.9881,"lat":47.2719},"population":176},{"code":"37275","name":"Villedômain","department":"37","center":{"lng":1.2502,"lat":47.0459},"population":127},{"code":"38001","name":"Les Abrets en Dauphiné","department":"38","center":{"lng":5.5852,"lat":45.5314},"population":6713},{"code":"38023","name":"Avignonet","department":"38","center":{"lng":5.6671,"lat":44.9562},"population":197},{"code":"38045","name":"Biviers","department":"38","center":{"lng":5.7985,"lat":45.2444},"population":2327},{"code":"38067","name":"Chamagnieu","department":"38","center":{"lng":5.1679,"lat":45.6887},"population":1775},{"code":"38089","name":"Chassignieu","department":"38","center":{"lng":5.5138,"lat":45.5014},"population":226},{"code":"38100","name":"Le Cheylas","department":"38","center":{"lng":6.0046,"lat":45.3798},"population":2372},{"code":"38144","name":"Diémoz","department":"38","center":{"lng":5.0893,"lat":45.5911},"population":2915},{"code":"38166","name":"La Flachère","department":"38","center":{"lng":5.9615,"lat":45.3994},"population":456},{"code":"38188","name":"Herbeys","department":"38","center":{"lng":5.7968,"lat":45.1437},"population":1388},{"code":"38221","name":"Marnans","department":"38","center":{"lng":5.2509,"lat":45.2902},"population":132},{"code":"38243","name":"Monestier-du-Percy","department":"38","center":{"lng":5.6493,"lat":44.7844},"population":256},{"code":"38265","name":"La Motte-d'Aveillans","department":"38","center":{"lng":5.7391,"lat":44.9459},"population":1727},{"code":"38287","name":"Oyeu","department":"38","center":{"lng":5.4787,"lat":45.4283},"population":1092},{"code":"38320","name":"Porcieu-Amblagnieu","department":"38","center":{"lng":5.3982,"lat":45.8373},"population":1792},{"code":"38342","name":"Roissard","department":"38","center":{"lng":5.6334,"lat":44.8826},"population":320},{"code":"38364","name":"Saint-Barthélemy-de-Séchilienne","department":"38","center":{"lng":5.8212,"lat":45.0351},"population":424},{"code":"38386","name":"Saint-Geoire-en-Valdaine","department":"38","center":{"lng":5.6335,"lat":45.4628},"population":2388},{"code":"38463","name":"Saint-Vérand","department":"38","center":{"lng":5.3426,"lat":45.1816},"population":1723},{"code":"38485","name":"Seyssinet-Pariset","department":"38","center":{"lng":5.6701,"lat":45.1721},"population":11784},{"code":"38540","name":"Veurey-Voroize","department":"38","center":{"lng":5.6042,"lat":45.2713},"population":1392},{"code":"38562","name":"Vizille","department":"38","center":{"lng":5.7813,"lat":45.0728},"population":7316},{"code":"39013","name":"Arbois","department":"39","center":{"lng":5.773,"lat":46.8876},"population":3146},{"code":"39035","name":"Balanod","department":"39","center":{"lng":5.349,"lat":46.4558},"population":333},{"code":"39057","name":"Blois-sur-Seille","department":"39","center":{"lng":5.6677,"lat":46.7479},"population":101},{"code":"39079","name":"Briod","department":"39","center":{"lng":5.622,"lat":46.6622},"population":211},{"code":"39112","name":"La Chassagne","department":"39","center":{"lng":5.4535,"lat":46.8682},"population":103},{"code":"39134","name":"Chavéria","department":"39","center":{"lng":5.5589,"lat":46.498},"population":209},{"code":"39156","name":"Cogna","department":"39","center":{"lng":5.7751,"lat":46.5866},"population":235},{"code":"39178","name":"Crans","department":"39","center":{"lng":5.9829,"lat":46.6957},"population":86},{"code":"39211","name":"Les Essards-Taignevaux","department":"39","center":{"lng":5.414,"lat":46.904},"population":247},{"code":"39233","name":"Foucherans","department":"39","center":{"lng":5.4386,"lat":47.086},"population":2286},{"code":"39255","name":"Gizia","department":"39","center":{"lng":5.4279,"lat":46.5305},"population":201},{"code":"39277","name":"Le Larderet","department":"39","center":{"lng":5.945,"lat":46.8185},"population":50},{"code":"39299","name":"Longwy-sur-le-Doubs","department":"39","center":{"lng":5.3529,"lat":46.9619},"population":493},{"code":"39310","name":"Mantry","department":"39","center":{"lng":5.5501,"lat":46.7918},"population":472},{"code":"39354","name":"Montholier","department":"39","center":{"lng":5.635,"lat":46.8931},"population":369},{"code":"39376","name":"Moutoux","department":"39","center":{"lng":5.9387,"lat":46.7894},"population":76},{"code":"39398","name":"Ougney","department":"39","center":{"lng":5.6607,"lat":47.2416},"population":419},{"code":"39431","name":"Poids-de-Fiole","department":"39","center":{"lng":5.6234,"lat":46.5982},"population":329},{"code":"39453","name":"Ravilloles","department":"39","center":{"lng":5.8005,"lat":46.432},"population":444},{"code":"39475","name":"Saint-Amour","department":"39","center":{"lng":5.3373,"lat":46.4365},"population":2364},{"code":"39497","name":"Saizenay","department":"39","center":{"lng":5.9356,"lat":46.9668},"population":99},{"code":"39530","name":"Thoirette-Coisia","department":"39","center":{"lng":5.554,"lat":46.2901},"population":816},{"code":"39552","name":"Vernantois","department":"39","center":{"lng":5.5812,"lat":46.623},"population":287},{"code":"39574","name":"Villevieux","department":"39","center":{"lng":5.4449,"lat":46.7276},"population":707},{"code":"40080","name":"Cazères-sur-l'Adour","department":"40","center":{"lng":-0.2777,"lat":43.7729},"population":1126},{"code":"41070","name":"Vallée-de-Ronsard","department":"41","center":{"lng":0.6659,"lat":47.7464},"population":527},{"code":"41191","name":"Roches","department":"41","center":{"lng":1.4548,"lat":47.7949},"population":64},{"code":"41290","name":"Villeromain","department":"41","center":{"lng":1.1463,"lat":47.7199},"population":222},{"code":"42060","name":"Chenereilles","department":"42","center":{"lng":4.09,"lat":45.4857},"population":536},{"code":"42181","name":"Régny","department":"42","center":{"lng":4.216,"lat":45.9998},"population":1447},{"code":"42280","name":"Saint-Régis-du-Coin","department":"42","center":{"lng":4.4528,"lat":45.2869},"population":416},{"code":"43050","name":"Chambezon","department":"43","center":{"lng":3.2393,"lat":45.3821},"population":130},{"code":"43072","name":"La Chomette","department":"43","center":{"lng":3.4681,"lat":45.2277},"population":147},{"code":"43094","name":"Ferrussac","department":"43","center":{"lng":3.4086,"lat":45.0815},"population":76},{"code":"43171","name":"Saint-Bérain","department":"43","center":{"lng":3.6261,"lat":45.0271},"population":90},{"code":"43193","name":"Saint-Hilaire","department":"43","center":{"lng":3.4455,"lat":45.382},"population":158},{"code":"44062","name":"Le Gâvre","department":"44","center":{"lng":-1.8046,"lat":47.5328},"population":1880},{"code":"44084","name":"Le Loroux-Bottereau","department":"44","center":{"lng":-1.3272,"lat":47.2325},"population":8595},{"code":"44161","name":"Saint-Gildas-des-Bois","department":"44","center":{"lng":-2.0639,"lat":47.5099},"population":3790},{"code":"44183","name":"Saint-Molf","department":"44","center":{"lng":-2.4139,"lat":47.3862},"population":2859},{"code":"45030","name":"Beaune-la-Rolande","department":"45","center":{"lng":2.4347,"lat":48.0762},"population":1991},{"code":"45052","name":"Breteau","department":"45","center":{"lng":2.8902,"lat":47.6774},"population":95},{"code":"45074","name":"La Chapelle-Onzerain","department":"45","center":{"lng":1.611,"lat":48.0335},"population":110},{"code":"45096","name":"Les Choux","department":"45","center":{"lng":2.6549,"lat":47.7886},"population":530},{"code":"45151","name":"Gaubertin","department":"45","center":{"lng":2.4283,"lat":48.1256},"population":251},{"code":"45173","name":"Jargeau","department":"45","center":{"lng":2.1088,"lat":47.8517},"population":4636},{"code":"45195","name":"Mareau-aux-Bois","department":"45","center":{"lng":2.1925,"lat":48.0968},"population":565},{"code":"45250","name":"Pers-en-Gâtinais","department":"45","center":{"lng":2.9026,"lat":48.116},"population":241},{"code":"45272","name":"Saint-Cyr-en-Val","department":"45","center":{"lng":1.9551,"lat":47.814},"population":3430},{"code":"45294","name":"Saint-Michel","department":"45","center":{"lng":2.3693,"lat":48.0625},"population":149},{"code":"46020","name":"Beauregard","department":"46","center":{"lng":1.7773,"lat":44.3507},"population":228},{"code":"46042","name":"Cahors","department":"46","center":{"lng":1.439,"lat":44.4565},"population":19902},{"code":"46064","name":"Catus","department":"46","center":{"lng":1.3391,"lat":44.5596},"population":919},{"code":"46086","name":"Cuzance","department":"46","center":{"lng":1.5273,"lat":44.9584},"population":655},{"code":"46163","name":"Laval-de-Cère","department":"46","center":{"lng":1.9267,"lat":44.9512},"population":292},{"code":"46185","name":"Martel","department":"46","center":{"lng":1.6047,"lat":44.9359},"population":1639},{"code":"46240","name":"Rocamadour","department":"46","center":{"lng":1.6266,"lat":44.8197},"population":604},{"code":"46262","name":"Lendou-en-Quercy","department":"46","center":{"lng":1.2684,"lat":44.3125},"population":620},{"code":"46284","name":"Saint-Michel-Loubéjou","department":"46","center":{"lng":1.8509,"lat":44.8889},"population":416},{"code":"47010","name":"Antagnac","department":"47","center":{"lng":-0.0023,"lat":44.3561},"population":222},{"code":"47032","name":"Bon-Encontre","department":"47","center":{"lng":0.6906,"lat":44.2089},"population":6386},{"code":"47054","name":"Castelmoron-sur-Lot","department":"47","center":{"lng":0.4832,"lat":44.4072},"population":1830},{"code":"47076","name":"Cuq","department":"47","center":{"lng":0.7181,"lat":44.0845},"population":280},{"code":"47098","name":"Fieux","department":"47","center":{"lng":0.4184,"lat":44.1009},"population":327},{"code":"47131","name":"Lagupie","department":"47","center":{"lng":0.1099,"lat":44.5707},"population":686},{"code":"47175","name":"Monflanquin","department":"47","center":{"lng":0.7589,"lat":44.5102},"population":2358},{"code":"47197","name":"Nomdieu","department":"47","center":{"lng":0.471,"lat":44.0829},"population":252},{"code":"47230","name":"Saint-Aubin","department":"47","center":{"lng":0.8322,"lat":44.4741},"population":389},{"code":"47252","name":"Sainte-Livrade-sur-Lot","department":"47","center":{"lng":0.6005,"lat":44.4064},"population":6518},{"code":"47274","name":"Saint-Romain-le-Noble","department":"47","center":{"lng":0.7749,"lat":44.1571},"population":401},{"code":"47296","name":"Ségalas","department":"47","center":{"lng":0.5336,"lat":44.589},"population":156},{"code":"48044","name":"Chauchailles","department":"48","center":{"lng":3.0753,"lat":44.7968},"population":80},{"code":"48088","name":"La Malène","department":"48","center":{"lng":3.3164,"lat":44.3073},"population":131},{"code":"48121","name":"Prunières","department":"48","center":{"lng":3.3294,"lat":44.8186},"population":226},{"code":"48165","name":"Saint-Laurent-de-Muret","department":"48","center":{"lng":3.1752,"lat":44.6001},"population":191},{"code":"48187","name":"Les Salces","department":"48","center":{"lng":3.1316,"lat":44.5568},"population":90},{"code":"49012","name":"Aubigné-sur-Layon","department":"49","center":{"lng":-0.4745,"lat":47.2127},"population":349},{"code":"49056","name":"Carbay","department":"49","center":{"lng":-1.2257,"lat":47.7308},"population":276},{"code":"49155","name":"Grez-Neuville","department":"49","center":{"lng":-0.6864,"lat":47.5916},"population":1437},{"code":"49298","name":"Saint-Léger-de-Linières","department":"49","center":{"lng":-0.7069,"lat":47.4609},"population":3860},{"code":"49331","name":"Segré-en-Anjou Bleu","department":"49","center":{"lng":-0.854,"lat":47.7111},"population":17617},{"code":"49353","name":"Trélazé","department":"49","center":{"lng":-0.478,"lat":47.4522},"population":15620},{"code":"51091","name":"Broussy-le-Petit","department":"51","center":{"lng":3.8345,"lat":48.7859},"population":137},{"code":"51190","name":"Courtagnon","department":"51","center":{"lng":3.9484,"lat":49.1435},"population":74},{"code":"53071","name":"Colombiers-du-Plessis","department":"53","center":{"lng":-0.8459,"lat":48.3873},"population":477},{"code":"53093","name":"La Dorée","department":"53","center":{"lng":-0.9649,"lat":48.4489},"population":288},{"code":"53170","name":"Oisseau","department":"53","center":{"lng":-0.6724,"lat":48.3673},"population":1124},{"code":"53192","name":"La Rouaudière","department":"53","center":{"lng":-1.1858,"lat":47.8383},"population":311},{"code":"54061","name":"Bénaménil","department":"54","center":{"lng":6.6621,"lat":48.5632},"population":590},{"code":"54083","name":"Bonviller","department":"54","center":{"lng":6.4982,"lat":48.6296},"population":180},{"code":"54160","name":"Domèvre-en-Haye","department":"54","center":{"lng":5.9362,"lat":48.8153},"population":408},{"code":"54182","name":"Essey-et-Maizerais","department":"54","center":{"lng":5.8034,"lat":48.9112},"population":328},{"code":"54281","name":"Jolivet","department":"54","center":{"lng":6.5175,"lat":48.6108},"population":889},{"code":"54380","name":"Mont-le-Vignoble","department":"54","center":{"lng":5.8487,"lat":48.6224},"population":415},{"code":"55051","name":"Biencourt-sur-Orge","department":"55","center":{"lng":5.345,"lat":48.5697},"population":112},{"code":"55073","name":"Bras-sur-Meuse","department":"55","center":{"lng":5.3906,"lat":49.2074},"population":669},{"code":"55095","name":"Cesse","department":"55","center":{"lng":5.1382,"lat":49.5086},"population":113},{"code":"55150","name":"Demange-Baudignécourt","department":"55","center":{"lng":5.4649,"lat":48.5865},"population":509},{"code":"55172","name":"Les Éparges","department":"55","center":{"lng":5.5855,"lat":49.0648},"population":61},{"code":"55194","name":"Foucaucourt-sur-Thabas","department":"55","center":{"lng":5.0995,"lat":49.0069},"population":61},{"code":"55271","name":"Laheycourt","department":"55","center":{"lng":5.0353,"lat":48.901},"population":354},{"code":"55293","name":"Lion-devant-Dun","department":"55","center":{"lng":5.2557,"lat":49.4164},"population":178},{"code":"55370","name":"Naix-aux-Forges","department":"55","center":{"lng":5.3704,"lat":48.6312},"population":195},{"code":"56041","name":"Cléguérec","department":"56","center":{"lng":-3.0649,"lat":48.1275},"population":2849},{"code":"56063","name":"Gestel","department":"56","center":{"lng":-3.4368,"lat":47.8092},"population":2569},{"code":"56085","name":"Hœdic","department":"56","center":{"lng":-2.862,"lat":47.3364},"population":103},{"code":"56140","name":"Moréac","department":"56","center":{"lng":-2.8001,"lat":47.9306},"population":3692},{"code":"56162","name":"Ploemeur","department":"56","center":{"lng":-3.4486,"lat":47.7312},"population":18873},{"code":"56184","name":"Questembert","department":"56","center":{"lng":-2.4348,"lat":47.6643},"population":8081},{"code":"56261","name":"La Vraie-Croix","department":"56","center":{"lng":-2.5202,"lat":47.688},"population":1484},{"code":"57031","name":"Ars-Laquenexy","department":"57","center":{"lng":6.268,"lat":49.0855},"population":938},{"code":"57053","name":"Bassing","department":"57","center":{"lng":6.802,"lat":48.8737},"population":107},{"code":"57075","name":"Beux","department":"57","center":{"lng":6.3126,"lat":49.0008},"population":297},{"code":"57097","name":"Boulay-Moselle","department":"57","center":{"lng":6.4965,"lat":49.1749},"population":5479},{"code":"57130","name":"Château-Bréhain","department":"57","center":{"lng":6.5212,"lat":48.8992},"population":70},{"code":"57152","name":"Contz-les-Bains","department":"57","center":{"lng":6.3503,"lat":49.4569},"population":524},{"code":"57174","name":"Destry","department":"57","center":{"lng":6.5846,"lat":48.9472},"population":110},{"code":"57196","name":"Erching","department":"57","center":{"lng":7.2672,"lat":49.115},"population":418},{"code":"57251","name":"Goin","department":"57","center":{"lng":6.2243,"lat":48.9867},"population":352},{"code":"57273","name":"Guerstling","department":"57","center":{"lng":6.576,"lat":49.3227},"population":367},{"code":"57295","name":"Haraucourt-sur-Seille","department":"57","center":{"lng":6.6037,"lat":48.8095},"population":109},{"code":"57350","name":"Jouy-aux-Arches","department":"57","center":{"lng":6.084,"lat":49.0667},"population":1431},{"code":"57372","name":"Kuntzig","department":"57","center":{"lng":6.2386,"lat":49.3485},"population":1365},{"code":"57394","name":"Léning","department":"57","center":{"lng":6.8188,"lat":48.9547},"population":329},{"code":"57471","name":"Momerstroff","department":"57","center":{"lng":6.5313,"lat":49.1557},"population":297},{"code":"57493","name":"Mulcey","department":"57","center":{"lng":6.6641,"lat":48.8093},"population":209},{"code":"57570","name":"Rémering","department":"57","center":{"lng":6.6268,"lat":49.2599},"population":419},{"code":"57592","name":"Romelfing","department":"57","center":{"lng":7.0085,"lat":48.8356},"population":334},{"code":"57691","name":"Valmunster","department":"57","center":{"lng":6.5175,"lat":49.2485},"population":82},{"code":"58021","name":"Azy-le-Vif","department":"58","center":{"lng":3.2268,"lat":46.7873},"population":195},{"code":"58043","name":"Bussy-la-Pesle","department":"58","center":{"lng":3.4746,"lat":47.2547},"population":53},{"code":"58065","name":"Châtillon-en-Bazois","department":"58","center":{"lng":3.6546,"lat":47.0554},"population":835},{"code":"58087","name":"Cossaye","department":"58","center":{"lng":3.511,"lat":46.7556},"population":657},{"code":"58120","name":"Gâcogne","department":"58","center":{"lng":3.8788,"lat":47.2321},"population":209},{"code":"58142","name":"Limanton","department":"58","center":{"lng":3.7344,"lat":46.9835},"population":241},{"code":"58164","name":"Mesves-sur-Loire","department":"58","center":{"lng":3.0089,"lat":47.2329},"population":656},{"code":"58186","name":"Murlin","department":"58","center":{"lng":3.1729,"lat":47.1955},"population":57},{"code":"58241","name":"Saint-Germain-Chassenay","department":"58","center":{"lng":3.3955,"lat":46.7829},"population":309},{"code":"58263","name":"Saint-Pierre-du-Mont","department":"58","center":{"lng":3.4459,"lat":47.3999},"population":163},{"code":"58285","name":"Tamnay-en-Bazois","department":"58","center":{"lng":3.724,"lat":47.0536},"population":166},{"code":"59011","name":"Annœullin","department":"59","center":{"lng":2.9242,"lat":50.5275},"population":10887},{"code":"59033","name":"Aulnoye-Aymeries","department":"59","center":{"lng":3.8312,"lat":50.2036},"population":8674},{"code":"59055","name":"Bazuel","department":"59","center":{"lng":3.597,"lat":50.0819},"population":549},{"code":"59077","name":"Bettrechies","department":"59","center":{"lng":3.7403,"lat":50.322},"population":254},{"code":"59099","name":"Bousies","department":"59","center":{"lng":3.6156,"lat":50.1522},"population":1770},{"code":"59110","name":"Brouckerque","department":"59","center":{"lng":2.288,"lat":50.9541},"population":1454},{"code":"59132","name":"Carnières","department":"59","center":{"lng":3.3417,"lat":50.1636},"population":987},{"code":"59176","name":"Doignies","department":"59","center":{"lng":3.0153,"lat":50.1334},"population":323},{"code":"59198","name":"Eppe-Sauvage","department":"59","center":{"lng":4.1603,"lat":50.1148},"population":229},{"code":"59231","name":"Ferrière-la-Petite","department":"59","center":{"lng":4.029,"lat":50.2418},"population":1043},{"code":"59253","name":"Fresnes-sur-Escaut","department":"59","center":{"lng":3.58,"lat":50.4321},"population":7473},{"code":"59275","name":"Gruson","department":"59","center":{"lng":3.2156,"lat":50.5925},"population":1223},{"code":"59297","name":"Hélesmes","department":"59","center":{"lng":3.3584,"lat":50.3741},"population":1905},{"code":"59330","name":"Landas","department":"59","center":{"lng":3.2947,"lat":50.4708},"population":2482},{"code":"59352","name":"Linselles","department":"59","center":{"lng":3.0724,"lat":50.7367},"population":8177},{"code":"59374","name":"Marbaix","department":"59","center":{"lng":3.8367,"lat":50.1292},"population":468},{"code":"59396","name":"Mecquignies","department":"59","center":{"lng":3.8038,"lat":50.2697},"population":697},{"code":"59451","name":"Orsinval","department":"59","center":{"lng":3.6304,"lat":50.2725},"population":560},{"code":"59473","name":"Preux-au-Sart","department":"59","center":{"lng":3.6984,"lat":50.2891},"population":302},{"code":"59495","name":"Recquignies","department":"59","center":{"lng":4.0491,"lat":50.2765},"population":2379},{"code":"59550","name":"Salomé","department":"59","center":{"lng":2.8361,"lat":50.5381},"population":3116},{"code":"59572","name":"Solre-le-Château","department":"59","center":{"lng":4.1018,"lat":50.1699},"population":1790},{"code":"59594","name":"Thun-Saint-Amand","department":"59","center":{"lng":3.448,"lat":50.4856},"population":1102},{"code":"62080","name":"Bapaume","department":"62","center":{"lng":2.8559,"lat":50.1018},"population":3718},{"code":"63070","name":"Ceyrat","department":"63","center":{"lng":3.0651,"lat":45.7403},"population":6548},{"code":"63092","name":"Charbonnières-les-Varennes","department":"63","center":{"lng":2.9806,"lat":45.89},"population":1914},{"code":"63191","name":"Lastic","department":"63","center":{"lng":2.5767,"lat":45.7045},"population":99},{"code":"63290","name":"Pulvérières","department":"63","center":{"lng":2.9286,"lat":45.8844},"population":409},{"code":"64060","name":"Artiguelouve","department":"64","center":{"lng":-0.4702,"lat":43.3125},"population":2025},{"code":"64082","name":"Auterrive","department":"64","center":{"lng":-1.0083,"lat":43.4661},"population":143},{"code":"64181","name":"Castillon (Canton d'Arthez-de-Béarn)","department":"64","center":{"lng":-0.5769,"lat":43.4636},"population":336},{"code":"64280","name":"Izeste","department":"64","center":{"lng":-0.4483,"lat":43.0872},"population":441},{"code":"65050","name":"Avajan","department":"65","center":{"lng":0.402,"lat":42.8472},"population":81},{"code":"65072","name":"Bazet","department":"65","center":{"lng":0.0767,"lat":43.2897},"population":1877},{"code":"65094","name":"Bizous","department":"65","center":{"lng":0.4391,"lat":43.0655},"population":128},{"code":"65171","name":"Estarvielle","department":"65","center":{"lng":0.4156,"lat":42.8204},"population":34},{"code":"65193","name":"Gembrie","department":"65","center":{"lng":0.5759,"lat":42.9897},"population":91},{"code":"65270","name":"Lespouey","department":"65","center":{"lng":0.1713,"lat":43.2123},"population":207},{"code":"65292","name":"Luquet","department":"65","center":{"lng":-0.1175,"lat":43.2615},"population":422},{"code":"65391","name":"Sainte-Marie","department":"65","center":{"lng":0.6281,"lat":42.9694},"population":59},{"code":"66040","name":"Casefabre","department":"66","center":{"lng":2.6127,"lat":42.6156},"population":43},{"code":"66062","name":"Dorres","department":"66","center":{"lng":1.9224,"lat":42.5125},"population":178},{"code":"66084","name":"Fourques","department":"66","center":{"lng":2.7759,"lat":42.5845},"population":1333},{"code":"66161","name":"Ria-Sirach","department":"66","center":{"lng":2.3828,"lat":42.6101},"population":1294},{"code":"66183","name":"Saint-Marsal","department":"66","center":{"lng":2.6182,"lat":42.5256},"population":73},{"code":"67030","name":"Bergbieten","department":"67","center":{"lng":7.4516,"lat":48.5744},"population":725},{"code":"67052","name":"Bœrsch","department":"67","center":{"lng":7.3721,"lat":48.4662},"population":2435},{"code":"67074","name":"Cleebourg","department":"67","center":{"lng":7.8864,"lat":48.9928},"population":634},{"code":"67096","name":"Dimbsthal","department":"67","center":{"lng":7.3547,"lat":48.6729},"population":325},{"code":"67151","name":"Gambsheim","department":"67","center":{"lng":7.8825,"lat":48.6907},"population":5263},{"code":"67173","name":"Griesheim-sur-Souffel","department":"67","center":{"lng":7.6695,"lat":48.6325},"population":1223},{"code":"67195","name":"Hessenheim","department":"67","center":{"lng":7.5536,"lat":48.2063},"population":614},{"code":"67250","name":"Kriegsheim","department":"67","center":{"lng":7.7384,"lat":48.7557},"population":776},{"code":"67272","name":"Lochwiller","department":"67","center":{"lng":7.4131,"lat":48.6967},"population":388},{"code":"67371","name":"La Petite-Pierre","department":"67","center":{"lng":7.3347,"lat":48.8675},"population":599},{"code":"67470","name":"Solbach","department":"67","center":{"lng":7.199,"lat":48.4308},"population":106},{"code":"67492","name":"Traenheim","department":"67","center":{"lng":7.4672,"lat":48.5941},"population":655},{"code":"68020","name":"Bantzenheim","department":"68","center":{"lng":7.5032,"lat":47.8226},"population":1624},{"code":"68042","name":"Blotzheim","department":"68","center":{"lng":7.4906,"lat":47.6051},"population":5077},{"code":"68064","name":"Chalampé","department":"68","center":{"lng":7.5447,"lat":47.8325},"population":996},{"code":"68086","name":"Falkwiller","department":"68","center":{"lng":7.1267,"lat":47.6789},"population":211},{"code":"68141","name":"Hochstatt","department":"68","center":{"lng":7.2655,"lat":47.7093},"population":2175},{"code":"68163","name":"Kembs","department":"68","center":{"lng":7.4977,"lat":47.6742},"population":5694},{"code":"68185","name":"Lièpvre","department":"68","center":{"lng":7.2874,"lat":48.2633},"population":1647},{"code":"68240","name":"Illtal","department":"68","center":{"lng":7.3015,"lat":47.5627},"population":1223},{"code":"68262","name":"Ranspach","department":"68","center":{"lng":7.0263,"lat":47.9017},"population":778},{"code":"68284","name":"Roppentzwiller","department":"68","center":{"lng":7.3304,"lat":47.5357},"population":665},{"code":"68361","name":"Wegscheid","department":"68","center":{"lng":6.9778,"lat":47.8149},"population":317},{"code":"68383","name":"Zellenberg","department":"68","center":{"lng":7.3336,"lat":48.1733},"population":323},{"code":"69010","name":"L'Arbresle","department":"69","center":{"lng":4.6102,"lat":45.8347},"population":6469},{"code":"69032","name":"Bully","department":"69","center":{"lng":4.5786,"lat":45.8595},"population":2144},{"code":"69054","name":"Chénelette","department":"69","center":{"lng":4.4895,"lat":46.1707},"population":365},{"code":"69076","name":"Dommartin","department":"69","center":{"lng":4.7122,"lat":45.8372},"population":2607},{"code":"69098","name":"Les Halles","department":"69","center":{"lng":4.4345,"lat":45.7175},"population":481},{"code":"69131","name":"Messimy","department":"69","center":{"lng":4.6748,"lat":45.6978},"population":3565},{"code":"69153","name":"Poleymieux-au-Mont-d'Or","department":"69","center":{"lng":4.7927,"lat":45.856},"population":1394},{"code":"69175","name":"Savigny","department":"69","center":{"lng":4.5599,"lat":45.8174},"population":1970},{"code":"69197","name":"Saint-Étienne-des-Oullières","department":"69","center":{"lng":4.6557,"lat":46.0645},"population":2236},{"code":"69230","name":"Sainte-Paule","department":"69","center":{"lng":4.5634,"lat":45.9722},"population":330},{"code":"69252","name":"Trèves","department":"69","center":{"lng":4.6918,"lat":45.5358},"population":723},{"code":"69296","name":"Solaize","department":"69","center":{"lng":4.8331,"lat":45.6462},"population":3131},{"code":"73091","name":"Conjux","department":"73","center":{"lng":5.8239,"lat":45.7934},"population":216},{"code":"73190","name":"Notre-Dame-du-Pré","department":"73","center":{"lng":6.6033,"lat":45.5043},"population":256},{"code":"74081","name":"Cluses","department":"74","center":{"lng":6.5775,"lat":46.0625},"population":17366},{"code":"74180","name":"Messery","department":"74","center":{"lng":6.2982,"lat":46.3474},"population":2373},{"code":"76083","name":"Bertheauville","department":"76","center":{"lng":0.5915,"lat":49.7553},"population":101},{"code":"76160","name":"Carville-la-Folletière","department":"76","center":{"lng":0.8181,"lat":49.5599},"population":419},{"code":"76182","name":"Cliponville","department":"76","center":{"lng":0.6599,"lat":49.6708},"population":247},{"code":"76281","name":"La Frénaye","department":"76","center":{"lng":0.5756,"lat":49.5207},"population":2079},{"code":"76380","name":"Lammerville","department":"76","center":{"lng":0.9682,"lat":49.7931},"population":307},{"code":"77051","name":"Bray-sur-Seine","department":"77","center":{"lng":3.2457,"lat":48.4157},"population":2378},{"code":"77073","name":"Chalautre-la-Petite","department":"77","center":{"lng":3.3068,"lat":48.5288},"population":545},{"code":"77095","name":"Charny","department":"77","center":{"lng":2.7559,"lat":48.972},"population":1584},{"code":"77150","name":"Cuisy","department":"77","center":{"lng":2.7804,"lat":49.0203},"population":471},{"code":"77172","name":"Esmans","department":"77","center":{"lng":2.9711,"lat":48.3416},"population":904},{"code":"77194","name":"Forges","department":"77","center":{"lng":2.9483,"lat":48.4223},"population":432},{"code":"77271","name":"Maisoncelles-en-Gâtinais","department":"77","center":{"lng":2.6222,"lat":48.1837},"population":139},{"code":"77293","name":"Misy-sur-Yonne","department":"77","center":{"lng":3.0942,"lat":48.3628},"population":857},{"code":"77370","name":"Poligny","department":"77","center":{"lng":2.759,"lat":48.2373},"population":802},{"code":"77392","name":"Rouvres","department":"77","center":{"lng":2.7189,"lat":49.0657},"population":1021},{"code":"78140","name":"Chapet","department":"78","center":{"lng":1.9383,"lat":48.9681},"population":1337},{"code":"78162","name":"Choisel","department":"78","center":{"lng":2.0159,"lat":48.6754},"population":537},{"code":"78261","name":"Gaillon-sur-Montcient","department":"78","center":{"lng":1.8979,"lat":49.03},"population":691},{"code":"78283","name":"Grandchamp","department":"78","center":{"lng":1.6141,"lat":48.7207},"population":302},{"code":"78382","name":"Maurecourt","department":"78","center":{"lng":2.0479,"lat":48.9994},"population":4399},{"code":"78481","name":"Le Pecq","department":"78","center":{"lng":2.1022,"lat":48.8924},"population":15858},{"code":"79031","name":"Beauvoir-sur-Niort","department":"79","center":{"lng":-0.477,"lat":46.1842},"population":1772},{"code":"79130","name":"Frontenay-Rohan-Rohan","department":"79","center":{"lng":-0.5313,"lat":46.2611},"population":2968},{"code":"79152","name":"Lorigné","department":"79","center":{"lng":0.068,"lat":46.1063},"population":302},{"code":"79174","name":"Melle","department":"79","center":{"lng":-0.144,"lat":46.2082},"population":5790},{"code":"79196","name":"Plaine-et-Vallées","department":"79","center":{"lng":-0.0985,"lat":46.9083},"population":2334},{"code":"79251","name":"Marcillé","department":"79","center":{"lng":-0.1307,"lat":46.1907},"population":726},{"code":"79273","name":"Saint-Martin-de-Bernegoue","department":"79","center":{"lng":-0.3516,"lat":46.2385},"population":814},{"code":"79295","name":"Saint-Romans-lès-Melle","department":"79","center":{"lng":-0.1973,"lat":46.2055},"population":720},{"code":"79350","name":"Villiers-en-Bois","department":"79","center":{"lng":-0.4075,"lat":46.1449},"population":124},{"code":"83090","name":"Ollioules","department":"83","center":{"lng":5.8515,"lat":43.1385},"population":14320},{"code":"84080","name":"Monteux","department":"84","center":{"lng":4.9862,"lat":44.033},"population":13159},{"code":"85070","name":"Coëx","department":"85","center":{"lng":-1.7534,"lat":46.7105},"population":3416},{"code":"85092","name":"Fontenay-le-Comte","department":"85","center":{"lng":-0.7887,"lat":46.4587},"population":13806},{"code":"85191","name":"La Roche-sur-Yon","department":"85","center":{"lng":-1.4162,"lat":46.6659},"population":54699},{"code":"85290","name":"Thiré","department":"85","center":{"lng":-1.0128,"lat":46.5425},"population":538},{"code":"86082","name":"Valence-en-Poitou","department":"86","center":{"lng":0.2126,"lat":46.3169},"population":4323},{"code":"86181","name":"Nueil-sous-Faye","department":"86","center":{"lng":0.2763,"lat":46.9722},"population":218},{"code":"86280","name":"Vellèches","department":"86","center":{"lng":0.5259,"lat":46.9377},"population":349},{"code":"87050","name":"Couzeix","department":"87","center":{"lng":1.2103,"lat":45.8845},"population":10011},{"code":"87072","name":"Glanges","department":"87","center":{"lng":1.4633,"lat":45.6652},"population":510},{"code":"87094","name":"Meilhac","department":"87","center":{"lng":1.1506,"lat":45.7146},"population":526},{"code":"87193","name":"Surdoux","department":"87","center":{"lng":1.6429,"lat":45.6048},"population":54},{"code":"88040","name":"Bayecourt","department":"88","center":{"lng":6.4941,"lat":48.2714},"population":234},{"code":"88062","name":"Blevaincourt","department":"88","center":{"lng":5.7107,"lat":48.1217},"population":91},{"code":"88084","name":"Chamagne","department":"88","center":{"lng":6.3074,"lat":48.4117},"population":442},{"code":"88161","name":"Escles","department":"88","center":{"lng":6.1649,"lat":48.1189},"population":385},{"code":"88183","name":"Frebécourt","department":"88","center":{"lng":5.6756,"lat":48.3821},"population":352},{"code":"88260","name":"Langley","department":"88","center":{"lng":6.3319,"lat":48.3605},"population":144},{"code":"88381","name":"Relanges","department":"88","center":{"lng":6.0184,"lat":48.1105},"population":190},{"code":"88480","name":"Ubexy","department":"88","center":{"lng":6.2817,"lat":48.3393},"population":169},{"code":"89030","name":"Bazarnes","department":"89","center":{"lng":3.6431,"lat":47.6634},"population":414},{"code":"89074","name":"Champigny","department":"89","center":{"lng":3.1348,"lat":48.3045},"population":2127},{"code":"89096","name":"Chemilly-sur-Yonne","department":"89","center":{"lng":3.5547,"lat":47.8957},"population":895},{"code":"89151","name":"Égriselles-le-Bocage","department":"89","center":{"lng":3.1818,"lat":48.1108},"population":1387},{"code":"89173","name":"Fontaines","department":"89","center":{"lng":3.2665,"lat":47.6909},"population":462},{"code":"89195","name":"Gron","department":"89","center":{"lng":3.2542,"lat":48.1558},"population":1260},{"code":"89250","name":"Méré","department":"89","center":{"lng":3.8182,"lat":47.9001},"population":168},{"code":"89272","name":"Moulins-sur-Ouanne","department":"89","center":{"lng":3.3459,"lat":47.703},"population":279},{"code":"89371","name":"Sainte-Vertu","department":"89","center":{"lng":3.9058,"lat":47.734},"population":67},{"code":"89393","name":"Serrigny","department":"89","center":{"lng":3.914,"lat":47.8317},"population":115},{"code":"89470","name":"Villiers-les-Hauts","department":"89","center":{"lng":4.1555,"lat":47.724},"population":125},{"code":"95091","name":"Bouffémont","department":"95","center":{"lng":2.2995,"lat":49.0406},"population":6565}]