[{"code":"01005","name":"Ambérieux-en-Dombes","department":"01","center":{"lng":4.9119,"lat":45.9992},"population":1917},{"code":"01027","name":"Balan","department":"01","center":{"lng":5.1076,"lat":45.8268},"population":2878},{"code":"01049","name":"La Boisse","department":"01","center":{"lng":5.0262,"lat":45.8483},"population":3401},{"code":"01104","name":"Chézery-Forens","department":"01","center":{"lng":5.8693,"lat":46.2244},"population":436},{"code":"01148","name":"Dortan","department":"01","center":{"lng":5.6443,"lat":46.3184},"population":2013},{"code":"01203","name":"Laiz","department":"01","center":{"lng":4.9006,"lat":46.2462},"population":1292},{"code":"01225","name":"Lurcy","department":"01","center":{"lng":4.7802,"lat":46.0628},"population":404},{"code":"01247","name":"Mijoux","department":"01","center":{"lng":6.0106,"lat":46.3593},"population":297},{"code":"01269","name":"Nantua","department":"01","center":{"lng":5.6079,"lat":46.1486},"population":3431},{"code":"01302","name":"Pollieu","department":"01","center":{"lng":5.7463,"lat":45.7953},"population":167},{"code":"01346","name":"Saint-Didier-d'Aussiat","department":"01","center":{"lng":5.0536,"lat":46.3075},"population":845},{"code":"01368","name":"Saint-Julien-sur-Veyle","department":"01","center":{"lng":4.9559,"lat":46.2072},"population":853},{"code":"01401","name":"Sergy","department":"01","center":{"lng":5.9872,"lat":46.2615},"population":2279},{"code":"01423","name":"Toussieux","department":"01","center":{"lng":4.8289,"lat":45.961},"population":1228},{"code":"01445","name":"Villemotier","department":"01","center":{"lng":5.3087,"lat":46.3418},"population":607},{"code":"02017","name":"Anguilcourt-le-Sart","department":"02","center":{"lng":3.424,"lat":49.6971},"population":281},{"code":"02039","name":"Autremencourt","department":"02","center":{"lng":3.7931,"lat":49.7042},"population":175},{"code":"02116","name":"Braye-en-Thiérache","department":"02","center":{"lng":3.9623,"lat":49.7665},"population":133},{"code":"02138","name":"Buzancy","department":"02","center":{"lng":3.3487,"lat":49.3086},"population":183},{"code":"02215","name":"Corbeny","department":"02","center":{"lng":3.8256,"lat":49.4613},"population":849},{"code":"02237","name":"Crécy-sur-Serre","department":"02","center":{"lng":3.6188,"lat":49.693},"population":1487},{"code":"02259","name":"Dampleux","department":"02","center":{"lng":3.1471,"lat":49.2408},"population":378},{"code":"02336","name":"Frières-Faillouël","department":"02","center":{"lng":3.2366,"lat":49.6841},"population":976},{"code":"02358","name":"Grougis","department":"02","center":{"lng":3.5281,"lat":49.9501},"population":310},{"code":"02413","name":"Laval-en-Laonnois","department":"02","center":{"lng":3.5862,"lat":49.503},"population":248},{"code":"02435","name":"Logny-lès-Aubenton","department":"02","center":{"lng":4.2235,"lat":49.832},"population":83},{"code":"02457","name":"Marchais","department":"02","center":{"lng":3.819,"lat":49.5867},"population":391},{"code":"02512","name":"Montigny-l'Allier","department":"02","center":{"lng":3.1053,"lat":49.1245},"population":271},{"code":"02534","name":"Muscourt","department":"02","center":{"lng":3.7441,"lat":49.3589},"population":45},{"code":"02556","name":"Noircourt","department":"02","center":{"lng":4.0948,"lat":49.6691},"population":69},{"code":"02578","name":"Oulches-la-Vallée-Foulon","department":"02","center":{"lng":3.7406,"lat":49.4303},"population":82},{"code":"02633","name":"Quincy-sous-le-Mont","department":"02","center":{"lng":3.5576,"lat":49.3082},"population":62},{"code":"02655","name":"Ronchères","department":"02","center":{"lng":3.6031,"lat":49.1389},"population":152},{"code":"02677","name":"Saint-Eugène","department":"02","center":{"lng":3.5173,"lat":49.0155},"population":234},{"code":"02699","name":"Saponay","department":"02","center":{"lng":3.4896,"lat":49.2117},"population":270},{"code":"02710","name":"Seraucourt-le-Grand","department":"02","center":{"lng":3.216,"lat":49.7823},"population":714},{"code":"02732","name":"Surfontaine","department":"02","center":{"lng":3.4783,"lat":49.7472},"population":98},{"code":"02754","name":"Ugny-le-Gay","department":"02","center":{"lng":3.1569,"lat":49.6623},"population":186},{"code":"02776","name":"Vendhuile","department":"02","center":{"lng":3.2076,"lat":50.0124},"population":574},{"code":"02798","name":"Viels-Maisons","department":"02","center":{"lng":3.397,"lat":48.9035},"population":1199},{"code":"02831","name":"Watigny","department":"02","center":{"lng":4.199,"lat":49.9193},"population":359},{"code":"03007","name":"Arpheuilles-Saint-Priest","department":"03","center":{"lng":2.6699,"lat":46.2273},"population":374},{"code":"03029","name":"Billy","department":"03","center":{"lng":3.4414,"lat":46.2316},"population":823},{"code":"03106","name":"Durdat-Larequille","department":"03","center":{"lng":2.6968,"lat":46.2536},"population":1317},{"code":"03128","name":"Huriel","department":"03","center":{"lng":2.4812,"lat":46.3757},"population":2568},{"code":"03205","name":"Périgny","department":"03","center":{"lng":3.5611,"lat":46.2455},"population":470},{"code":"03227","name":"Saint-Didier-la-Forêt","department":"03","center":{"lng":3.3372,"lat":46.2297},"population":388},{"code":"03249","name":"Saint-Palais","department":"03","center":{"lng":2.3078,"lat":46.4415},"population":157},{"code":"03304","name":"Vendat","department":"03","center":{"lng":3.347,"lat":46.1599},"population":2269},{"code":"04019","name":"Barcelonnette","department":"04","center":{"lng":6.6463,"lat":44.3751},"population":2528},{"code":"04118","name":"Melve","department":"04","center":{"lng":5.9895,"lat":44.3546},"population":127},{"code":"04217","name":"Thoard","department":"04","center":{"lng":6.1258,"lat":44.1495},"population":741},{"code":"05009","name":"Aspres-lès-Corps","department":"05","center":{"lng":6.003,"lat":44.8145},"population":93},{"code":"05108","name":"Puy-Saint-Eusèbe","department":"05","center":{"lng":6.4129,"lat":44.5667},"population":190},{"code":"07209","name":"Saint-Andéol-de-Fourchades","department":"07","center":{"lng":4.2894,"lat":44.8434},"population":53},{"code":"07308","name":"Sarras","department":"07","center":{"lng":4.7775,"lat":45.1866},"population":2232},{"code":"08419","name":"Signy-l'Abbaye","department":"08","center":{"lng":4.4004,"lat":49.7015},"population":1346},{"code":"10014","name":"Assencières","department":"10","center":{"lng":4.2014,"lat":48.3566},"population":189},{"code":"10058","name":"Bragelogne-Beauvoir","department":"10","center":{"lng":4.2673,"lat":47.9703},"population":221},{"code":"10113","name":"Couvignon","department":"10","center":{"lng":4.6659,"lat":48.2022},"population":197},{"code":"10135","name":"Éclance","department":"10","center":{"lng":4.6414,"lat":48.3045},"population":87},{"code":"10157","name":"La Fosse-Corduan","department":"10","center":{"lng":3.6542,"lat":48.4423},"population":213},{"code":"10179","name":"Jeugny","department":"10","center":{"lng":4.06,"lat":48.1139},"population":462},{"code":"10212","name":"Machy","department":"10","center":{"lng":4.0353,"lat":48.1469},"population":108},{"code":"10234","name":"Mesgrigny","department":"10","center":{"lng":3.864,"lat":48.4804},"population":260},{"code":"10256","name":"Montsuzain","department":"10","center":{"lng":4.1294,"lat":48.4472},"population":396},{"code":"10278","name":"Pargues","department":"10","center":{"lng":4.209,"lat":48.0158},"population":142},{"code":"10333","name":"Saint-André-les-Vergers","department":"10","center":{"lng":4.0464,"lat":48.2771},"population":12695},{"code":"10355","name":"Saint-Nicolas-la-Chapelle","department":"10","center":{"lng":3.4805,"lat":48.5208},"population":75},{"code":"10377","name":"Thil","department":"10","center":{"lng":4.7917,"lat":48.3429},"population":106},{"code":"10399","name":"Vaudes","department":"10","center":{"lng":4.1814,"lat":48.1752},"population":708},{"code":"10410","name":"Villadin","department":"10","center":{"lng":3.6941,"lat":48.3157},"population":105},{"code":"10432","name":"Villiers-sous-Praslin","department":"10","center":{"lng":4.2547,"lat":48.0603},"population":68},{"code":"11004","name":"Alaigne","department":"11","center":{"lng":2.0887,"lat":43.0949},"population":331},{"code":"11026","name":"Baraigne","department":"11","center":{"lng":1.8191,"lat":43.3293},"population":164},{"code":"11048","name":"Boutenac","department":"11","center":{"lng":2.7993,"lat":43.1469},"population":739},{"code":"11103","name":"Couiza","department":"11","center":{"lng":2.2714,"lat":42.9324},"population":1130},{"code":"11125","name":"Embres-et-Castelmaure","department":"11","center":{"lng":2.8142,"lat":42.9278},"population":158},{"code":"11147","name":"Fontanès-de-Sault","department":"11","center":{"lng":2.0818,"lat":42.7659},"population":5},{"code":"11169","name":"Greffeil","department":"11","center":{"lng":2.3983,"lat":43.0752},"population":94},{"code":"11202","name":"Leucate","department":"11","center":{"lng":3.0232,"lat":42.9076},"population":4531},{"code":"11224","name":"Massac","department":"11","center":{"lng":2.5558,"lat":42.9174},"population":28},{"code":"11246","name":"Montgradail","department":"11","center":{"lng":2.0307,"lat":43.1233},"population":49},{"code":"11268","name":"Orsans","department":"11","center":{"lng":1.9792,"lat":43.1516},"population":97},{"code":"11301","name":"Puichéric","department":"11","center":{"lng":2.6078,"lat":43.2243},"population":1194},{"code":"11323","name":"Roquetaillade-et-Conilhac","department":"11","center":{"lng":2.2075,"lat":42.9904},"population":269},{"code":"11345","name":"Saint-Jean-de-Barrou","department":"11","center":{"lng":2.8262,"lat":42.9623},"population":269},{"code":"11367","name":"Saissac","department":"11","center":{"lng":2.1618,"lat":43.3622},"population":909},{"code":"11389","name":"Terroles","department":"11","center":{"lng":2.3428,"lat":42.9927},"population":14},{"code":"11400","name":"Tréziers","department":"11","center":{"lng":1.9628,"lat":43.054},"population":100},{"code":"11422","name":"Villedubert","department":"11","center":{"lng":2.4175,"lat":43.2306},"population":340},{"code":"12016","name":"Auzits","department":"12","center":{"lng":2.32,"lat":44.4954},"population":813},{"code":"12038","name":"Brousse-le-Château","department":"12","center":{"lng":2.6401,"lat":44.0078},"population":165},{"code":"12115","name":"L'Hospitalet-du-Larzac","department":"12","center":{"lng":3.2074,"lat":43.9755},"population":344},{"code":"12137","name":"Manhac","department":"12","center":{"lng":2.4782,"lat":44.2576},"population":873},{"code":"12159","name":"Morlhon-le-Haut","department":"12","center":{"lng":2.0785,"lat":44.3245},"population":555},{"code":"12214","name":"Saint-Chély-d'Aubrac","department":"12","center":{"lng":2.9419,"lat":44.5912},"population":517},{"code":"12236","name":"Saint-Laurent-de-Lévézou","department":"12","center":{"lng":2.9422,"lat":44.2124},"population":157},{"code":"12258","name":"La Salvetat-Peyralès","department":"12","center":{"lng":2.1986,"lat":44.2228},"population":1001},{"code":"13006","name":"Aureille","department":"13","center":{"lng":4.942,"lat":43.6983},"population":1537},{"code":"13028","name":"La Ciotat","department":"13","center":{"lng":5.6175,"lat":43.1882},"population":37599},{"code":"13105","name":"Sénas","department":"13","center":{"lng":5.073,"lat":43.7402},"population":6829},{"code":"14117","name":"Cabourg","department":"14","center":{"lng":-0.1201,"lat":49.2837},"population":3654},{"code":"14216","name":"Damblainville","department":"14","center":{"lng":-0.1245,"lat":48.9224},"population":231},{"code":"14238","name":"Englesqueville-en-Auge","department":"14","center":{"lng":0.1515,"lat":49.3312},"population":113},{"code":"14337","name":"La Houblonnière","department":"14","center":{"lng":0.0947,"lat":49.1247},"population":325},{"code":"14436","name":"Monceaux-en-Bessin","department":"14","center":{"lng":-0.6874,"lat":49.2521},"population":567},{"code":"14458","name":"Les Moutiers-en-Cinglais","department":"14","center":{"lng":-0.439,"lat":49.0219},"population":528},{"code":"14535","name":"Reviers","department":"14","center":{"lng":-0.4647,"lat":49.2977},"population":601},{"code":"14557","name":"Saint-Arnoult","department":"14","center":{"lng":0.0919,"lat":49.3307},"population":1103},{"code":"14579","name":"Seulline","department":"14","center":{"lng":-0.6975,"lat":49.0317},"population":1309},{"code":"14656","name":"Saint-Rémy","department":"14","center":{"lng":-0.4889,"lat":48.9413},"population":982},{"code":"14678","name":"Soumont-Saint-Quentin","department":"14","center":{"lng":-0.2322,"lat":48.979},"population":635},{"code":"14711","name":"Trévières","department":"14","center":{"lng":-0.9156,"lat":49.3002},"population":922},{"code":"14733","name":"Vaux-sur-Seulles","department":"14","center":{"lng":-0.6271,"lat":49.2603},"population":322},{"code":"14755","name":"Villerville","department":"14","center":{"lng":0.121,"lat":49.3902},"population":606},{"code":"15008","name":"Antignac","department":"15","center":{"lng":2.5608,"lat":45.3545},"population":282},{"code":"15107","name":"Lorcières","department":"15","center":{"lng":3.2938,"lat":44.9503},"population":163},{"code":"15129","name":"Montboudif","department":"15","center":{"lng":2.727,"lat":45.3708},"population":163},{"code":"15206","name":"Saint-Pierre","department":"15","center":{"lng":2.3862,"lat":45.3954},"population":146},{"code":"15228","name":"Siran","department":"15","center":{"lng":2.1218,"lat":44.9448},"population":461},{"code":"16119","name":"Dignac","department":"16","center":{"lng":0.2874,"lat":45.5549},"population":1373},{"code":"16218","name":"Mesnac","department":"16","center":{"lng":-0.3433,"lat":45.7744},"population":408},{"code":"16317","name":"Saint-Fraigne","department":"16","center":{"lng":-0.0159,"lat":45.9501},"population":429},{"code":"16339","name":"Val-d'Auge","department":"16","center":{"lng":-0.0866,"lat":45.8397},"population":795},{"code":"16416","name":"Vitrac-Saint-Vincent","department":"16","center":{"lng":0.4972,"lat":45.8011},"population":494},{"code":"17109","name":"Clavette","department":"17","center":{"lng":-1.0354,"lat":46.1444},"population":1423},{"code":"17208","name":"Longèves","department":"17","center":{"lng":-0.9755,"lat":46.2408},"population":1061},{"code":"17307","name":"Sablonceaux","department":"17","center":{"lng":-0.8935,"lat":45.7115},"population":1413},{"code":"17329","name":"Saint-Froult","department":"17","center":{"lng":-1.0597,"lat":45.9114},"population":390},{"code":"17406","name":"Saint-Sornin","department":"17","center":{"lng":-0.9752,"lat":45.7716},"population":420},{"code":"17428","name":"Sonnac","department":"17","center":{"lng":-0.279,"lat":45.83},"population":503},{"code":"21003","name":"Ahuy","department":"21","center":{"lng":5.0179,"lat":47.3696},"population":1695},{"code":"21025","name":"Arrans","department":"21","center":{"lng":4.3282,"lat":47.6897},"population":63},{"code":"21047","name":"Bard-lès-Époisses","department":"21","center":{"lng":4.2252,"lat":47.5291},"population":72},{"code":"21069","name":"Beurizot","department":"21","center":{"lng":4.4956,"lat":47.3543},"population":112},{"code":"21102","name":"Brazey-en-Morvan","department":"21","center":{"lng":4.2744,"lat":47.1705},"population":150},{"code":"21124","name":"Censerey","department":"21","center":{"lng":4.3377,"lat":47.1971},"population":180},{"code":"21146","name":"Charmes","department":"21","center":{"lng":5.3535,"lat":47.37},"population":119},{"code":"21168","name":"Chevannay","department":"21","center":{"lng":4.6527,"lat":47.3905},"population":35},{"code":"21201","name":"Coulmier-le-Sec","department":"21","center":{"lng":4.4928,"lat":47.7535},"population":240},{"code":"21223","name":"Daix","department":"21","center":{"lng":4.9729,"lat":47.3635},"population":1520},{"code":"21245","name":"Épagny","department":"21","center":{"lng":5.0453,"lat":47.4511},"population":325},{"code":"21267","name":"Flagey-Echézeaux","department":"21","center":{"lng":4.9744,"lat":47.1611},"population":494},{"code":"21289","name":"Fussey","department":"21","center":{"lng":4.8195,"lat":47.1318},"population":122},{"code":"21300","name":"Gissey-sur-Ouche","department":"21","center":{"lng":4.7749,"lat":47.2594},"population":357},{"code":"21322","name":"Jallanges","department":"21","center":{"lng":5.1692,"lat":46.9844},"population":309},{"code":"21344","name":"Lechâtelet","department":"21","center":{"lng":5.1391,"lat":47.0535},"population":233},{"code":"21366","name":"Magny-lès-Aubigny","department":"21","center":{"lng":5.1647,"lat":47.1107},"population":220},{"code":"21388","name":"Marliens","department":"21","center":{"lng":5.1784,"lat":47.2168},"population":614},{"code":"21421","name":"Moloy","department":"21","center":{"lng":4.9222,"lat":47.5391},"population":235},{"code":"21465","name":"Obtrée","department":"21","center":{"lng":4.5619,"lat":47.9328},"population":80},{"code":"21487","name":"Pluvet","department":"21","center":{"lng":5.2644,"lat":47.1978},"population":431},{"code":"21520","name":"Remilly-en-Montagne","department":"21","center":{"lng":4.7266,"lat":47.2894},"population":154},{"code":"21542","name":"Saint-Bernard","department":"21","center":{"lng":5.0283,"lat":47.1593},"population":460},{"code":"21564","name":"Saint-Nicolas-lès-Cîteaux","department":"21","center":{"lng":5.0806,"lat":47.135},"population":390},{"code":"21586","name":"Saulon-la-Rue","department":"21","center":{"lng":5.0512,"lat":47.2265},"population":707},{"code":"21641","name":"Touillon","department":"21","center":{"lng":4.4362,"lat":47.6559},"population":461},{"code":"21663","name":"Venarey-les-Laumes","department":"21","center":{"lng":4.447,"lat":47.5375},"population":2758},{"code":"21685","name":"Villaines-en-Duesmois","department":"21","center":{"lng":4.5205,"lat":47.6886},"population":252},{"code":"22015","name":"Bréhand","department":"22","center":{"lng":-2.5899,"lat":48.3954},"population":1695},{"code":"22037","name":"La Chapelle-Neuve","department":"22","center":{"lng":-3.4389,"lat":48.466},"population":403},{"code":"22059","name":"Le Fœil","department":"22","center":{"lng":-2.9055,"lat":48.4153},"population":1382},{"code":"22114","name":"Lanrelas","department":"22","center":{"lng":-2.296,"lat":48.2518},"population":866},{"code":"22136","name":"Loudéac","department":"22","center":{"lng":-2.7442,"lat":48.1737},"population":9875},{"code":"22158","name":"Guerlédan","department":"22","center":{"lng":-2.9481,"lat":48.1955},"population":2528},{"code":"22213","name":"Plouër-sur-Rance","department":"22","center":{"lng":-2.0064,"lat":48.5254},"population":3423},{"code":"22235","name":"Plouzélambre","department":"22","center":{"lng":-3.5346,"lat":48.6476},"population":202},{"code":"22257","name":"Quemperven","department":"22","center":{"lng":-3.3357,"lat":48.7267},"population":416},{"code":"22279","name":"Saint-Caradec","department":"22","center":{"lng":-2.8653,"lat":48.1993},"population":1132},{"code":"22312","name":"Saint-Maden","department":"22","center":{"lng":-2.0655,"lat":48.3363},"population":220},{"code":"22334","name":"Saint-Igeaux","department":"22","center":{"lng":-3.118,"lat":48.278},"population":124},{"code":"22356","name":"Trégomeur","department":"22","center":{"lng":-2.8857,"lat":48.5666},"population":947},{"code":"22378","name":"Trévérec","department":"22","center":{"lng":-3.0572,"lat":48.6619},"population":224},{"code":"23005","name":"Arfeuille-Châtain","department":"23","center":{"lng":2.4362,"lat":46.0616},"population":196},{"code":"23027","name":"Bosmoreau-les-Mines","department":"23","center":{"lng":1.7533,"lat":46.0034},"population":226},{"code":"23049","name":"Champsanglard","department":"23","center":{"lng":1.8885,"lat":46.2823},"population":255},{"code":"23104","name":"Lavaufranche","department":"23","center":{"lng":2.2738,"lat":46.305},"population":241},{"code":"23148","name":"Nouziers","department":"23","center":{"lng":1.957,"lat":46.4224},"population":250},{"code":"23203","name":"Saint-Julien-la-Genête","department":"23","center":{"lng":2.4747,"lat":46.1424},"population":218},{"code":"23225","name":"Saint-Oradoux-près-Crocq","department":"23","center":{"lng":2.3765,"lat":45.8882},"population":109},{"code":"23247","name":"Saint-Vaury","department":"23","center":{"lng":1.7422,"lat":46.1962},"population":1729},{"code":"24039","name":"Besse","department":"24","center":{"lng":1.112,"lat":44.6652},"population":153},{"code":"24116","name":"Châtres","department":"24","center":{"lng":1.1959,"lat":45.1859},"population":181},{"code":"24138","name":"Coulounieix-Chamiers","department":"24","center":{"lng":0.6861,"lat":45.1712},"population":7537},{"code":"24215","name":"Jayac","department":"24","center":{"lng":1.3518,"lat":45.0293},"population":188},{"code":"24237","name":"Lembras","department":"24","center":{"lng":0.5295,"lat":44.8923},"population":1255},{"code":"24259","name":"Eyraud-Crempse-Maurens","department":"24","center":{"lng":0.4836,"lat":44.9355},"population":1666},{"code":"24336","name":"Prats-de-Carlux","department":"24","center":{"lng":1.3093,"lat":44.8923},"population":487},{"code":"24413","name":"Saint-Georges-Blancaneix","department":"24","center":{"lng":0.3538,"lat":44.9183},"population":280},{"code":"24457","name":"Saint-Martin-l'Astier","department":"24","center":{"lng":0.324,"lat":45.0574},"population":140},{"code":"24479","name":"Saint-Pardoux-la-Rivière","department":"24","center":{"lng":0.7552,"lat":45.5036},"population":1170},{"code":"24512","name":"Saint-Vincent-le-Paluel","department":"24","center":{"lng":1.2706,"lat":44.8836},"population":293},{"code":"24534","name":"Sigoulès-et-Flaugeac","department":"24","center":{"lng":0.4133,"lat":44.7544},"population":1251},{"code":"25007","name":"Adam-lès-Vercel","department":"25","center":{"lng":6.3904,"lat":47.1646},"population":103},{"code":"25029","name":"Aubonne","department":"25","center":{"lng":6.3446,"lat":47.0417},"population":260},{"code":"25106","name":"Cademène","department":"25","center":{"lng":6.0279,"lat":47.0939},"population":66},{"code":"25227","name":"Étray","department":"25","center":{"lng":6.3319,"lat":47.1292},"population":290},{"code":"25249","name":"Fontenotte","department":"25","center":{"lng":6.313,"lat":47.374},"population":63},{"code":"25304","name":"Hérimoncourt","department":"25","center":{"lng":6.8868,"lat":47.4358},"population":3530},{"code":"25326","name":"Lantenne-Vertière","department":"25","center":{"lng":5.7757,"lat":47.2308},"population":545},{"code":"25348","name":"Longevilles-Mont-d'Or","department":"25","center":{"lng":6.3293,"lat":46.7451},"population":615},{"code":"25403","name":"Montlebon","department":"25","center":{"lng":6.6316,"lat":47.0216},"population":2227},{"code":"25425","name":"Noël-Cerneux","department":"25","center":{"lng":6.6556,"lat":47.1062},"population":455},{"code":"25447","name":"Passonfontaine","department":"25","center":{"lng":6.4253,"lat":47.0989},"population":334},{"code":"25469","name":"Présentevillers","department":"25","center":{"lng":6.7303,"lat":47.5026},"population":468},{"code":"25502","name":"Roset-Fluans","department":"25","center":{"lng":5.832,"lat":47.1505},"population":578},{"code":"25524","name":"Saint-Maurice-Colombier","department":"25","center":{"lng":6.6484,"lat":47.4297},"population":889},{"code":"25546","name":"Silley-Bléfond","department":"25","center":{"lng":6.3314,"lat":47.3203},"population":57},{"code":"25601","name":"Vercel-Villedieu-le-Camp","department":"25","center":{"lng":6.3777,"lat":47.1852},"population":1732},{"code":"25623","name":"Villers-Chief","department":"25","center":{"lng":6.4406,"lat":47.223},"population":142},{"code":"26019","name":"Aurel","department":"26","center":{"lng":5.3081,"lat":44.6936},"population":262},{"code":"26118","name":"Épinouze","department":"26","center":{"lng":4.938,"lat":45.3123},"population":1527},{"code":"26217","name":"La Motte-Fanjas","department":"26","center":{"lng":5.2707,"lat":45.045},"population":197},{"code":"26239","name":"Plaisians","department":"26","center":{"lng":5.3398,"lat":44.2288},"population":214},{"code":"26316","name":"Saint-Martin-le-Colonel","department":"26","center":{"lng":5.2792,"lat":44.9867},"population":225},{"code":"26338","name":"Sauzet","department":"26","center":{"lng":4.8271,"lat":44.5943},"population":1834},{"code":"27009","name":"Ambenay","department":"27","center":{"lng":0.7383,"lat":48.84},"population":551},{"code":"27108","name":"Bourth","department":"27","center":{"lng":0.8082,"lat":48.7661},"population":1166},{"code":"27207","name":"Drucourt","department":"27","center":{"lng":0.4503,"lat":49.1206},"population":576},{"code":"27229","name":"Évreux","department":"27","center":{"lng":1.1406,"lat":49.018},"population":48335},{"code":"27306","name":"Guichainville","department":"27","center":{"lng":1.1841,"lat":48.9847},"population":3077},{"code":"27405","name":"Mesnil-sous-Vienne","department":"27","center":{"lng":1.6675,"lat":49.3852},"population":101},{"code":"27427","name":"Neaufles-Auvergny","department":"27","center":{"lng":0.7472,"lat":48.8758},"population":413},{"code":"27504","name":"Sacquenville","department":"27","center":{"lng":1.0727,"lat":49.0817},"population":1207},{"code":"27548","name":"Saint-Germain-sur-Avre","department":"27","center":{"lng":1.2605,"lat":48.7742},"population":1188},{"code":"27603","name":"Saint-Siméon","department":"27","center":{"lng":0.5201,"lat":49.2833},"population":323},{"code":"27625","name":"Suzay","department":"27","center":{"lng":1.5146,"lat":49.2693},"population":344},{"code":"27669","name":"Valletot","department":"27","center":{"lng":0.6134,"lat":49.3658},"population":411},{"code":"28219","name":"Luigny","department":"28","center":{"lng":1.0246,"lat":48.2393},"population":423},{"code":"28417","name":"Villiers-le-Morhier","department":"28","center":{"lng":1.577,"lat":48.6212},"population":1359},{"code":"29209","name":"Plouvien","department":"29","center":{"lng":-4.4686,"lat":48.5331},"population":3930},{"code":"30012","name":"Aramon","department":"30","center":{"lng":4.6869,"lat":43.8997},"population":4082},{"code":"30034","name":"Bellegarde","department":"30","center":{"lng":4.4967,"lat":43.7483},"population":7929},{"code":"30056","name":"La Bruguière","department":"30","center":{"lng":4.4018,"lat":44.1018},"population":331},{"code":"30111","name":"Foissac","department":"30","center":{"lng":4.3,"lat":44.0356},"population":449},{"code":"30133","name":"Le Grau-du-Roi","department":"30","center":{"lng":4.1704,"lat":43.5149},"population":8513},{"code":"30155","name":"Manduel","department":"30","center":{"lng":4.4962,"lat":43.8084},"population":7087},{"code":"30177","name":"Monteils","department":"30","center":{"lng":4.1823,"lat":44.0877},"population":677},{"code":"30199","name":"Pommiers","department":"30","center":{"lng":3.622,"lat":43.9492},"population":57},{"code":"30210","name":"Quissac","department":"30","center":{"lng":3.9985,"lat":43.9213},"population":3449},{"code":"30232","name":"Saint-André-d'Olérargues","department":"30","center":{"lng":4.4988,"lat":44.1644},"population":444},{"code":"30254","name":"Saint-Geniès-de-Comolas","department":"30","center":{"lng":4.7299,"lat":44.0679},"population":2013},{"code":"30276","name":"Saint-Laurent-d'Aigouze","department":"30","center":{"lng":4.237,"lat":43.5766},"population":3651},{"code":"30298","name":"Saint-Sébastien-d'Aigrefeuille","department":"30","center":{"lng":3.9915,"lat":44.1166},"population":510},{"code":"30331","name":"Tresques","department":"30","center":{"lng":4.5958,"lat":44.1166},"population":1803},{"code":"30353","name":"Vissec","department":"30","center":{"lng":3.4582,"lat":43.898},"population":68},{"code":"31002","name":"Aignes","department":"31","center":{"lng":1.5866,"lat":43.3334},"population":240},{"code":"31024","name":"Auragne","department":"31","center":{"lng":1.51,"lat":43.3922},"population":466},{"code":"31046","name":"Baren","department":"31","center":{"lng":0.6356,"lat":42.8677},"population":11},{"code":"31068","name":"Billière","department":"31","center":{"lng":0.5309,"lat":42.8196},"population":34},{"code":"31101","name":"Cambernard","department":"31","center":{"lng":1.1785,"lat":43.4643},"population":496},{"code":"31123","name":"Castillon-de-Larboust","department":"31","center":{"lng":0.5618,"lat":42.7534},"population":81},{"code":"31145","name":"Cintegabelle","department":"31","center":{"lng":1.5375,"lat":43.3},"population":2994},{"code":"31167","name":"Encausse-les-Thermes","department":"31","center":{"lng":0.7464,"lat":43.0511},"population":673},{"code":"31189","name":"Forgues","department":"31","center":{"lng":1.0429,"lat":43.4322},"population":217},{"code":"31200","name":"Frontignan-de-Comminges","department":"31","center":{"lng":0.67,"lat":42.9647},"population":78},{"code":"31222","name":"Gouaux-de-Luchon","department":"31","center":{"lng":0.644,"lat":42.8501},"population":43},{"code":"31244","name":"Juzet-de-Luchon","department":"31","center":{"lng":0.631,"lat":42.8036},"population":372},{"code":"31266","name":"Lahage","department":"31","center":{"lng":1.0699,"lat":43.4414},"population":205},{"code":"31288","name":"Layrac-sur-Tarn","department":"31","center":{"lng":1.5655,"lat":43.8327},"population":312},{"code":"31321","name":"Marsoulas","department":"31","center":{"lng":0.9929,"lat":43.1072},"population":141},{"code":"31343","name":"Mirambeau","department":"31","center":{"lng":0.865,"lat":43.4049},"population":62},{"code":"31365","name":"Montbrun-Bocage","department":"31","center":{"lng":1.2566,"lat":43.1179},"population":581},{"code":"31387","name":"Montoussin","department":"31","center":{"lng":1.0101,"lat":43.2792},"population":130},{"code":"31420","name":"Pinsaguel","department":"31","center":{"lng":1.3919,"lat":43.503},"population":2779},{"code":"31442","name":"Puydaniel","department":"31","center":{"lng":1.42,"lat":43.3315},"population":573},{"code":"31464","name":"Sabonnères","department":"31","center":{"lng":1.057,"lat":43.4666},"population":333},{"code":"31486","name":"Saint-Hilaire","department":"31","center":{"lng":1.2689,"lat":43.4211},"population":1726},{"code":"31541","name":"Seilh","department":"31","center":{"lng":1.3574,"lat":43.692},"population":3311},{"code":"31563","name":"Vacquiers","department":"31","center":{"lng":1.486,"lat":43.7895},"population":1440},{"code":"31585","name":"Villeneuve-de-Rivière","department":"31","center":{"lng":0.6681,"lat":43.121},"population":1732},{"code":"32014","name":"Augnax","department":"32","center":{"lng":0.7746,"lat":43.7246},"population":126},{"code":"32036","name":"Beaumarchés","department":"32","center":{"lng":0.1029,"lat":43.5907},"population":679},{"code":"32058","name":"Blousson-Sérian","department":"32","center":{"lng":0.1943,"lat":43.4595},"population":34},{"code":"32113","name":"Cravencères","department":"32","center":{"lng":0.03,"lat":43.7766},"population":93},{"code":"32135","name":"Fustérouau","department":"32","center":{"lng":0.0048,"lat":43.6856},"population":130},{"code":"32157","name":"L'Isle-Arné","department":"32","center":{"lng":0.7862,"lat":43.6167},"population":187},{"code":"32212","name":"Ligardes","department":"32","center":{"lng":0.4792,"lat":44.0413},"population":206},{"code":"32234","name":"Marestaing","department":"32","center":{"lng":1.0135,"lat":43.5853},"population":349},{"code":"32256","name":"Mirande","department":"32","center":{"lng":0.4053,"lat":43.52},"population":3442},{"code":"32278","name":"Montaut","department":"32","center":{"lng":0.4206,"lat":43.3998},"population":123},{"code":"32311","name":"Pergain-Taillac","department":"32","center":{"lng":0.5946,"lat":44.0562},"population":335},{"code":"32333","name":"Projan","department":"32","center":{"lng":-0.2325,"lat":43.6093},"population":182},{"code":"32355","name":"Sadeillan","department":"32","center":{"lng":0.3464,"lat":43.3978},"population":83},{"code":"32377","name":"Saint-Georges","department":"32","center":{"lng":0.9295,"lat":43.7374},"population":195},{"code":"32399","name":"Saint-Orens","department":"32","center":{"lng":0.9164,"lat":43.7128},"population":80},{"code":"32410","name":"Samatan","department":"32","center":{"lng":0.9279,"lat":43.4928},"population":2478},{"code":"32432","name":"Seysses-Savès","department":"32","center":{"lng":1.0454,"lat":43.5139},"population":245},{"code":"32454","name":"Traversères","department":"32","center":{"lng":0.651,"lat":43.5341},"population":71},{"code":"33004","name":"Ambès","department":"33","center":{"lng":-0.5486,"lat":45.0123},"population":3291},{"code":"33026","name":"Balizac","department":"33","center":{"lng":-0.45,"lat":44.4878},"population":520},{"code":"33048","name":"Berthez","department":"33","center":{"lng":-0.1288,"lat":44.4826},"population":292},{"code":"33103","name":"Castelmoron-d'Albret","department":"33","center":{"lng":-0.0115,"lat":44.6797},"population":51},{"code":"33125","name":"Cissac-Médoc","department":"33","center":{"lng":-0.8413,"lat":45.2149},"population":2310},{"code":"33147","name":"Daignac","department":"33","center":{"lng":-0.2337,"lat":44.7987},"population":470},{"code":"33169","name":"Floudès","department":"33","center":{"lng":-0.0631,"lat":44.5698},"population":106},{"code":"33202","name":"Hostens","department":"33","center":{"lng":-0.6616,"lat":44.4834},"population":1530},{"code":"33224","name":"Landerrouet-sur-Ségur","department":"33","center":{"lng":-0.0185,"lat":44.651},"population":102},{"code":"33246","name":"Ligueux","department":"33","center":{"lng":0.2631,"lat":44.7928},"population":140},{"code":"33268","name":"Margaux-Cantenac","department":"33","center":{"lng":-0.6788,"lat":45.0363},"population":2844},{"code":"33301","name":"Naujan-et-Postiac","department":"33","center":{"lng":-0.1851,"lat":44.7871},"population":612},{"code":"33323","name":"Le Pian-sur-Garonne","department":"33","center":{"lng":-0.2168,"lat":44.5818},"population":967},{"code":"33345","name":"Le Puy","department":"33","center":{"lng":0.0632,"lat":44.6602},"population":394},{"code":"33367","name":"Saint-André-du-Bois","department":"33","center":{"lng":-0.191,"lat":44.6085},"population":438},{"code":"33389","name":"Saint-Ciers-sur-Gironde","department":"33","center":{"lng":-0.6648,"lat":45.2947},"population":3128},{"code":"33400","name":"Saint-Ferme","department":"33","center":{"lng":0.0593,"lat":44.6951},"population":338},{"code":"33422","name":"Saint-Jean-d'Illac","department":"33","center":{"lng":-0.8156,"lat":44.7973},"population":9702},{"code":"33444","name":"Saint-Martin-de-Sescas","department":"33","center":{"lng":-0.1641,"lat":44.5851},"population":563},{"code":"33466","name":"Saint-Quentin-de-Baron","department":"33","center":{"lng":-0.2811,"lat":44.8175},"population":2704},{"code":"33488","name":"Saint-Vincent-de-Pertignas","department":"33","center":{"lng":-0.1131,"lat":44.8007},"population":334},{"code":"33521","name":"Talais","department":"33","center":{"lng":-1.0353,"lat":45.499},"population":756},{"code":"33543","name":"Verdelais","department":"33","center":{"lng":-0.2535,"lat":44.592},"population":1042},{"code":"34016","name":"Aumelas","department":"34","center":{"lng":3.6056,"lat":43.5768},"population":582},{"code":"34038","name":"Le Bousquet-d'Orb","department":"34","center":{"lng":3.1495,"lat":43.7011},"population":1594},{"code":"34115","name":"Gorniès","department":"34","center":{"lng":3.6224,"lat":43.8848},"population":107},{"code":"34137","name":"Liausson","department":"34","center":{"lng":3.3604,"lat":43.6384},"population":153},{"code":"34159","name":"Mireval","department":"34","center":{"lng":3.8022,"lat":43.5158},"population":3301},{"code":"34214","name":"Pouzolles","department":"34","center":{"lng":3.2727,"lat":43.478},"population":1214},{"code":"34236","name":"Rouet","department":"34","center":{"lng":3.8184,"lat":43.8254},"population":69},{"code":"34258","name":"Saint-Geniès-de-Fontedit","department":"34","center":{"lng":3.1734,"lat":43.4685},"population":1695},{"code":"34313","name":"Tressan","department":"34","center":{"lng":3.487,"lat":43.5718},"population":688},{"code":"34335","name":"Villemagne-l'Argentière","department":"34","center":{"lng":3.1208,"lat":43.6189},"population":420},{"code":"35006","name":"Argentré-du-Plessis","department":"35","center":{"lng":-1.1395,"lat":48.0505},"population":4591},{"code":"35028","name":"Boistrudan","department":"35","center":{"lng":-1.4006,"lat":47.9776},"population":726},{"code":"35105","name":"Erbrée","department":"35","center":{"lng":-1.1084,"lat":48.1117},"population":1713},{"code":"35127","name":"Guignen","department":"35","center":{"lng":-1.8558,"lat":47.9276},"population":4149},{"code":"35149","name":"Lassy","department":"35","center":{"lng":-1.8653,"lat":47.971},"population":1817},{"code":"35204","name":"Nouvoitou","department":"35","center":{"lng":-1.5504,"lat":48.0292},"population":3732},{"code":"35226","name":"Pleugueneuc","department":"35","center":{"lng":-1.8851,"lat":48.4054},"population":2063},{"code":"35248","name":"Sains","department":"35","center":{"lng":-1.5968,"lat":48.5557},"population":457},{"code":"35325","name":"La Selle-Guerchaise","department":"35","center":{"lng":-1.1718,"lat":47.9435},"population":153},{"code":"35347","name":"Val-d'Izé","department":"35","center":{"lng":-1.2987,"lat":48.1861},"population":2601},{"code":"36018","name":"Le Blanc","department":"36","center":{"lng":1.0955,"lat":46.6351},"population":6188},{"code":"36117","name":"Le Menoux","department":"36","center":{"lng":1.573,"lat":46.5572},"population":412},{"code":"36139","name":"Neuillay-les-Bois","department":"36","center":{"lng":1.4807,"lat":46.7603},"population":659},{"code":"36216","name":"Selles-sur-Nahon","department":"36","center":{"lng":1.4548,"lat":47.0184},"population":62},{"code":"36238","name":"Vigoulant","department":"36","center":{"lng":2.0841,"lat":46.4392},"population":99},{"code":"37008","name":"Athée-sur-Cher","department":"37","center":{"lng":0.8958,"lat":47.3143},"population":2848},{"code":"37107","name":"Ferrière-Larçon","department":"37","center":{"lng":0.8738,"lat":46.996},"population":239},{"code":"37129","name":"Ligré","department":"37","center":{"lng":0.271,"lat":47.1114},"population":1070},{"code":"37206","name":"Saint-Antoine-du-Rocher","department":"37","center":{"lng":0.6294,"lat":47.4981},"population":1786},{"code":"37228","name":"Saint-Nicolas-de-Bourgueil","department":"37","center":{"lng":0.1216,"lat":47.3002},"population":1118},{"code":"38218","name":"Marcilloles","department":"38","center":{"lng":5.1774,"lat":45.3505},"population":1186},{"code":"38317","name":"Le Pont-de-Claix","department":"38","center":{"lng":5.7017,"lat":45.123},"population":10846},{"code":"38339","name":"Roche","department":"38","center":{"lng":5.1557,"lat":45.578},"population":2189},{"code":"38416","name":"Saint-Marcellin","department":"38","center":{"lng":5.3166,"lat":45.1526},"population":7705},{"code":"38438","name":"Saint-Paul-lès-Monestier","department":"38","center":{"lng":5.6127,"lat":44.9304},"population":284},{"code":"38515","name":"Trept","department":"38","center":{"lng":5.3239,"lat":45.6864},"population":2097},{"code":"38537","name":"La Verpillière","department":"38","center":{"lng":5.1494,"lat":45.6376},"population":7643},{"code":"38559","name":"Vinay","department":"38","center":{"lng":5.4078,"lat":45.2144},"population":4449},{"code":"39109","name":"Charézier","department":"39","center":{"lng":5.7361,"lat":46.6142},"population":169},{"code":"39208","name":"Entre-deux-Monts","department":"39","center":{"lng":5.9651,"lat":46.6407},"population":165},{"code":"39307","name":"Maisod","department":"39","center":{"lng":5.6938,"lat":46.4754},"population":325},{"code":"39329","name":"Mièges","department":"39","center":{"lng":6.0523,"lat":46.7933},"population":165},{"code":"39406","name":"Le Pasquier","department":"39","center":{"lng":5.8986,"lat":46.7991},"population":285},{"code":"39428","name":"Plénisette","department":"39","center":{"lng":6.016,"lat":46.8036},"population":21},{"code":"39505","name":"Saugeot","department":"39","center":{"lng":5.8218,"lat":46.6061},"population":56},{"code":"39527","name":"Taxenne","department":"39","center":{"lng":5.6857,"lat":47.2212},"population":125},{"code":"40011","name":"Arsague","department":"40","center":{"lng":-0.789,"lat":43.581},"population":342},{"code":"40033","name":"Bélis","department":"40","center":{"lng":-0.4688,"lat":44.064},"population":164},{"code":"40055","name":"Bretagne-de-Marsan","department":"40","center":{"lng":-0.4655,"lat":43.8359},"population":1626},{"code":"40077","name":"Cauneille","department":"40","center":{"lng":-1.0678,"lat":43.563},"population":799},{"code":"40099","name":"Fargues","department":"40","center":{"lng":-0.4543,"lat":43.7235},"population":314},{"code":"40110","name":"Geaune","department":"40","center":{"lng":-0.3698,"lat":43.6322},"population":763},{"code":"40132","name":"Labatut","department":"40","center":{"lng":-0.9926,"lat":43.5544},"population":1396},{"code":"40154","name":"Lévignacq","department":"40","center":{"lng":-1.1452,"lat":44.0128},"population":345},{"code":"40176","name":"Mauvezin-d'Armagnac","department":"40","center":{"lng":-0.1323,"lat":43.9591},"population":99},{"code":"40198","name":"Morganx","department":"40","center":{"lng":-0.5708,"lat":43.6043},"population":168},{"code":"40231","name":"Port-de-Lanne","department":"40","center":{"lng":-1.1857,"lat":43.5758},"population":1228},{"code":"40253","name":"Saint-Cricq-Chalosse","department":"40","center":{"lng":-0.6737,"lat":43.6561},"population":633},{"code":"40275","name":"Saint-Maurice-sur-Adour","department":"40","center":{"lng":-0.4691,"lat":43.7932},"population":623},{"code":"40297","name":"Le Sen","department":"40","center":{"lng":-0.5067,"lat":44.139},"population":221},{"code":"40330","name":"Villenave","department":"40","center":{"lng":-0.8227,"lat":43.9681},"population":313},{"code":"41001","name":"Ambloy","department":"41","center":{"lng":0.9704,"lat":47.7094},"population":187},{"code":"41045","name":"Chaumont-sur-Loire","department":"41","center":{"lng":1.1966,"lat":47.4647},"population":1091},{"code":"41067","name":"Cour-Cheverny","department":"41","center":{"lng":1.4725,"lat":47.5057},"population":2830},{"code":"41089","name":"La Fontenelle","department":"41","center":{"lng":1.0167,"lat":48.0536},"population":207},{"code":"41100","name":"Les Hayes","department":"41","center":{"lng":0.776,"lat":47.7007},"population":172},{"code":"41122","name":"Maray","department":"41","center":{"lng":1.8654,"lat":47.2352},"population":226},{"code":"41144","name":"Monteaux","department":"41","center":{"lng":1.1084,"lat":47.4842},"population":723},{"code":"41166","name":"Oisly","department":"41","center":{"lng":1.3753,"lat":47.3955},"population":390},{"code":"41188","name":"Rhodon","department":"41","center":{"lng":1.2702,"lat":47.7523},"population":116},{"code":"41221","name":"Saint-Léonard-en-Beauce","department":"41","center":{"lng":1.3651,"lat":47.8287},"population":638},{"code":"41243","name":"Selommes","department":"41","center":{"lng":1.2101,"lat":47.7652},"population":795},{"code":"41265","name":"Troo","department":"41","center":{"lng":0.7765,"lat":47.7924},"population":304},{"code":"41287","name":"Villerable","department":"41","center":{"lng":1.0363,"lat":47.7588},"population":490},{"code":"42013","name":"Bellegarde-en-Forez","department":"42","center":{"lng":4.3089,"lat":45.6409},"population":2004},{"code":"42035","name":"Cezay","department":"42","center":{"lng":3.9667,"lat":45.8048},"population":208},{"code":"42079","name":"Cuinzier","department":"42","center":{"lng":4.2649,"lat":46.124},"population":705},{"code":"42112","name":"Jarnosse","department":"42","center":{"lng":4.2418,"lat":46.0984},"population":397},{"code":"42134","name":"Marcilly-le-Châtel","department":"42","center":{"lng":4.0269,"lat":45.6888},"population":1395},{"code":"42156","name":"Neulise","department":"42","center":{"lng":4.1681,"lat":45.9037},"population":1356},{"code":"42178","name":"Pradines","department":"42","center":{"lng":4.1736,"lat":45.9976},"population":902},{"code":"42211","name":"Saint-Cyprien","department":"42","center":{"lng":4.2327,"lat":45.5414},"population":2428},{"code":"42233","name":"Saint-Haon-le-Vieux","department":"42","center":{"lng":3.9019,"lat":46.0733},"population":961},{"code":"42255","name":"Saint-Marcel-d'Urfé","department":"42","center":{"lng":3.8813,"lat":45.8713},"population":269},{"code":"42277","name":"Saint-Priest-la-Roche","department":"42","center":{"lng":4.1085,"lat":45.9204},"population":340},{"code":"42299","name":"Savigneux","department":"42","center":{"lng":4.1013,"lat":45.622},"population":3489},{"code":"42310","name":"Thélis-la-Combe","department":"42","center":{"lng":4.5496,"lat":45.3369},"population":143},{"code":"42332","name":"Villerest","department":"42","center":{"lng":4.0264,"lat":45.9981},"population":5175},{"code":"43003","name":"Allègre","department":"43","center":{"lng":3.6877,"lat":45.1861},"population":892},{"code":"43025","name":"Beauzac","department":"43","center":{"lng":4.0953,"lat":45.2528},"population":2964},{"code":"43047","name":"Chadron","department":"43","center":{"lng":3.939,"lat":44.9501},"population":348},{"code":"43069","name":"Chenereilles","department":"43","center":{"lng":4.2383,"lat":45.138},"population":291},{"code":"43102","name":"Grazac","department":"43","center":{"lng":4.1782,"lat":45.1911},"population":1126},{"code":"43124","name":"Loudes","department":"43","center":{"lng":3.7455,"lat":45.0984},"population":947},{"code":"43168","name":"Saint-Arcons-de-Barges","department":"43","center":{"lng":3.9271,"lat":44.8341},"population":116},{"code":"43201","name":"Saint-Julien-d'Ance","department":"43","center":{"lng":3.9302,"lat":45.306},"population":248},{"code":"43223","name":"Saint-Romain-Lachalm","department":"43","center":{"lng":4.34,"lat":45.2689},"population":1132},{"code":"43245","name":"Thoras","department":"43","center":{"lng":3.5807,"lat":44.8658},"population":235},{"code":"43267","name":"Vorey","department":"43","center":{"lng":3.9061,"lat":45.1947},"population":1466},{"code":"44015","name":"Blain","department":"44","center":{"lng":-1.7817,"lat":47.4562},"population":10352},{"code":"44037","name":"Château-Thébaud","department":"44","center":{"lng":-1.4467,"lat":47.1169},"population":3138},{"code":"44114","name":"Orvault","department":"44","center":{"lng":-1.6195,"lat":47.2745},"population":28341},{"code":"44136","name":"Préfailles","department":"44","center":{"lng":-2.2106,"lat":47.133},"population":1246},{"code":"44158","name":"Saint-Étienne-de-Montluc","department":"44","center":{"lng":-1.7902,"lat":47.2694},"population":7739},{"code":"44213","name":"Loireauxence","department":"44","center":{"lng":-1.0319,"lat":47.4352},"population":7509},{"code":"45005","name":"Andonville","department":"45","center":{"lng":2.0233,"lat":48.274},"population":252},{"code":"45027","name":"Beauchamps-sur-Huillard","department":"45","center":{"lng":2.4656,"lat":47.9445},"population":402},{"code":"45049","name":"Bouzy-la-Forêt","department":"45","center":{"lng":2.3672,"lat":47.8706},"population":1231},{"code":"45104","name":"Corquilleroy","department":"45","center":{"lng":2.6943,"lat":48.0416},"population":2840},{"code":"45126","name":"Donnery","department":"45","center":{"lng":2.11,"lat":47.9144},"population":2833},{"code":"45148","name":"Fontenay-sur-Loing","department":"45","center":{"lng":2.769,"lat":48.0863},"population":1677},{"code":"45203","name":"Meung-sur-Loire","department":"45","center":{"lng":1.6918,"lat":47.8396},"population":6621},{"code":"45225","name":"La Neuville-sur-Essonne","department":"45","center":{"lng":2.3798,"lat":48.1805},"population":345},{"code":"45247","name":"Pannes","department":"45","center":{"lng":2.6708,"lat":48.0119},"population":3719},{"code":"45269","name":"Saint-Ay","department":"45","center":{"lng":1.7495,"lat":47.8663},"population":3691},{"code":"45302","name":"Saran","department":"45","center":{"lng":1.8806,"lat":47.9479},"population":16866},{"code":"45324","name":"Tigy","department":"45","center":{"lng":2.1812,"lat":47.7796},"population":2463},{"code":"45346","name":"Vitry-aux-Loges","department":"45","center":{"lng":2.2546,"lat":47.9328},"population":2212},{"code":"46017","name":"Bannes","department":"46","center":{"lng":1.9171,"lat":44.8138},"population":145},{"code":"46039","name":"Brengues","department":"46","center":{"lng":1.8296,"lat":44.58},"population":197},{"code":"46116","name":"Frontenac","department":"46","center":{"lng":1.9718,"lat":44.5434},"population":70},{"code":"46138","name":"Cœur de Causse","department":"46","center":{"lng":1.604,"lat":44.6441},"population":890},{"code":"46215","name":"Payrac","department":"46","center":{"lng":1.4648,"lat":44.792},"population":666},{"code":"46237","name":"Reyrevignes","department":"46","center":{"lng":1.9135,"lat":44.6468},"population":366},{"code":"46259","name":"Saint-Clair","department":"46","center":{"lng":1.3998,"lat":44.694},"population":141},{"code":"46314","name":"Terrou","department":"46","center":{"lng":1.9763,"lat":44.783},"population":175},{"code":"46336","name":"Vire-sur-Lot","department":"46","center":{"lng":1.0948,"lat":44.4902},"population":344},{"code":"47007","name":"Allons","department":"47","center":{"lng":-0.0722,"lat":44.2007},"population":167},{"code":"47029","name":"Blanquefort-sur-Briolance","department":"47","center":{"lng":0.963,"lat":44.6101},"population":517},{"code":"47106","name":"Fumel","department":"47","center":{"lng":0.9799,"lat":44.5122},"population":4696},{"code":"47128","name":"Lafox","department":"47","center":{"lng":0.6984,"lat":44.1654},"population":1079},{"code":"47205","name":"Pindères","department":"47","center":{"lng":0.0006,"lat":44.2723},"population":190},{"code":"47227","name":"Ruffiac","department":"47","center":{"lng":0.0392,"lat":44.3685},"population":180},{"code":"47249","name":"Saint-Laurent","department":"47","center":{"lng":0.4043,"lat":44.2372},"population":459},{"code":"47304","name":"Taillebourg","department":"47","center":{"lng":0.2053,"lat":44.4447},"population":65},{"code":"47326","name":"Virazeil","department":"47","center":{"lng":0.2391,"lat":44.5114},"population":1696},{"code":"48019","name":"Barre-des-Cévennes","department":"48","center":{"lng":3.6746,"lat":44.2551},"population":200},{"code":"49009","name":"Antoigné","department":"49","center":{"lng":-0.1382,"lat":47.0793},"population":450},{"code":"49306","name":"Saint-Martin-du-Fouilloux","department":"49","center":{"lng":-0.7115,"lat":47.4355},"population":1693},{"code":"49328","name":"Saumur","department":"49","center":{"lng":-0.0837,"lat":47.2645},"population":26074},{"code":"50032","name":"La Barre-de-Semilly","department":"50","center":{"lng":-1.0127,"lat":49.1053},"population":1033},{"code":"50054","name":"Biéville","department":"50","center":{"lng":-0.8897,"lat":49.0739},"population":196},{"code":"50076","name":"Bréhal","department":"50","center":{"lng":-1.5278,"lat":48.8979},"population":3480},{"code":"50098","name":"Carantilly","department":"50","center":{"lng":-1.2499,"lat":49.0659},"population":619},{"code":"50175","name":"Éroudeville","department":"50","center":{"lng":-1.395,"lat":49.4738},"population":180},{"code":"50197","name":"Gavray-sur-Sienne","department":"50","center":{"lng":-1.3244,"lat":48.8903},"population":2028},{"code":"50230","name":"Hardinvast","department":"50","center":{"lng":-1.6461,"lat":49.5777},"population":924},{"code":"50252","name":"Hudimesnil","department":"50","center":{"lng":-1.4652,"lat":48.8709},"population":926},{"code":"50274","name":"Les Loges-Marchis","department":"50","center":{"lng":-1.084,"lat":48.5372},"population":1028},{"code":"50296","name":"Maupertus-sur-Mer","department":"50","center":{"lng":-1.4842,"lat":49.6566},"population":229},{"code":"50351","name":"Montrabot","department":"50","center":{"lng":-0.9005,"lat":49.1096},"population":79},{"code":"50373","name":"Neuville-au-Plain","department":"50","center":{"lng":-1.334,"lat":49.4233},"population":84},{"code":"50395","name":"La Pernelle","department":"50","center":{"lng":-1.314,"lat":49.612},"population":287},{"code":"50450","name":"Saint-Barthélemy","department":"50","center":{"lng":-0.9495,"lat":48.6838},"population":338},{"code":"50472","name":"Saint-Georges-de-Livoye","department":"50","center":{"lng":-1.2211,"lat":48.7395},"population":205},{"code":"50571","name":"Sébeville","department":"50","center":{"lng":-1.2837,"lat":49.3871},"population":34},{"code":"50593","name":"Teurthéville-Bocage","department":"50","center":{"lng":-1.3959,"lat":49.5907},"population":594},{"code":"51022","name":"Aulnay-l'Aître","department":"51","center":{"lng":4.5674,"lat":48.8262},"population":176},{"code":"51044","name":"Beaumont-sur-Vesle","department":"51","center":{"lng":4.1826,"lat":49.175},"population":770},{"code":"51066","name":"Blaise-sous-Arzillières","department":"51","center":{"lng":4.5849,"lat":48.6715},"population":318},{"code":"51088","name":"Brimont","department":"51","center":{"lng":4.0337,"lat":49.3369},"population":453},{"code":"51121","name":"Champvoisy","department":"51","center":{"lng":3.6267,"lat":49.1274},"population":253},{"code":"51143","name":"Le Chemin","department":"51","center":{"lng":4.9782,"lat":48.9993},"population":62},{"code":"51165","name":"Connantre","department":"51","center":{"lng":3.9159,"lat":48.7391},"population":1006},{"code":"51187","name":"Courlandon","department":"51","center":{"lng":3.7332,"lat":49.3183},"population":302},{"code":"51220","name":"Drouilly","department":"51","center":{"lng":4.51,"lat":48.7699},"population":144},{"code":"51242","name":"Fagnières","department":"51","center":{"lng":4.3061,"lat":48.9478},"population":4886},{"code":"51264","name":"Le Gault-Soigny","department":"51","center":{"lng":3.6011,"lat":48.8093},"population":503},{"code":"51286","name":"Hauteville","department":"51","center":{"lng":4.7703,"lat":48.6357},"population":233},{"code":"51341","name":"Malmy","department":"51","center":{"lng":4.8111,"lat":49.1833},"population":37},{"code":"51363","name":"Merlaut","department":"51","center":{"lng":4.6592,"lat":48.7615},"population":271},{"code":"51440","name":"Pontfaverger-Moronvilliers","department":"51","center":{"lng":4.3181,"lat":49.2789},"population":1738},{"code":"51484","name":"Saint-Gilles","department":"51","center":{"lng":3.6785,"lat":49.2812},"population":274},{"code":"51583","name":"Trois-Fontaines-l'Abbaye","department":"51","center":{"lng":4.9421,"lat":48.7106},"population":195},{"code":"51660","name":"Warmeriville","department":"51","center":{"lng":4.2443,"lat":49.3513},"population":2689},{"code":"52012","name":"Annonville","department":"52","center":{"lng":5.2707,"lat":48.3865},"population":29},{"code":"52034","name":"Bailly-aux-Forges","department":"52","center":{"lng":4.9065,"lat":48.4553},"population":133},{"code":"52056","name":"Blessonville","department":"52","center":{"lng":5.0117,"lat":48.057},"population":176},{"code":"52133","name":"Clinchamp","department":"52","center":{"lng":5.4506,"lat":48.1939},"population":71},{"code":"52155","name":"Culmont","department":"52","center":{"lng":5.444,"lat":47.8274},"population":527},{"code":"52177","name":"Doulaincourt-Saucourt","department":"52","center":{"lng":5.2211,"lat":48.3073},"population":753},{"code":"52199","name":"Ferrière-et-Lafolie","department":"52","center":{"lng":5.07,"lat":48.398},"population":51},{"code":"52232","name":"Guindrecourt-sur-Blaise","department":"52","center":{"lng":4.9792,"lat":48.2984},"population":55},{"code":"52254","name":"Lachapelle-en-Blaisy","department":"52","center":{"lng":4.9627,"lat":48.207},"population":84},{"code":"52276","name":"Laville-aux-Bois","department":"52","center":{"lng":5.2366,"lat":48.0902},"population":238},{"code":"52298","name":"Maâtz","department":"52","center":{"lng":5.4357,"lat":47.7116},"population":71},{"code":"52331","name":"La Porte du Der","department":"52","center":{"lng":4.8076,"lat":48.4773},"population":2112},{"code":"52353","name":"Nogent","department":"52","center":{"lng":5.3635,"lat":48.0419},"population":3562},{"code":"52375","name":"Palaiseul","department":"52","center":{"lng":5.4168,"lat":47.7662},"population":51},{"code":"52397","name":"Poiseul","department":"52","center":{"lng":5.4906,"lat":47.9227},"population":71},{"code":"52452","name":"Saint-Martin-lès-Langres","department":"52","center":{"lng":5.2612,"lat":47.8967},"population":106},{"code":"52474","name":"Silvarouvres","department":"52","center":{"lng":4.7881,"lat":48.0608},"population":33},{"code":"53002","name":"Alexain","department":"53","center":{"lng":-0.7399,"lat":48.2327},"population":612},{"code":"53046","name":"Le Buret","department":"53","center":{"lng":-0.4991,"lat":47.92},"population":313},{"code":"53068","name":"Chérancé","department":"53","center":{"lng":-0.9265,"lat":47.8006},"population":155},{"code":"53101","name":"Fromentières","department":"53","center":{"lng":-0.6641,"lat":47.8711},"population":838},{"code":"53123","name":"Juvigné","department":"53","center":{"lng":-1.028,"lat":48.2342},"population":1332},{"code":"53145","name":"Marigné-Peuton","department":"53","center":{"lng":-0.801,"lat":47.8544},"population":543},{"code":"53189","name":"Rennes-en-Grenouilles","department":"53","center":{"lng":-0.5066,"lat":48.4885},"population":111},{"code":"53200","name":"Saint-Baudelle","department":"53","center":{"lng":-0.6514,"lat":48.2871},"population":1181},{"code":"53222","name":"Saint-Germain-d'Anxure","department":"53","center":{"lng":-0.7361,"lat":48.2232},"population":365},{"code":"53266","name":"Trans","department":"53","center":{"lng":-0.3111,"lat":48.2798},"population":227},{"code":"54014","name":"Ancerviller","department":"54","center":{"lng":6.8352,"lat":48.5328},"population":247},{"code":"54036","name":"Avril","department":"54","center":{"lng":5.9666,"lat":49.2924},"population":1223},{"code":"54058","name":"Béchamps","department":"54","center":{"lng":5.7415,"lat":49.2144},"population":82},{"code":"54113","name":"Champenoux","department":"54","center":{"lng":6.3541,"lat":48.7329},"population":1566},{"code":"54135","name":"Colombey-les-Belles","department":"54","center":{"lng":5.8997,"lat":48.5192},"population":1430},{"code":"54157","name":"Dieulouard","department":"54","center":{"lng":6.0568,"lat":48.8324},"population":4603},{"code":"54179","name":"Éply","department":"54","center":{"lng":6.1789,"lat":48.925},"population":297},{"code":"54212","name":"Fresnois-la-Montagne","department":"54","center":{"lng":5.6486,"lat":49.4991},"population":413},{"code":"54234","name":"Gorcy","department":"54","center":{"lng":5.6852,"lat":49.5351},"population":2968},{"code":"54256","name":"Haussonville","department":"54","center":{"lng":6.3182,"lat":48.5278},"population":318},{"code":"54278","name":"Jevoncourt","department":"54","center":{"lng":6.1634,"lat":48.4149},"population":101},{"code":"54311","name":"Lenoncourt","department":"54","center":{"lng":6.3002,"lat":48.6724},"population":592},{"code":"54333","name":"Mailly-sur-Seille","department":"54","center":{"lng":6.2512,"lat":48.918},"population":244},{"code":"54355","name":"Martincourt","department":"54","center":{"lng":5.9488,"lat":48.8483},"population":91},{"code":"54377","name":"Montigny","department":"54","center":{"lng":6.8014,"lat":48.5127},"population":151},{"code":"54399","name":"Neuviller-sur-Moselle","department":"54","center":{"lng":6.2798,"lat":48.4897},"population":251},{"code":"54410","name":"Onville","department":"54","center":{"lng":5.9654,"lat":49.0181},"population":509},{"code":"54432","name":"Pont-Saint-Vincent","department":"54","center":{"lng":6.0664,"lat":48.6084},"population":1784},{"code":"54476","name":"Saint-Jean-lès-Longuyon","department":"54","center":{"lng":5.4884,"lat":49.4547},"population":409},{"code":"54498","name":"Seichamps","department":"54","center":{"lng":6.2709,"lat":48.7159},"population":5155},{"code":"54531","name":"Tramont-Saint-André","department":"54","center":{"lng":5.9247,"lat":48.414},"population":62},{"code":"54553","name":"Vaudeville","department":"54","center":{"lng":6.2093,"lat":48.4557},"population":159},{"code":"54575","name":"Villers-la-Montagne","department":"54","center":{"lng":5.8294,"lat":49.4667},"population":1562},{"code":"54597","name":"Xirocourt","department":"54","center":{"lng":6.1813,"lat":48.4325},"population":452},{"code":"55004","name":"Aincreville","department":"55","center":{"lng":5.1147,"lat":49.3687},"population":81},{"code":"55026","name":"Badonvilliers-Gérauvilliers","department":"55","center":{"lng":5.5781,"lat":48.5434},"population":127},{"code":"55048","name":"Béthincourt","department":"55","center":{"lng":5.2201,"lat":49.2477},"population":47},{"code":"55103","name":"Charpentry","department":"55","center":{"lng":5.0413,"lat":49.2582},"population":23},{"code":"55125","name":"Contrisson","department":"55","center":{"lng":4.9572,"lat":48.8029},"population":773},{"code":"55169","name":"Écouviez","department":"55","center":{"lng":5.4533,"lat":49.5337},"population":534},{"code":"55202","name":"Futeau","department":"55","center":{"lng":5.0107,"lat":49.0764},"population":139},{"code":"55224","name":"Haironville","department":"55","center":{"lng":5.0912,"lat":48.6861},"population":567},{"code":"55246","name":"Hévilliers","department":"55","center":{"lng":5.3252,"lat":48.6024},"population":156},{"code":"55268","name":"Lacroix-sur-Meuse","department":"55","center":{"lng":5.53,"lat":48.9846},"population":649},{"code":"55301","name":"Longchamps-sur-Aire","department":"55","center":{"lng":5.3095,"lat":48.913},"population":120},{"code":"55323","name":"Martincourt-sur-Meuse","department":"55","center":{"lng":5.1788,"lat":49.5348},"population":68},{"code":"55345","name":"Mont-devant-Sassey","department":"55","center":{"lng":5.1637,"lat":49.4147},"population":99},{"code":"55367","name":"Muzeray","department":"55","center":{"lng":5.6228,"lat":49.3385},"population":132},{"code":"55389","name":"Nubécourt","department":"55","center":{"lng":5.1756,"lat":49.0062},"population":249},{"code":"55400","name":"Parfondrupt","department":"55","center":{"lng":5.7236,"lat":49.1491},"population":42},{"code":"55422","name":"Regnéville-sur-Meuse","department":"55","center":{"lng":5.3159,"lat":49.2541},"population":50},{"code":"55444","name":"Rouvrois-sur-Meuse","department":"55","center":{"lng":5.5252,"lat":48.9495},"population":195},{"code":"55466","name":"Salmagne","department":"55","center":{"lng":5.3314,"lat":48.7587},"population":284},{"code":"55488","name":"Silmont","department":"55","center":{"lng":5.2463,"lat":48.7358},"population":143},{"code":"55521","name":"Troyon","department":"55","center":{"lng":5.4928,"lat":48.999},"population":231},{"code":"55543","name":"Velaines","department":"55","center":{"lng":5.2997,"lat":48.696},"population":880},{"code":"55565","name":"Villers-sous-Pareid","department":"55","center":{"lng":5.7456,"lat":49.127},"population":74},{"code":"56115","name":"Locmaria-Grand-Champ","department":"56","center":{"lng":-2.7899,"lat":47.76},"population":1825},{"code":"56137","name":"Monterblanc","department":"56","center":{"lng":-2.7034,"lat":47.7345},"population":3342},{"code":"56159","name":"Pleucadeuc","department":"56","center":{"lng":-2.3918,"lat":47.7722},"population":1850},{"code":"56214","name":"Saint-Gildas-de-Rhuys","department":"56","center":{"lng":-2.835,"lat":47.5138},"population":1784},{"code":"56236","name":"Saint-Servant","department":"56","center":{"lng":-2.508,"lat":47.8968},"population":789},{"code":"56258","name":"La Trinité-sur-Mer","department":"56","center":{"lng":-3.0369,"lat":47.5877},"population":1837},{"code":"57006","name":"Achen","department":"57","center":{"lng":7.1833,"lat":49.0483},"population":970},{"code":"57028","name":"Argancy","department":"57","center":{"lng":6.2141,"lat":49.2003},"population":1334},{"code":"57105","name":"Boustroff","department":"57","center":{"lng":6.6299,"lat":49.0035},"population":152},{"code":"57127","name":"Chanville","department":"57","center":{"lng":6.4365,"lat":49.0413},"population":149},{"code":"57149","name":"Colmen","department":"57","center":{"lng":6.536,"lat":49.3518},"population":207},{"code":"57204","name":"Failly","department":"57","center":{"lng":6.2748,"lat":49.1604},"population":542},{"code":"57226","name":"Fontoy","department":"57","center":{"lng":5.996,"lat":49.3583},"population":3163},{"code":"57248","name":"Givrycourt","department":"57","center":{"lng":6.9161,"lat":48.9286},"population":92},{"code":"57303","name":"Hauconcourt","department":"57","center":{"lng":6.1844,"lat":49.2094},"population":589},{"code":"57325","name":"Hilsprich","department":"57","center":{"lng":6.9094,"lat":49.0054},"population":840},{"code":"57347","name":"Insviller","department":"57","center":{"lng":6.9157,"lat":48.8904},"population":171},{"code":"57402","name":"Liederschiedt","department":"57","center":{"lng":7.4976,"lat":49.1206},"population":117},{"code":"57424","name":"Lucy","department":"57","center":{"lng":6.4781,"lat":48.9412},"population":228},{"code":"57446","name":"Marimont-lès-Bénestroff","department":"57","center":{"lng":6.7884,"lat":48.8872},"population":53},{"code":"57468","name":"Mittelbronn","department":"57","center":{"lng":7.226,"lat":48.7648},"population":642},{"code":"57501","name":"Neufvillage","department":"57","center":{"lng":6.7801,"lat":48.9343},"population":48},{"code":"57545","name":"Plappeville","department":"57","center":{"lng":6.1236,"lat":49.1311},"population":2025},{"code":"57567","name":"Rémelfang","department":"57","center":{"lng":6.5125,"lat":49.2692},"population":144},{"code":"57589","name":"Rohrbach-lès-Bitche","department":"57","center":{"lng":7.2721,"lat":49.0382},"population":2290},{"code":"57600","name":"Roussy-le-Village","department":"57","center":{"lng":6.1778,"lat":49.4606},"population":1559},{"code":"57622","name":"Saint-Privat-la-Montagne","department":"57","center":{"lng":6.0393,"lat":49.1853},"population":1873},{"code":"57644","name":"Seingbouse","department":"57","center":{"lng":6.8319,"lat":49.1078},"population":1695},{"code":"57666","name":"Terville","department":"57","center":{"lng":6.1334,"lat":49.3454},"population":7609},{"code":"57721","name":"Vilsberg","department":"57","center":{"lng":7.2632,"lat":48.7893},"population":347},{"code":"57743","name":"Waltembourg","department":"57","center":{"lng":7.1958,"lat":48.7488},"population":232},{"code":"57765","name":"Diesen","department":"57","center":{"lng":6.6925,"lat":49.1715},"population":1029},{"code":"58018","name":"Authiou","department":"58","center":{"lng":3.4145,"lat":47.2676},"population":40},{"code":"58117","name":"Fourchambault","department":"58","center":{"lng":3.0932,"lat":47.0159},"population":4019},{"code":"58139","name":"Lanty","department":"58","center":{"lng":3.8288,"lat":46.8085},"population":122},{"code":"58216","name":"Pouques-Lormes","department":"58","center":{"lng":3.7742,"lat":47.3259},"population":142},{"code":"58238","name":"Saint-Éloi","department":"58","center":{"lng":3.227,"lat":46.9865},"population":2220},{"code":"59008","name":"Aniche","department":"59","center":{"lng":3.2583,"lat":50.3301},"population":10001},{"code":"59107","name":"Bray-Dunes","department":"59","center":{"lng":2.5267,"lat":51.0747},"population":4284},{"code":"59129","name":"Cappelle-en-Pévèle","department":"59","center":{"lng":3.1722,"lat":50.5028},"population":2259},{"code":"59206","name":"Escaudœuvres","department":"59","center":{"lng":3.2712,"lat":50.1937},"population":3180},{"code":"59228","name":"Férin","department":"59","center":{"lng":3.0827,"lat":50.33},"population":1441},{"code":"59305","name":"Herzeele","department":"59","center":{"lng":2.5311,"lat":50.8766},"population":1627},{"code":"59327","name":"Lallaing","department":"59","center":{"lng":3.1719,"lat":50.3868},"population":6212},{"code":"59349","name":"Ligny-en-Cambrésis","department":"59","center":{"lng":3.377,"lat":50.1011},"population":1874},{"code":"59426","name":"Neuville-en-Ferrain","department":"59","center":{"lng":3.1614,"lat":50.7559},"population":10125},{"code":"59448","name":"Oost-Cappel","department":"59","center":{"lng":2.591,"lat":50.9282},"population":468},{"code":"59503","name":"Robersart","department":"59","center":{"lng":3.6463,"lat":50.1573},"population":208},{"code":"59525","name":"Sains-du-Nord","department":"59","center":{"lng":4.0362,"lat":50.086},"population":2766},{"code":"59547","name":"Saint-Vaast-en-Cambrésis","department":"59","center":{"lng":3.4286,"lat":50.1948},"population":855},{"code":"59569","name":"Sin-le-Noble","department":"59","center":{"lng":3.1213,"lat":50.3672},"population":15916},{"code":"59602","name":"Tressin","department":"59","center":{"lng":3.1897,"lat":50.6196},"population":1390},{"code":"59624","name":"Villers-Outréaux","department":"59","center":{"lng":3.291,"lat":50.0304},"population":2137},{"code":"59646","name":"Wasquehal","department":"59","center":{"lng":3.1296,"lat":50.6726},"population":20674},{"code":"59668","name":"Zuydcoote","department":"59","center":{"lng":2.4881,"lat":51.0629},"population":1608},{"code":"60031","name":"Autheuil-en-Valois","department":"60","center":{"lng":3.0615,"lat":49.1781},"population":259},{"code":"60053","name":"Beaulieu-les-Fontaines","department":"60","center":{"lng":2.913,"lat":49.6674},"population":571},{"code":"60075","name":"Blancfossé","department":"60","center":{"lng":2.1915,"lat":49.6621},"population":143},{"code":"60097","name":"Boutencourt","department":"60","center":{"lng":1.8753,"lat":49.3189},"population":215},{"code":"60130","name":"Catenoy","department":"60","center":{"lng":2.5157,"lat":49.3824},"population":1080},{"code":"60152","name":"Choisy-la-Victoire","department":"60","center":{"lng":2.5985,"lat":49.3774},"population":245},{"code":"60174","name":"Crapeaumesnil","department":"60","center":{"lng":2.8167,"lat":49.6397},"population":220},{"code":"60196","name":"La Drenne","department":"60","center":{"lng":2.0989,"lat":49.303},"population":1086},{"code":"60251","name":"Fouquerolles","department":"60","center":{"lng":2.2105,"lat":49.4583},"population":297},{"code":"60273","name":"Giraumont","department":"60","center":{"lng":2.8237,"lat":49.4741},"population":524},{"code":"60295","name":"Halloy","department":"60","center":{"lng":1.9361,"lat":49.6499},"population":439},{"code":"60350","name":"Lassigny","department":"60","center":{"lng":2.8423,"lat":49.5997},"population":1436},{"code":"60372","name":"Luchy","department":"60","center":{"lng":2.1166,"lat":49.5511},"population":670},{"code":"60394","name":"Ménévillers","department":"60","center":{"lng":2.6042,"lat":49.5224},"population":103},{"code":"60471","name":"Noyon","department":"60","center":{"lng":3.0074,"lat":49.578},"population":12810},{"code":"60493","name":"Pisseleu","department":"60","center":{"lng":2.0578,"lat":49.537},"population":518},{"code":"60570","name":"Saint-Crépin-Ibouvillers","department":"60","center":{"lng":2.0603,"lat":49.2682},"population":1629},{"code":"60592","name":"Saint-Pierre-es-Champs","department":"60","center":{"lng":1.747,"lat":49.4262},"population":679},{"code":"60691","name":"Villers-Vermont","department":"60","center":{"lng":1.7222,"lat":49.5731},"population":121},{"code":"61021","name":"Avrilly","department":"61","center":{"lng":-0.6177,"lat":48.5367},"population":94},{"code":"61043","name":"Berd'huis","department":"61","center":{"lng":0.7411,"lat":48.3517},"population":1094},{"code":"61087","name":"Champeaux-sur-Sarthe","department":"61","center":{"lng":0.4458,"lat":48.5743},"population":160},{"code":"61120","name":"Coudehard","department":"61","center":{"lng":0.1399,"lat":48.848},"population":78},{"code":"61142","name":"Dame-Marie","department":"61","center":{"lng":0.6179,"lat":48.3582},"population":156},{"code":"61164","name":"La Ferrière-Béchet","department":"61","center":{"lng":0.0736,"lat":48.573},"population":250},{"code":"61241","name":"La Madeleine-Bouvet","department":"61","center":{"lng":0.8952,"lat":48.4712},"population":416},{"code":"61263","name":"Ménil-Erreux","department":"61","center":{"lng":0.1844,"lat":48.5043},"population":195},{"code":"61362","name":"Saint-André-de-Messei","department":"61","center":{"lng":-0.5275,"lat":48.6882},"population":522},{"code":"61384","name":"Saint-Ellier-les-Bois","department":"61","center":{"lng":-0.1008,"lat":48.5263},"population":257},{"code":"61461","name":"Le Sap-André","department":"61","center":{"lng":0.3893,"lat":48.8309},"population":125},{"code":"61483","name":"Bagnoles de l'Orne Normandie","department":"61","center":{"lng":-0.4174,"lat":48.5696},"population":2698},{"code":"62011","name":"Agnez-lès-Duisans","department":"62","center":{"lng":2.6461,"lat":50.307},"population":635},{"code":"62033","name":"Annay","department":"62","center":{"lng":2.8849,"lat":50.4606},"population":4544},{"code":"62055","name":"Audrehem","department":"62","center":{"lng":1.983,"lat":50.7713},"population":522},{"code":"62077","name":"Bajus","department":"62","center":{"lng":2.4714,"lat":50.4218},"population":358},{"code":"62099","name":"Beaurains","department":"62","center":{"lng":2.7907,"lat":50.2595},"population":5530},{"code":"62132","name":"Billy-Berclau","department":"62","center":{"lng":2.8666,"lat":50.5218},"population":5076},{"code":"62154","name":"Bonnières","department":"62","center":{"lng":2.2774,"lat":50.2372},"population":667},{"code":"62176","name":"Bréxent-Énocq","department":"62","center":{"lng":1.7235,"lat":50.5066},"population":639},{"code":"62198","name":"Cambligneul","department":"62","center":{"lng":2.6108,"lat":50.3788},"population":347},{"code":"62231","name":"Colline-Beaumont","department":"62","center":{"lng":1.6725,"lat":50.3426},"population":129},{"code":"62253","name":"Couturelle","department":"62","center":{"lng":2.5,"lat":50.2069},"population":76},{"code":"62275","name":"Douriez","department":"62","center":{"lng":1.8806,"lat":50.3372},"population":291},{"code":"62297","name":"Éperlecques","department":"62","center":{"lng":2.1583,"lat":50.8109},"population":3740},{"code":"62330","name":"Festubert","department":"62","center":{"lng":2.7385,"lat":50.5416},"population":1253},{"code":"62352","name":"Framecourt","department":"62","center":{"lng":2.3051,"lat":50.3237},"population":115},{"code":"62374","name":"Gomiécourt","department":"62","center":{"lng":2.8013,"lat":50.1494},"population":152},{"code":"62396","name":"Guinecourt","department":"62","center":{"lng":2.2274,"lat":50.3477},"population":14},{"code":"62451","name":"Heuchin","department":"62","center":{"lng":2.2761,"lat":50.4807},"population":485},{"code":"62473","name":"Isbergues","department":"62","center":{"lng":2.4561,"lat":50.6147},"population":8653},{"code":"62495","name":"Ledinghem","department":"62","center":{"lng":1.9723,"lat":50.6459},"population":317},{"code":"62550","name":"Marconnelle","department":"62","center":{"lng":2.0059,"lat":50.3691},"population":1076},{"code":"62572","name":"Metz-en-Couture","department":"62","center":{"lng":3.0629,"lat":50.0607},"population":606},{"code":"62594","name":"Mory","department":"62","center":{"lng":2.8578,"lat":50.1562},"population":302},{"code":"62671","name":"Pronville-en-Artois","department":"62","center":{"lng":3.0079,"lat":50.1667},"population":308},{"code":"62693","name":"Rebreuve-Ranchicourt","department":"62","center":{"lng":2.5526,"lat":50.4325},"population":1071},{"code":"62770","name":"Saint-Venant","department":"62","center":{"lng":2.5183,"lat":50.6237},"population":3002},{"code":"62792","name":"Serques","department":"62","center":{"lng":2.199,"lat":50.7895},"population":1178},{"code":"62891","name":"Willencourt","department":"62","center":{"lng":2.0818,"lat":50.24},"population":138},{"code":"63001","name":"Aigueperse","department":"63","center":{"lng":3.2024,"lat":46.0145},"population":2700},{"code":"63023","name":"Auzelles","department":"63","center":{"lng":3.5282,"lat":45.6136},"population":388},{"code":"63045","name":"Bort-l'Étang","department":"63","center":{"lng":3.4399,"lat":45.7832},"population":724},{"code":"63067","name":"La Cellette","department":"63","center":{"lng":2.7268,"lat":46.0948},"population":167},{"code":"63089","name":"Chappes","department":"63","center":{"lng":3.225,"lat":45.8662},"population":1609},{"code":"63100","name":"Châteauneuf-les-Bains","department":"63","center":{"lng":2.8809,"lat":46.0231},"population":311},{"code":"63122","name":"Courgoul","department":"63","center":{"lng":3.0443,"lat":45.5121},"population":61},{"code":"63144","name":"Égliseneuve-d'Entraigues","department":"63","center":{"lng":2.8196,"lat":45.4264},"population":328},{"code":"63166","name":"Gignat","department":"63","center":{"lng":3.2169,"lat":45.4845},"population":254},{"code":"63188","name":"Laps","department":"63","center":{"lng":3.2683,"lat":45.6701},"population":597},{"code":"63221","name":"Medeyrolles","department":"63","center":{"lng":3.8184,"lat":45.4088},"population":116},{"code":"63243","name":"Moureuille","department":"63","center":{"lng":2.8896,"lat":46.1615},"population":376},{"code":"63265","name":"Orléat","department":"63","center":{"lng":3.4378,"lat":45.8607},"population":2236},{"code":"63287","name":"Les Pradeaux","department":"63","center":{"lng":3.2928,"lat":45.5128},"population":355},{"code":"63320","name":"Saint-Avit","department":"63","center":{"lng":2.5255,"lat":45.879},"population":205},{"code":"63342","name":"Saint-Floret","department":"63","center":{"lng":3.0938,"lat":45.5379},"population":246},{"code":"63364","name":"Saint-Jean-d'Heurs","department":"63","center":{"lng":3.444,"lat":45.8137},"population":698},{"code":"63386","name":"Saint-Pierre-Roche","department":"63","center":{"lng":2.8153,"lat":45.7305},"population":500},{"code":"63441","name":"Valcivières","department":"63","center":{"lng":3.8164,"lat":45.5936},"population":229},{"code":"63463","name":"Viscomtat","department":"63","center":{"lng":3.6851,"lat":45.8317},"population":503},{"code":"64013","name":"Ainhice-Mongelos","department":"64","center":{"lng":-1.1579,"lat":43.2136},"population":167},{"code":"64035","name":"Arbonne","department":"64","center":{"lng":-1.5536,"lat":43.4201},"population":2364},{"code":"64057","name":"Arthez-de-Béarn","department":"64","center":{"lng":-0.6242,"lat":43.4693},"population":1829},{"code":"64079","name":"Aurions-Idernes","department":"64","center":{"lng":-0.1263,"lat":43.5316},"population":108},{"code":"64112","name":"Bérenx","department":"64","center":{"lng":-0.8686,"lat":43.4921},"population":423},{"code":"64134","name":"Bonloc","department":"64","center":{"lng":-1.2676,"lat":43.368},"population":371},{"code":"64156","name":"Buziet","department":"64","center":{"lng":-0.4785,"lat":43.1444},"population":477},{"code":"64178","name":"Castetnau-Camblong","department":"64","center":{"lng":-0.7976,"lat":43.3242},"population":456},{"code":"64211","name":"Eslourenties-Daban","department":"64","center":{"lng":-0.1425,"lat":43.301},"population":376},{"code":"64233","name":"Garlin","department":"64","center":{"lng":-0.2739,"lat":43.5578},"population":1331},{"code":"64255","name":"Halsou","department":"64","center":{"lng":-1.4089,"lat":43.3842},"population":605},{"code":"64277","name":"Isturits","department":"64","center":{"lng":-1.2021,"lat":43.3698},"population":533},{"code":"64299","name":"Lacommande","department":"64","center":{"lng":-0.5096,"lat":43.276},"population":175},{"code":"64310","name":"Lanne-en-Barétous","department":"64","center":{"lng":-0.7861,"lat":43.0785},"population":479},{"code":"64332","name":"Lème","department":"64","center":{"lng":-0.3599,"lat":43.4961},"population":168},{"code":"64354","name":"Louvie-Soubiron","department":"64","center":{"lng":-0.3383,"lat":43.0152},"population":130},{"code":"64376","name":"Meillon","department":"64","center":{"lng":-0.3087,"lat":43.2687},"population":948},{"code":"64398","name":"Montaner","department":"64","center":{"lng":-0.0178,"lat":43.346},"population":416},{"code":"64431","name":"Os-Marsillon","department":"64","center":{"lng":-0.6138,"lat":43.3872},"population":548},{"code":"64453","name":"Pontacq","department":"64","center":{"lng":-0.1103,"lat":43.2048},"population":2916},{"code":"64475","name":"Sainte-Engrâce","department":"64","center":{"lng":-0.8264,"lat":42.9988},"population":172},{"code":"64530","name":"Susmiou","department":"64","center":{"lng":-0.7799,"lat":43.3103},"population":351},{"code":"64552","name":"Vialer","department":"64","center":{"lng":-0.1793,"lat":43.5101},"population":146},{"code":"65003","name":"Adervielle-Pouchergues","department":"65","center":{"lng":0.3894,"lat":42.7973},"population":147},{"code":"65025","name":"Argelès-Gazost","department":"65","center":{"lng":-0.0966,"lat":43.0071},"population":2805},{"code":"65047","name":"Aureilhan","department":"65","center":{"lng":0.1065,"lat":43.2488},"population":8033},{"code":"65069","name":"La Barthe-de-Neste","department":"65","center":{"lng":0.3815,"lat":43.0809},"population":1245},{"code":"65102","name":"Bouilh-Devant","department":"65","center":{"lng":0.2614,"lat":43.3352},"population":22},{"code":"65124","name":"Camparan","department":"65","center":{"lng":0.3568,"lat":42.8306},"population":51},{"code":"65146","name":"Chis","department":"65","center":{"lng":0.114,"lat":43.2972},"population":302},{"code":"65168","name":"Esquièze-Sère","department":"65","center":{"lng":-0.0069,"lat":42.8806},"population":417},{"code":"65201","name":"Geu","department":"65","center":{"lng":-0.0508,"lat":43.0398},"population":184},{"code":"65223","name":"Horgues","department":"65","center":{"lng":0.0809,"lat":43.188},"population":1201},{"code":"65245","name":"Lagrange","department":"65","center":{"lng":0.3482,"lat":43.1272},"population":255},{"code":"65267","name":"Lau-Balagnas","department":"65","center":{"lng":-0.0918,"lat":42.9918},"population":508},{"code":"65289","name":"Luby-Betmont","department":"65","center":{"lng":0.2947,"lat":43.2951},"population":105},{"code":"65300","name":"Marsas","department":"65","center":{"lng":0.2215,"lat":43.053},"population":65},{"code":"65322","name":"Montoussé","department":"65","center":{"lng":0.4089,"lat":43.0605},"population":248},{"code":"65344","name":"Ossun","department":"65","center":{"lng":-0.0373,"lat":43.1827},"population":2352},{"code":"65366","name":"Poueyferré","department":"65","center":{"lng":-0.0814,"lat":43.1198},"population":830},{"code":"65388","name":"Saint-Lary-Soulan","department":"65","center":{"lng":0.266,"lat":42.7483},"population":837},{"code":"65421","name":"Sère-Lanso","department":"65","center":{"lng":0.0162,"lat":43.068},"population":41},{"code":"65443","name":"Thuy","department":"65","center":{"lng":0.2409,"lat":43.2567},"population":18},{"code":"65465","name":"Vielle-Aure","department":"65","center":{"lng":0.2292,"lat":42.8497},"population":304},{"code":"66015","name":"Banyuls-dels-Aspres","department":"66","center":{"lng":2.8649,"lat":42.5653},"population":1397},{"code":"66037","name":"Canet-en-Roussillon","department":"66","center":{"lng":3.002,"lat":42.6809},"population":13005},{"code":"66059","name":"Corneilla-del-Vercol","department":"66","center":{"lng":2.9512,"lat":42.6228},"population":2679},{"code":"66114","name":"Montescot","department":"66","center":{"lng":2.9188,"lat":42.6158},"population":1595},{"code":"66136","name":"Perpignan","department":"66","center":{"lng":2.9045,"lat":42.699},"population":120996},{"code":"66158","name":"Rasiguères","department":"66","center":{"lng":2.5979,"lat":42.7732},"population":166},{"code":"66213","name":"Toulouges","department":"66","center":{"lng":2.8234,"lat":42.6723},"population":7375},{"code":"67005","name":"Alteckendorf","department":"67","center":{"lng":7.5951,"lat":48.7936},"population":858},{"code":"67027","name":"Belmont","department":"67","center":{"lng":7.2592,"lat":48.4093},"population":174},{"code":"67049","name":"Blaesheim","department":"67","center":{"lng":7.6084,"lat":48.5015},"population":1408},{"code":"67104","name":"Drachenbronn-Birlenbach","department":"67","center":{"lng":7.8804,"lat":48.9812},"population":586},{"code":"67126","name":"Erckartswiller","department":"67","center":{"lng":7.3581,"lat":48.8866},"population":289},{"code":"67148","name":"Frohmuhl","department":"67","center":{"lng":7.278,"lat":48.9118},"population":157},{"code":"67203","name":"Hochstett","department":"67","center":{"lng":7.6772,"lat":48.7751},"population":421},{"code":"67225","name":"Issenhausen","department":"67","center":{"lng":7.5324,"lat":48.8054},"population":108},{"code":"67247","name":"Kolbsheim","department":"67","center":{"lng":7.5857,"lat":48.5626},"population":997},{"code":"67269","name":"Littenheim","department":"67","center":{"lng":7.4926,"lat":48.7262},"population":298},{"code":"67302","name":"Monswiller","department":"67","center":{"lng":7.3855,"lat":48.7524},"population":1994},{"code":"67324","name":"Niederbronn-les-Bains","department":"67","center":{"lng":7.6398,"lat":48.9544},"population":4372},{"code":"67346","name":"Oberlauterbach","department":"67","center":{"lng":8.0654,"lat":48.9452},"population":549},{"code":"67368","name":"Ottrott","department":"67","center":{"lng":7.3643,"lat":48.4452},"population":1594},{"code":"67401","name":"Rimsdorf","department":"67","center":{"lng":7.1117,"lat":48.9284},"population":294},{"code":"67423","name":"Saessolsheim","department":"67","center":{"lng":7.5121,"lat":48.7103},"population":602},{"code":"67445","name":"Scherwiller","department":"67","center":{"lng":7.415,"lat":48.2927},"population":3121},{"code":"67467","name":"Siewiller","department":"67","center":{"lng":7.2097,"lat":48.8383},"population":381},{"code":"67489","name":"Thal-Marmoutier","department":"67","center":{"lng":7.3411,"lat":48.6957},"population":831},{"code":"67500","name":"Urmatt","department":"67","center":{"lng":7.2986,"lat":48.5409},"population":1476},{"code":"67522","name":"Weislingen","department":"67","center":{"lng":7.257,"lat":48.9178},"population":545},{"code":"67544","name":"Wissembourg","department":"67","center":{"lng":7.9629,"lat":49.0184},"population":7541},{"code":"68017","name":"Ballersdorf","department":"68","center":{"lng":7.1576,"lat":47.6195},"population":815},{"code":"68039","name":"Bisel","department":"68","center":{"lng":7.2224,"lat":47.5381},"population":542},{"code":"68116","name":"Gundolsheim","department":"68","center":{"lng":7.3002,"lat":47.9295},"population":728},{"code":"68138","name":"Hirsingue","department":"68","center":{"lng":7.2473,"lat":47.5846},"population":2131},{"code":"68215","name":"Montreux-Vieux","department":"68","center":{"lng":7.0242,"lat":47.62},"population":924},{"code":"68237","name":"Niedermorschwihr","department":"68","center":{"lng":7.2582,"lat":48.1015},"population":561},{"code":"68259","name":"Raedersdorf","department":"68","center":{"lng":7.3525,"lat":47.4736},"population":481},{"code":"68336","name":"Traubach-le-Bas","department":"68","center":{"lng":7.0892,"lat":47.6568},"population":464},{"code":"68358","name":"Wasserbourg","department":"68","center":{"lng":7.1558,"lat":47.9963},"population":467},{"code":"69007","name":"Ampuis","department":"69","center":{"lng":4.8079,"lat":45.5034},"population":2760},{"code":"69029","name":"Bron","department":"69","center":{"lng":4.9116,"lat":45.7355},"population":42850},{"code":"69106","name":"Lachassagne","department":"69","center":{"lng":4.6779,"lat":45.9264},"population":1334},{"code":"69205","name":"Saint-Genis-les-Ollières","department":"69","center":{"lng":4.7248,"lat":45.7614},"population":5370},{"code":"69227","name":"Saint-Martin-en-Haut","department":"69","center":{"lng":4.5561,"lat":45.6583},"population":3917},{"code":"69249","name":"Thurins","department":"69","center":{"lng":4.6252,"lat":45.6809},"population":3268},{"code":"70030","name":"Arsans","department":"70","center":{"lng":5.6312,"lat":47.3672},"population":44},{"code":"70052","name":"Bassigney","department":"70","center":{"lng":6.1847,"lat":47.8236},"population":121},{"code":"70074","name":"Blondefontaine","department":"70","center":{"lng":5.8741,"lat":47.8815},"population":233},{"code":"70096","name":"Brevilliers","department":"70","center":{"lng":6.7997,"lat":47.5794},"population":628},{"code":"70151","name":"Chevigney","department":"70","center":{"lng":5.5854,"lat":47.33},"population":37},{"code":"70195","name":"Dambenoît-lès-Colombe","department":"70","center":{"lng":6.3828,"lat":47.7232},"population":273},{"code":"70250","name":"Franchevelle","department":"70","center":{"lng":6.4606,"lat":47.7433},"population":486},{"code":"70272","name":"Gourgeon","department":"70","center":{"lng":5.8483,"lat":47.7192},"population":178},{"code":"70294","name":"Lantenot","department":"70","center":{"lng":6.5021,"lat":47.7546},"population":362},{"code":"70371","name":"Montureux-et-Prantigny","department":"70","center":{"lng":5.6336,"lat":47.5046},"population":191},{"code":"70393","name":"Oiselay-et-Grachaux","department":"70","center":{"lng":5.9256,"lat":47.4293},"population":433},{"code":"70470","name":"Sainte-Marie-en-Chaux","department":"70","center":{"lng":6.3005,"lat":47.798},"population":161},{"code":"70492","name":"Soing-Cubry-Charentenay","department":"70","center":{"lng":5.8833,"lat":47.5872},"population":565},{"code":"71020","name":"Barnay","department":"71","center":{"lng":4.3207,"lat":47.0821},"population":99},{"code":"71042","name":"Bonnay-Saint-Ythaire","department":"71","center":{"lng":4.6174,"lat":46.559},"population":443},{"code":"71064","name":"Bruailles","department":"71","center":{"lng":5.2533,"lat":46.5933},"population":973},{"code":"71086","name":"Changy","department":"71","center":{"lng":4.252,"lat":46.4165},"population":441},{"code":"71141","name":"Colombier-en-Brionnais","department":"71","center":{"lng":4.3314,"lat":46.3494},"population":314},{"code":"71163","name":"Curtil-sous-Buffières","department":"71","center":{"lng":4.526,"lat":46.4025},"population":93},{"code":"71185","name":"Dyo","department":"71","center":{"lng":4.2836,"lat":46.3639},"population":325},{"code":"71240","name":"Jalogny","department":"71","center":{"lng":4.6349,"lat":46.4143},"population":398},{"code":"71262","name":"Longepierre","department":"71","center":{"lng":5.1994,"lat":46.9309},"population":161},{"code":"71284","name":"Martailly-lès-Brancion","department":"71","center":{"lng":4.7907,"lat":46.5336},"population":124},{"code":"71361","name":"Prizy","department":"71","center":{"lng":4.2163,"lat":46.3526},"population":56},{"code":"71383","name":"Saint-Albain","department":"71","center":{"lng":4.8645,"lat":46.4251},"population":548},{"code":"71460","name":"Saint-Maurice-de-Satonnay","department":"71","center":{"lng":4.7817,"lat":46.4058},"population":484},{"code":"71482","name":"Saint-Symphorien-de-Marmagne","department":"71","center":{"lng":4.3196,"lat":46.8262},"population":832},{"code":"71581","name":"Vindecy","department":"71","center":{"lng":4.0095,"lat":46.3562},"population":246},{"code":"72010","name":"Asnières-sur-Vègre","department":"72","center":{"lng":-0.2247,"lat":47.889},"population":337},{"code":"72032","name":"Berfay","department":"72","center":{"lng":0.7473,"lat":48.0015},"population":334},{"code":"72054","name":"Champagné","department":"72","center":{"lng":0.3363,"lat":48.0157},"population":3680},{"code":"72076","name":"Chenay","department":"72","center":{"lng":0.1621,"lat":48.4466},"population":259},{"code":"72098","name":"Coulongé","department":"72","center":{"lng":0.1949,"lat":47.693},"population":512},{"code":"72131","name":"Fercé-sur-Sarthe","department":"72","center":{"lng":-0.0329,"lat":47.8968},"population":577},{"code":"72153","name":"Jupilles","department":"72","center":{"lng":0.4083,"lat":47.7939},"population":552},{"code":"72175","name":"Luché-Pringé","department":"72","center":{"lng":0.1019,"lat":47.7053},"population":1524},{"code":"72197","name":"Mézières-sous-Lavardin","department":"72","center":{"lng":0.0424,"lat":48.157},"population":679},{"code":"72230","name":"Parigné-le-Pôlin","department":"72","center":{"lng":0.1226,"lat":47.8557},"population":1038},{"code":"72252","name":"Requeil","department":"72","center":{"lng":0.1626,"lat":47.7866},"population":1108},{"code":"72274","name":"Saint-Christophe-en-Champagne","department":"72","center":{"lng":-0.1373,"lat":47.9624},"population":214},{"code":"72296","name":"Saint-Maixent","department":"72","center":{"lng":0.6462,"lat":48.1079},"population":741},{"code":"72351","name":"Tennie","department":"72","center":{"lng":-0.0987,"lat":48.1121},"population":1017},{"code":"72373","name":"Vibraye","department":"72","center":{"lng":0.7412,"lat":48.0489},"population":2508},{"code":"73022","name":"Attignat-Oncin","department":"73","center":{"lng":5.7825,"lat":45.5151},"population":572},{"code":"73088","name":"Cohennoz","department":"73","center":{"lng":6.4943,"lat":45.7631},"population":140},{"code":"73121","name":"Frontenex","department":"73","center":{"lng":6.3117,"lat":45.6327},"population":1917},{"code":"73187","name":"La Léchère","department":"73","center":{"lng":6.4666,"lat":45.5261},"population":2536},{"code":"73220","name":"Saint-Alban-d'Hurtières","department":"73","center":{"lng":6.2524,"lat":45.4624},"population":387},{"code":"73242","name":"Saint-Jean-d'Arves","department":"73","center":{"lng":6.2609,"lat":45.1709},"population":271},{"code":"73286","name":"Serrières-en-Chautagne","department":"73","center":{"lng":5.842,"lat":45.8809},"population":1161},{"code":"74012","name":"Annemasse","department":"74","center":{"lng":6.2476,"lat":46.189},"population":37595},{"code":"74034","name":"Le Biot","department":"74","center":{"lng":6.6408,"lat":46.2743},"population":636},{"code":"74056","name":"Chamonix-Mont-Blanc","department":"74","center":{"lng":6.9291,"lat":45.9296},"population":8673},{"code":"74078","name":"Clermont","department":"74","center":{"lng":5.9084,"lat":45.9726},"population":449},{"code":"74111","name":"Entrevernes","department":"74","center":{"lng":6.1809,"lat":45.7753},"population":197},{"code":"74133","name":"Gaillard","department":"74","center":{"lng":6.2051,"lat":46.1841},"population":11054},{"code":"74155","name":"Lullin","department":"74","center":{"lng":6.5107,"lat":46.2765},"population":799},{"code":"74177","name":"Menthonnex-en-Bornes","department":"74","center":{"lng":6.1803,"lat":46.0588},"population":1109},{"code":"74199","name":"Nernier","department":"74","center":{"lng":6.3049,"lat":46.3608},"population":424},{"code":"74210","name":"Perrignier","department":"74","center":{"lng":6.4364,"lat":46.3066},"population":1882},{"code":"74232","name":"Saint-Eustache","department":"74","center":{"lng":6.1439,"lat":45.7952},"population":486},{"code":"74254","name":"Saint-Sylvestre","department":"74","center":{"lng":6.0105,"lat":45.8419},"population":598},{"code":"74276","name":"Taninges","department":"74","center":{"lng":6.6137,"lat":46.1341},"population":3501},{"code":"74298","name":"Vétraz-Monthoux","department":"74","center":{"lng":6.2597,"lat":46.1818},"population":10412},{"code":"76014","name":"Angerville-l'Orcher","department":"76","center":{"lng":0.2951,"lat":49.5847},"population":1398},{"code":"76036","name":"Auppegard","department":"76","center":{"lng":1.0279,"lat":49.8323},"population":688},{"code":"76058","name":"Baromesnil","department":"76","center":{"lng":1.411,"lat":49.9846},"population":212},{"code":"76113","name":"Boissay","department":"76","center":{"lng":1.3602,"lat":49.5191},"population":426},{"code":"76135","name":"Bouville","department":"76","center":{"lng":0.8943,"lat":49.5599},"population":1029},{"code":"76157","name":"Canteleu","department":"76","center":{"lng":1.0173,"lat":49.4323},"population":14420},{"code":"76179","name":"Clères","department":"76","center":{"lng":1.1007,"lat":49.5902},"population":1380},{"code":"76212","name":"Darnétal","department":"76","center":{"lng":1.1534,"lat":49.4468},"population":9652},{"code":"76234","name":"Émanville","department":"76","center":{"lng":0.9583,"lat":49.6218},"population":768},{"code":"76278","name":"Foucarmont","department":"76","center":{"lng":1.5595,"lat":49.8474},"population":804},{"code":"76311","name":"Goupillières","department":"76","center":{"lng":0.9839,"lat":49.5836},"population":434},{"code":"76333","name":"Guerville","department":"76","center":{"lng":1.5237,"lat":49.9479},"population":470},{"code":"76355","name":"Héricourt-en-Caux","department":"76","center":{"lng":0.7032,"lat":49.6938},"population":950},{"code":"76377","name":"Isneauville","department":"76","center":{"lng":1.1473,"lat":49.5033},"population":3713},{"code":"76399","name":"Lucy","department":"76","center":{"lng":1.4434,"lat":49.7709},"population":181},{"code":"76410","name":"Maromme","department":"76","center":{"lng":1.0321,"lat":49.4767},"population":11005},{"code":"76432","name":"Mesnil-Mauger","department":"76","center":{"lng":1.5247,"lat":49.6708},"population":244},{"code":"76454","name":"Mortemer","department":"76","center":{"lng":1.5434,"lat":49.7452},"population":90},{"code":"76476","name":"Port-Jérôme-sur-Seine","department":"76","center":{"lng":0.5834,"lat":49.5062},"population":10392},{"code":"76498","name":"Le Petit-Quevilly","department":"76","center":{"lng":1.0572,"lat":49.4238},"population":21935},{"code":"76531","name":"Rocquefort","department":"76","center":{"lng":0.7029,"lat":49.6675},"population":322},{"code":"76553","name":"Sainte-Agathe-d'Aliermont","department":"76","center":{"lng":1.3393,"lat":49.8288},"population":298},{"code":"76575","name":"Saint-Étienne-du-Rouvray","department":"76","center":{"lng":1.0909,"lat":49.3833},"population":28653},{"code":"76597","name":"Saint-Laurent-en-Caux","department":"76","center":{"lng":0.8843,"lat":49.744},"population":728},{"code":"76630","name":"Saint-Ouen-sous-Bailly","department":"76","center":{"lng":1.3001,"lat":49.905},"population":225},{"code":"76652","name":"Saint-Vaast-d'Équiqueville","department":"76","center":{"lng":1.2599,"lat":49.8128},"population":753},{"code":"76751","name":"Yébleron","department":"76","center":{"lng":0.537,"lat":49.6302},"population":1283},{"code":"77004","name":"Andrezel","department":"77","center":{"lng":2.8051,"lat":48.6139},"population":324},{"code":"77026","name":"Beauchery-Saint-Martin","department":"77","center":{"lng":3.4218,"lat":48.6005},"population":374},{"code":"77048","name":"Bourron-Marlotte","department":"77","center":{"lng":2.6982,"lat":48.3366},"population":2782},{"code":"77103","name":"Châtillon-la-Borde","department":"77","center":{"lng":2.8225,"lat":48.539},"population":224},{"code":"77125","name":"Condé-Sainte-Libiaire","department":"77","center":{"lng":2.8365,"lat":48.8982},"population":1470},{"code":"77147","name":"La Croix-en-Brie","department":"77","center":{"lng":3.069,"lat":48.5955},"population":672},{"code":"77169","name":"Émerainville","department":"77","center":{"lng":2.608,"lat":48.8186},"population":7536},{"code":"77202","name":"La Genevraye","department":"77","center":{"lng":2.7509,"lat":48.3164},"population":827},{"code":"77224","name":"Hautefeuille","department":"77","center":{"lng":2.9638,"lat":48.7663},"population":254},{"code":"77246","name":"Léchelle","department":"77","center":{"lng":3.388,"lat":48.5729},"population":577},{"code":"77268","name":"Magny-le-Hongre","department":"77","center":{"lng":2.8171,"lat":48.8675},"population":9058},{"code":"77301","name":"Montceaux-lès-Provins","department":"77","center":{"lng":3.445,"lat":48.6982},"population":321},{"code":"77323","name":"Moussy-le-Vieux","department":"77","center":{"lng":2.6221,"lat":49.048},"population":1475},{"code":"77345","name":"Orly-sur-Morin","department":"77","center":{"lng":3.2285,"lat":48.9006},"population":660},{"code":"77367","name":"Le Plessis-Placy","department":"77","center":{"lng":2.9852,"lat":49.0534},"population":296},{"code":"77389","name":"La Rochette","department":"77","center":{"lng":2.6578,"lat":48.507},"population":3919},