[{"code":"07091","name":"Fons","department":"07","center":{"lng":4.3492,"lat":44.5826},"population":317},{"code":"07190","name":"Rochecolombe","department":"07","center":{"lng":4.4519,"lat":44.518},"population":222},{"code":"08081","name":"Bogny-sur-Meuse","department":"08","center":{"lng":4.7561,"lat":49.8472},"population":4947},{"code":"08180","name":"La Francheville","department":"08","center":{"lng":4.7035,"lat":49.7263},"population":1647},{"code":"09071","name":"Cadarcet","department":"09","center":{"lng":1.5016,"lat":43.017},"population":214},{"code":"09093","name":"Celles","department":"09","center":{"lng":1.6973,"lat":42.9143},"population":143},{"code":"09170","name":"Lissac","department":"09","center":{"lng":1.5156,"lat":43.2692},"population":240},{"code":"09192","name":"Miglos","department":"09","center":{"lng":1.6018,"lat":42.7804},"population":132},{"code":"09291","name":"Sentenac-d'Oust","department":"09","center":{"lng":1.1378,"lat":42.8662},"population":105},{"code":"18080","name":"Croisy","department":"18","center":{"lng":2.8287,"lat":46.9293},"population":144},{"code":"19070","name":"Darnets","department":"19","center":{"lng":2.1088,"lat":45.4224},"population":309},{"code":"19191","name":"Saint-Cernin-de-Larche","department":"19","center":{"lng":1.4127,"lat":45.0916},"population":678},{"code":"21709","name":"Viserny","department":"21","center":{"lng":4.2836,"lat":47.5633},"population":180},{"code":"29091","name":"Kerlouan","department":"29","center":{"lng":-4.3925,"lat":48.6498},"population":2028},{"code":"29190","name":"Plougonvelin","department":"29","center":{"lng":-4.7252,"lat":48.3533},"population":4520},{"code":"2A011","name":"Altagène","department":"2A","center":{"lng":9.0737,"lat":41.7097},"population":54},{"code":"2A099","name":"Cozzano","department":"2A","center":{"lng":9.1848,"lat":41.932},"population":281},{"code":"2A132","name":"Guargualé","department":"2A","center":{"lng":8.927,"lat":41.8251},"population":148},{"code":"2A154","name":"Marignana","department":"2A","center":{"lng":8.7193,"lat":42.209},"population":102},{"code":"2A198","name":"Ota","department":"2A","center":{"lng":8.7362,"lat":42.2537},"population":471},{"code":"2A253","name":"Quasquara","department":"2A","center":{"lng":9.0071,"lat":41.912},"population":61},{"code":"2A330","name":"Ucciani","department":"2A","center":{"lng":8.9853,"lat":42.0514},"population":503},{"code":"2B023","name":"Asco","department":"2B","center":{"lng":8.9924,"lat":42.4386},"population":116},{"code":"2B045","name":"Bustanico","department":"2B","center":{"lng":9.3112,"lat":42.326},"population":65},{"code":"2B067","name":"Carpineto","department":"2B","center":{"lng":9.3793,"lat":42.3561},"population":37},{"code":"2B122","name":"Gavignano","department":"2B","center":{"lng":9.2642,"lat":42.4228},"population":60},{"code":"2B166","name":"Monte","department":"2B","center":{"lng":9.4118,"lat":42.4874},"population":619},{"code":"2B188","name":"Olmeta-di-Tuda","department":"2B","center":{"lng":9.3612,"lat":42.6095},"population":563},{"code":"2B221","name":"Piedipartino","department":"2B","center":{"lng":9.3483,"lat":42.3569},"population":17},{"code":"2B243","name":"Polveroso","department":"2B","center":{"lng":9.3625,"lat":42.4011},"population":35},{"code":"2B265","name":"Rutali","department":"2B","center":{"lng":9.3829,"lat":42.5809},"population":519},{"code":"2B287","name":"Sorio","department":"2B","center":{"lng":9.2449,"lat":42.5781},"population":129},{"code":"2B320","name":"Tallone","department":"2B","center":{"lng":9.4697,"lat":42.1897},"population":281},{"code":"2B342","name":"Ventiseri","department":"2B","center":{"lng":9.3552,"lat":41.9386},"population":2593},{"code":"2B364","name":"Zuani","department":"2B","center":{"lng":9.342,"lat":42.2651},"population":37},{"code":"39090","name":"Chaînée-des-Coupis","department":"39","center":{"lng":5.4341,"lat":46.9213},"population":185},{"code":"50419","name":"Quettreville-sur-Sienne","department":"50","center":{"lng":-1.4322,"lat":48.968},"population":3181},{"code":"50518","name":"Saint-Martin-le-Bouillant","department":"50","center":{"lng":-1.1601,"lat":48.7801},"population":312},{"code":"50617","name":"Varenguebec","department":"50","center":{"lng":-1.4956,"lat":49.3394},"population":329},{"code":"50639","name":"Villedieu-les-Poêles-Rouffigny","department":"50","center":{"lng":-1.2399,"lat":48.8247},"population":3845},{"code":"51409","name":"Nuisement-sur-Coole","department":"51","center":{"lng":4.2889,"lat":48.8703},"population":385},{"code":"51508","name":"Saint-Ouen-Domprot","department":"51","center":{"lng":4.3942,"lat":48.6138},"population":201},{"code":"51607","name":"Verdon","department":"51","center":{"lng":3.6253,"lat":48.9489},"population":198},{"code":"51629","name":"Villers-Allerand","department":"51","center":{"lng":4.0196,"lat":49.1608},"population":934},{"code":"60319","name":"La Houssoye","department":"60","center":{"lng":1.9522,"lat":49.3535},"population":605},{"code":"60418","name":"Montiers","department":"60","center":{"lng":2.5741,"lat":49.504},"population":396},{"code":"60517","name":"Puiseux-le-Hauberger","department":"60","center":{"lng":2.2319,"lat":49.22},"population":859},{"code":"60539","name":"Rieux","department":"60","center":{"lng":2.5108,"lat":49.2987},"population":1553},{"code":"60616","name":"Sérifontaine","department":"60","center":{"lng":1.7965,"lat":49.3597},"population":2798},{"code":"60638","name":"Thury-sous-Clermont","department":"60","center":{"lng":2.3276,"lat":49.3593},"population":670},{"code":"61309","name":"Perche en Nocé","department":"61","center":{"lng":0.6958,"lat":48.3585},"population":1974},{"code":"61408","name":"Sainte-Honorine-la-Guillaume","department":"61","center":{"lng":-0.3769,"lat":48.7775},"population":348},{"code":"61507","name":"Villiers-sous-Mortagne","department":"61","center":{"lng":0.5954,"lat":48.542},"population":241},{"code":"62519","name":"Lisbourg","department":"62","center":{"lng":2.2269,"lat":50.5096},"population":591},{"code":"62618","name":"Nordausques","department":"62","center":{"lng":2.0837,"lat":50.8157},"population":1293},{"code":"62717","name":"Roëllecourt","department":"62","center":{"lng":2.3847,"lat":50.3704},"population":520},{"code":"62739","name":"Sains-lès-Marquion","department":"62","center":{"lng":3.0803,"lat":50.1863},"population":318},{"code":"62816","name":"Tilloy-lès-Hermaville","department":"62","center":{"lng":2.553,"lat":50.3274},"population":216},{"code":"62838","name":"Vaulx","department":"62","center":{"lng":2.1026,"lat":50.2713},"population":94},{"code":"70219","name":"Esprels","department":"70","center":{"lng":6.3594,"lat":47.5447},"population":711},{"code":"70318","name":"Magny-Danigon","department":"70","center":{"lng":6.6147,"lat":47.6806},"population":454},{"code":"70417","name":"Pontcey","department":"70","center":{"lng":6.0315,"lat":47.6279},"population":294},{"code":"70439","name":"Raze","department":"70","center":{"lng":6.0089,"lat":47.58},"population":379},{"code":"70516","name":"Vallerois-le-Bois","department":"70","center":{"lng":6.2968,"lat":47.5523},"population":232},{"code":"70538","name":"Vellemoz","department":"70","center":{"lng":5.7927,"lat":47.4781},"population":87},{"code":"71209","name":"Frontenaud","department":"71","center":{"lng":5.2972,"lat":46.5506},"population":726},{"code":"71308","name":"Montceaux-Ragny","department":"71","center":{"lng":4.8415,"lat":46.6198},"population":31},{"code":"71407","name":"Saint-Didier-sur-Arroux","department":"71","center":{"lng":4.1023,"lat":46.8346},"population":223},{"code":"71506","name":"Savigny-en-Revermont","department":"71","center":{"lng":5.3898,"lat":46.6356},"population":1141},{"code":"71528","name":"Sornay","department":"71","center":{"lng":5.1684,"lat":46.62},"population":1958},{"code":"80119","name":"Bougainville","department":"80","center":{"lng":2.0459,"lat":49.8657},"population":395},{"code":"80218","name":"Courcelles-sous-Moyencourt","department":"80","center":{"lng":2.0392,"lat":49.808},"population":158},{"code":"80317","name":"Fleury","department":"80","center":{"lng":2.1119,"lat":49.7394},"population":204},{"code":"80339","name":"Fouquescourt","department":"80","center":{"lng":2.7469,"lat":49.7694},"population":153},{"code":"80416","name":"Hangest-sur-Somme","department":"80","center":{"lng":2.0375,"lat":49.9853},"population":762},{"code":"80438","name":"Heudicourt","department":"80","center":{"lng":3.0936,"lat":50.0291},"population":521},{"code":"80515","name":"Marlers","department":"80","center":{"lng":1.8555,"lat":49.7592},"population":148},{"code":"80537","name":"Mesnil-Domqueur","department":"80","center":{"lng":2.0599,"lat":50.1325},"population":89},{"code":"80559","name":"Montagne-Fayel","department":"80","center":{"lng":1.9926,"lat":49.9112},"population":145},{"code":"80614","name":"Outrebois","department":"80","center":{"lng":2.2473,"lat":50.1715},"population":320},{"code":"80658","name":"Quivières","department":"80","center":{"lng":3.0302,"lat":49.8256},"population":144},{"code":"80713","name":"Saint-Quentin-en-Tourmont","department":"80","center":{"lng":1.5825,"lat":50.2804},"population":295},{"code":"80735","name":"Seux","department":"80","center":{"lng":2.1048,"lat":49.8759},"population":169},{"code":"80757","name":"Thoix","department":"80","center":{"lng":2.0598,"lat":49.7017},"population":146},{"code":"80779","name":"Vauchelles-les-Quesnoy","department":"80","center":{"lng":1.8879,"lat":50.1019},"population":809},{"code":"80812","name":"Vraignes-en-Vermandois","department":"80","center":{"lng":3.0685,"lat":49.8875},"population":132},{"code":"80834","name":"Yzengremer","department":"80","center":{"lng":1.5181,"lat":50.0601},"population":509},{"code":"81109","name":"Jonquières","department":"81","center":{"lng":2.1442,"lat":43.6591},"population":443},{"code":"81208","name":"Peyrole","department":"81","center":{"lng":1.9086,"lat":43.8186},"population":557},{"code":"81307","name":"Valdurenque","department":"81","center":{"lng":2.3101,"lat":43.5688},"population":886},{"code":"90019","name":"Bretagne","department":"90","center":{"lng":6.9972,"lat":47.5909},"population":314},{"code":"91207","name":"Égly","department":"91","center":{"lng":2.2183,"lat":48.5778},"population":7078},{"code":"91405","name":"Milly-la-Forêt","department":"91","center":{"lng":2.4771,"lat":48.3966},"population":4582},{"code":"91526","name":"Roinvilliers","department":"91","center":{"lng":2.2321,"lat":48.3461},"population":110},{"code":"95409","name":"Moisselles","department":"95","center":{"lng":2.3373,"lat":49.0451},"population":1259},{"code":"95607","name":"Taverny","department":"95","center":{"lng":2.2179,"lat":49.0274},"population":27065},{"code":"97609","name":"Kani-Kéli","department":"976","center":{"lng":45.1207,"lat":-12.9746},"population":5507}]