[{"code":"01109","name":"Collonges","department":"01","center":{"lng":5.9007,"lat":46.1397},"population":2260},{"code":"01208","name":"Lavours","department":"01","center":{"lng":5.7707,"lat":45.8108},"population":138},{"code":"01307","name":"Port","department":"01","center":{"lng":5.581,"lat":46.1535},"population":843},{"code":"01329","name":"Rossillon","department":"01","center":{"lng":5.5987,"lat":45.8359},"population":164},{"code":"01406","name":"Servignat","department":"01","center":{"lng":5.0587,"lat":46.4354},"population":180},{"code":"01428","name":"Valeins","department":"01","center":{"lng":4.8646,"lat":46.1145},"population":131},{"code":"02319","name":"Fonsomme","department":"02","center":{"lng":3.3961,"lat":49.8998},"population":517},{"code":"02418","name":"Lerzy","department":"02","center":{"lng":3.8831,"lat":49.9504},"population":224},{"code":"02517","name":"Montigny-sur-Crécy","department":"02","center":{"lng":3.5839,"lat":49.7126},"population":299},{"code":"02539","name":"Nauroy","department":"02","center":{"lng":3.2589,"lat":49.9514},"population":672},{"code":"02616","name":"Pont-Saint-Mard","department":"02","center":{"lng":3.2785,"lat":49.4967},"population":185},{"code":"02638","name":"Remies","department":"02","center":{"lng":3.5242,"lat":49.6799},"population":240},{"code":"02715","name":"Serval","department":"02","center":{"lng":3.6817,"lat":49.3525},"population":42},{"code":"02737","name":"Tavaux-et-Pontséricourt","department":"02","center":{"lng":3.924,"lat":49.7287},"population":549},{"code":"02759","name":"La Vallée-au-Blé","department":"02","center":{"lng":3.794,"lat":49.8572},"population":358},{"code":"02814","name":"Villers-lès-Guise","department":"02","center":{"lng":3.6827,"lat":49.9251},"population":160},{"code":"03309","name":"Le Veurdre","department":"03","center":{"lng":3.0391,"lat":46.7425},"population":476},{"code":"10019","name":"Val-d'Auzon","department":"10","center":{"lng":4.3604,"lat":48.3973},"population":364},{"code":"10118","name":"Les Croûtes","department":"10","center":{"lng":3.8624,"lat":47.9917},"population":96},{"code":"10217","name":"Maison-des-Champs","department":"10","center":{"lng":4.5716,"lat":48.2449},"population":35},{"code":"10239","name":"Mesnil-Sellières","department":"10","center":{"lng":4.2057,"lat":48.3341},"population":574},{"code":"10316","name":"Rhèges","department":"10","center":{"lng":3.9944,"lat":48.5334},"population":208},{"code":"10338","name":"Saint-Étienne-sous-Barbuise","department":"10","center":{"lng":4.1113,"lat":48.4881},"population":175},{"code":"10437","name":"Virey-sous-Bar","department":"10","center":{"lng":4.3058,"lat":48.1342},"population":591},{"code":"11009","name":"Alzonne","department":"11","center":{"lng":2.1665,"lat":43.2646},"population":1590},{"code":"11108","name":"La Courtète","department":"11","center":{"lng":2.0317,"lat":43.1425},"population":48},{"code":"11207","name":"Loupia","department":"11","center":{"lng":2.1267,"lat":43.0621},"population":253},{"code":"11229","name":"Mazuby","department":"11","center":{"lng":2.0346,"lat":42.7886},"population":23},{"code":"11306","name":"Quirbajou","department":"11","center":{"lng":2.1669,"lat":42.8374},"population":50},{"code":"11328","name":"Routier","department":"11","center":{"lng":2.136,"lat":43.1042},"population":234},{"code":"11405","name":"Ventenac-en-Minervois","department":"11","center":{"lng":2.8544,"lat":43.2512},"population":587},{"code":"11427","name":"Villelongue-d'Aude","department":"11","center":{"lng":2.0959,"lat":43.0619},"population":314},{"code":"12219","name":"Sainte-Eulalie-d'Olt","department":"12","center":{"lng":2.9231,"lat":44.4662},"population":371},{"code":"14419","name":"Le Mesnil-Eudes","department":"14","center":{"lng":0.1766,"lat":49.093},"population":250},{"code":"14639","name":"Saint-Ouen-le-Pin","department":"14","center":{"lng":0.1036,"lat":49.1501},"population":256},{"code":"14716","name":"Trungy","department":"14","center":{"lng":-0.726,"lat":49.1914},"population":212},{"code":"14738","name":"Verson","department":"14","center":{"lng":-0.4666,"lat":49.1625},"population":3927},{"code":"21008","name":"Alise-Sainte-Reine","department":"21","center":{"lng":4.4878,"lat":47.5366},"population":568},{"code":"21107","name":"Bretigny","department":"21","center":{"lng":5.0981,"lat":47.3959},"population":903},{"code":"21129","name":"Chambain","department":"21","center":{"lng":4.9241,"lat":47.7958},"population":28},{"code":"21228","name":"Détain-et-Bruant","department":"21","center":{"lng":4.7888,"lat":47.1734},"population":142},{"code":"21305","name":"Grancey-sur-Ource","department":"21","center":{"lng":4.5786,"lat":47.9977},"population":179},{"code":"21327","name":"Val-Mont","department":"21","center":{"lng":4.6177,"lat":47.0317},"population":250},{"code":"21349","name":"Liernais","department":"21","center":{"lng":4.2885,"lat":47.2213},"population":485},{"code":"21404","name":"Ménétreux-le-Pitois","department":"21","center":{"lng":4.4566,"lat":47.5606},"population":393},{"code":"21426","name":"Montberthault","department":"21","center":{"lng":4.1598,"lat":47.4573},"population":217},{"code":"21448","name":"Mussy-la-Fosse","department":"21","center":{"lng":4.4457,"lat":47.5201},"population":95},{"code":"21503","name":"Pouilly-sur-Vingeanne","department":"21","center":{"lng":5.451,"lat":47.5395},"population":136},{"code":"21525","name":"La Roche-en-Brenil","department":"21","center":{"lng":4.1728,"lat":47.3762},"population":909},{"code":"21547","name":"Saint-Euphrône","department":"21","center":{"lng":4.391,"lat":47.4676},"population":223},{"code":"21569","name":"Saint-Romain","department":"21","center":{"lng":4.7066,"lat":47.0133},"population":200},{"code":"21602","name":"Semond","department":"21","center":{"lng":4.5736,"lat":47.7119},"population":31},{"code":"21624","name":"Tellecey","department":"21","center":{"lng":5.2991,"lat":47.2923},"population":142},{"code":"21646","name":"Trouhaut","department":"21","center":{"lng":4.7625,"lat":47.3896},"population":130},{"code":"21701","name":"Villers-Rotin","department":"21","center":{"lng":5.407,"lat":47.1576},"population":124},{"code":"22119","name":"Lanvellec","department":"22","center":{"lng":-3.5285,"lat":48.6069},"population":602},{"code":"22218","name":"Plougrescant","department":"22","center":{"lng":-3.2275,"lat":48.8423},"population":1198},{"code":"22317","name":"Saint-Méloir-des-Bois","department":"22","center":{"lng":-2.2559,"lat":48.4376},"population":272},{"code":"22339","name":"Taden","department":"22","center":{"lng":-2.0536,"lat":48.4867},"population":2599},{"code":"23109","name":"Linard-Malval","department":"23","center":{"lng":1.8805,"lat":46.3674},"population":207},{"code":"23208","name":"Saint-Léger-le-Guérétois","department":"23","center":{"lng":1.8144,"lat":46.1505},"population":398},{"code":"24319","name":"Paussac-et-Saint-Vivien","department":"24","center":{"lng":0.5427,"lat":45.3394},"population":455},{"code":"24418","name":"Saint-Germain-du-Salembre","department":"24","center":{"lng":0.4344,"lat":45.128},"population":906},{"code":"24517","name":"Salles-de-Belvès","department":"24","center":{"lng":1.0014,"lat":44.7159},"population":77},{"code":"25309","name":"Houtaud","department":"25","center":{"lng":6.3021,"lat":46.915},"population":1197},{"code":"25408","name":"Montussaint","department":"25","center":{"lng":6.2927,"lat":47.4364},"population":54},{"code":"25507","name":"Rouhe","department":"25","center":{"lng":5.9663,"lat":47.0857},"population":82},{"code":"25529","name":"Sancey","department":"25","center":{"lng":6.5758,"lat":47.2942},"population":1364},{"code":"27608","name":"Saint-Victor-de-Chrétienville","department":"27","center":{"lng":0.5154,"lat":49.0632},"population":439},{"code":"2A091","name":"Cognocoli-Monticchi","department":"2A","center":{"lng":8.8684,"lat":41.8052},"population":174},{"code":"2B081","name":"Castiglione","department":"2B","center":{"lng":9.1129,"lat":42.4084},"population":41},{"code":"2B180","name":"Novella","department":"2B","center":{"lng":9.1028,"lat":42.6035},"population":80},{"code":"30017","name":"Arrigas","department":"30","center":{"lng":3.4806,"lat":43.9927},"population":214},{"code":"30039","name":"Bezouce","department":"30","center":{"lng":4.5019,"lat":43.8767},"population":2341},{"code":"30116","name":"Fournès","department":"30","center":{"lng":4.6035,"lat":43.9378},"population":1058},{"code":"30138","name":"Langlade","department":"30","center":{"lng":4.2559,"lat":43.8021},"population":2297},{"code":"30215","name":"Rivières","department":"30","center":{"lng":4.2859,"lat":44.2167},"population":424},{"code":"30237","name":"Saint-Brès","department":"30","center":{"lng":4.2,"lat":44.2829},"population":684},{"code":"30259","name":"Saint-Hilaire-de-Brethmas","department":"30","center":{"lng":4.1229,"lat":44.0941},"population":4643},{"code":"30314","name":"Savignargues","department":"30","center":{"lng":4.0807,"lat":43.967},"population":238},{"code":"30336","name":"Vallabrègues","department":"30","center":{"lng":4.6367,"lat":43.8616},"population":1376},{"code":"31007","name":"Ambax","department":"31","center":{"lng":0.9387,"lat":43.3692},"population":59},{"code":"31029","name":"Aurin","department":"31","center":{"lng":1.6804,"lat":43.5355},"population":340},{"code":"31106","name":"Caraman","department":"31","center":{"lng":1.7487,"lat":43.5324},"population":2487},{"code":"31128","name":"Caujac","department":"31","center":{"lng":1.4554,"lat":43.297},"population":864},{"code":"31205","name":"Gagnac-sur-Garonne","department":"31","center":{"lng":1.3636,"lat":43.7077},"population":3223},{"code":"31227","name":"Goyrans","department":"31","center":{"lng":1.4252,"lat":43.4817},"population":847},{"code":"31249","name":"Labastide-Beauvoir","department":"31","center":{"lng":1.6635,"lat":43.4822},"population":1229},{"code":"31304","name":"Loubens-Lauragais","department":"31","center":{"lng":1.784,"lat":43.5762},"population":454},{"code":"31326","name":"Massabrac","department":"31","center":{"lng":1.3645,"lat":43.2238},"population":121},{"code":"31348","name":"Moncaup","department":"31","center":{"lng":0.704,"lat":42.9687},"population":36},{"code":"31403","name":"Ondes","department":"31","center":{"lng":1.3046,"lat":43.7857},"population":815},{"code":"31425","name":"Le Plan","department":"31","center":{"lng":1.1246,"lat":43.1631},"population":434},{"code":"31447","name":"Razecueillé","department":"31","center":{"lng":0.8139,"lat":42.9626},"population":31},{"code":"31469","name":"Saint-Araille","department":"31","center":{"lng":1.0067,"lat":43.3536},"population":125},{"code":"31502","name":"Saint-Marcet","department":"31","center":{"lng":0.7437,"lat":43.1938},"population":370},{"code":"31524","name":"Salles-et-Pratviel","department":"31","center":{"lng":0.6072,"lat":42.8321},"population":127},{"code":"31546","name":"Seyre","department":"31","center":{"lng":1.6638,"lat":43.3642},"population":127},{"code":"31568","name":"Varennes","department":"31","center":{"lng":1.6955,"lat":43.4779},"population":256},{"code":"32019","name":"Auterive","department":"32","center":{"lng":0.6325,"lat":43.578},"population":530},{"code":"32118","name":"Durban","department":"32","center":{"lng":0.5706,"lat":43.5396},"population":136},{"code":"32217","name":"Louslitges","department":"32","center":{"lng":0.1555,"lat":43.6021},"population":61},{"code":"32239","name":"Marsolan","department":"32","center":{"lng":0.5337,"lat":43.9426},"population":442},{"code":"32316","name":"Peyrusse-Massas","department":"32","center":{"lng":0.5573,"lat":43.7404},"population":114},{"code":"32338","name":"Ramouzens","department":"32","center":{"lng":0.1862,"lat":43.8082},"population":185},{"code":"32415","name":"Sarraguzan","department":"32","center":{"lng":0.3441,"lat":43.3663},"population":87},{"code":"32437","name":"Sorbets","department":"32","center":{"lng":-0.0187,"lat":43.7127},"population":201},{"code":"32459","name":"Valence-sur-Baïse","department":"32","center":{"lng":0.3637,"lat":43.8722},"population":1137},{"code":"33009","name":"Arcachon","department":"33","center":{"lng":-1.1718,"lat":44.6515},"population":10895},{"code":"33108","name":"Castillon-la-Bataille","department":"33","center":{"lng":-0.0244,"lat":44.8622},"population":3320},{"code":"33207","name":"Izon","department":"33","center":{"lng":-0.3561,"lat":44.9188},"population":6347},{"code":"33229","name":"Lanton","department":"33","center":{"lng":-0.9799,"lat":44.7719},"population":7315},{"code":"33306","name":"Noaillac","department":"33","center":{"lng":-0.022,"lat":44.5167},"population":559},{"code":"33328","name":"Pomerol","department":"33","center":{"lng":-0.2019,"lat":44.9306},"population":608},{"code":"33405","name":"Saint-Genès-de-Blaye","department":"33","center":{"lng":-0.6673,"lat":45.1644},"population":495},{"code":"33427","name":"Saint-Laurent-du-Bois","department":"33","center":{"lng":-0.1416,"lat":44.6402},"population":257},{"code":"33449","name":"Saint-Médard-en-Jalles","department":"33","center":{"lng":-0.7823,"lat":44.8861},"population":32749},{"code":"33504","name":"Sauternes","department":"33","center":{"lng":-0.3439,"lat":44.5336},"population":816},{"code":"33526","name":"Tayac","department":"33","center":{"lng":-0.0249,"lat":44.9608},"population":127},{"code":"33548","name":"Villegouge","department":"33","center":{"lng":-0.3144,"lat":44.9748},"population":1291},{"code":"34219","name":"Prémian","department":"34","center":{"lng":2.8217,"lat":43.5401},"population":484},{"code":"34318","name":"Vacquières","department":"34","center":{"lng":3.953,"lat":43.8286},"population":757},{"code":"35308","name":"Mesnil-Roc'h","department":"35","center":{"lng":-1.876,"lat":48.4639},"population":4457},{"code":"40016","name":"Aubagnan","department":"40","center":{"lng":-0.4996,"lat":43.6648},"population":274},{"code":"40038","name":"Bergouey","department":"40","center":{"lng":-0.7232,"lat":43.6684},"population":109},{"code":"40115","name":"Gousse","department":"40","center":{"lng":-0.9092,"lat":43.7752},"population":276},{"code":"40137","name":"Lacquy","department":"40","center":{"lng":-0.2848,"lat":43.9584},"population":288},{"code":"40159","name":"Louer","department":"40","center":{"lng":-0.89,"lat":43.7558},"population":332},{"code":"40214","name":"Ossages","department":"40","center":{"lng":-0.8788,"lat":43.5582},"population":493},{"code":"40236","name":"Poyartin","department":"40","center":{"lng":-0.8589,"lat":43.6884},"population":765},{"code":"40258","name":"Sainte-Foy","department":"40","center":{"lng":-0.3238,"lat":43.9315},"population":251},{"code":"40313","name":"Tartas","department":"40","center":{"lng":-0.7791,"lat":43.8156},"population":3174},{"code":"41006","name":"Autainville","department":"41","center":{"lng":1.4221,"lat":47.8841},"population":429},{"code":"41028","name":"Busloup","department":"41","center":{"lng":1.139,"lat":47.9033},"population":496},{"code":"41105","name":"Josnes","department":"41","center":{"lng":1.5314,"lat":47.7945},"population":862},{"code":"41127","name":"La Marolle-en-Sologne","department":"41","center":{"lng":1.7933,"lat":47.5808},"population":365},{"code":"41149","name":"Montoire-sur-le-Loir","department":"41","center":{"lng":0.8431,"lat":47.7648},"population":3678},{"code":"41204","name":"Saint-Claude-de-Diray","department":"41","center":{"lng":1.4191,"lat":47.619},"population":1772},{"code":"41226","name":"Saint-Ouen","department":"41","center":{"lng":1.0673,"lat":47.8238},"population":3016},{"code":"41248","name":"Couëtron-au-Perche","department":"41","center":{"lng":0.894,"lat":48.0573},"population":1045},{"code":"42018","name":"Bessey","department":"42","center":{"lng":4.7046,"lat":45.3899},"population":465},{"code":"42117","name":"Lavieu","department":"42","center":{"lng":4.0413,"lat":45.5396},"population":111},{"code":"42139","name":"Marlhes","department":"42","center":{"lng":4.3936,"lat":45.2915},"population":1338},{"code":"42216","name":"Saint-Denis-sur-Coise","department":"42","center":{"lng":4.4303,"lat":45.6111},"population":684},{"code":"42238","name":"Saint-Jean-la-Vêtre","department":"42","center":{"lng":3.7899,"lat":45.7758},"population":310},{"code":"42315","name":"Unias","department":"42","center":{"lng":4.2273,"lat":45.6057},"population":455},{"code":"42337","name":"Vivans","department":"42","center":{"lng":3.9385,"lat":46.1814},"population":231},{"code":"43008","name":"Arlempdes","department":"43","center":{"lng":3.9068,"lat":44.8677},"population":148},{"code":"43107","name":"Josat","department":"43","center":{"lng":3.6126,"lat":45.2162},"population":82},{"code":"43129","name":"Le Mas-de-Tence","department":"43","center":{"lng":4.3709,"lat":45.1221},"population":157},{"code":"43206","name":"Saint-Just-près-Brioude","department":"43","center":{"lng":3.3283,"lat":45.2359},"population":397},{"code":"43228","name":"Saint-Victor-sur-Arlanc","department":"43","center":{"lng":3.7813,"lat":45.3358},"population":91},{"code":"44119","name":"Paulx","department":"44","center":{"lng":-1.7835,"lat":46.9612},"population":2042},{"code":"44218","name":"Villepot","department":"44","center":{"lng":-1.2856,"lat":47.7686},"population":687},{"code":"45109","name":"Coulmiers","department":"45","center":{"lng":1.6605,"lat":47.934},"population":565},{"code":"45208","name":"Montargis","department":"45","center":{"lng":2.7388,"lat":47.9998},"population":14819},{"code":"45307","name":"La Selle-sur-le-Bied","department":"45","center":{"lng":2.9028,"lat":48.0778},"population":1131},{"code":"45329","name":"Triguères","department":"45","center":{"lng":2.9949,"lat":47.9418},"population":1267},{"code":"46319","name":"Théminettes","department":"46","center":{"lng":1.8473,"lat":44.7191},"population":182},{"code":"47309","name":"Tombebœuf","department":"47","center":{"lng":0.46,"lat":44.5208},"population":448},{"code":"50059","name":"Blosville","department":"50","center":{"lng":-1.2944,"lat":49.3745},"population":322},{"code":"50158","name":"Cuves","department":"50","center":{"lng":-1.1028,"lat":48.7302},"population":263},{"code":"50235","name":"La Haye-d'Ectot","department":"50","center":{"lng":-1.732,"lat":49.3933},"population":285},{"code":"50279","name":"Le Lorey","department":"50","center":{"lng":-1.3026,"lat":49.0976},"population":570},{"code":"50312","name":"Le Mesnil-Gilbert","department":"50","center":{"lng":-1.0599,"lat":48.7221},"population":142},{"code":"50334","name":"Montabot","department":"50","center":{"lng":-1.1328,"lat":48.937},"population":272},{"code":"50356","name":"Moon-sur-Elle","department":"50","center":{"lng":-1.0548,"lat":49.203},"population":779},{"code":"50378","name":"Notre-Dame-de-Cenilly","department":"50","center":{"lng":-1.2663,"lat":48.9941},"population":631},{"code":"50411","name":"Ponts","department":"50","center":{"lng":-1.3277,"lat":48.7124},"population":684},{"code":"50433","name":"Réville","department":"50","center":{"lng":-1.2542,"lat":49.6271},"population":1038},{"code":"50455","name":"Saint-Clair-sur-l'Elle","department":"50","center":{"lng":-1.0448,"lat":49.1871},"population":973},{"code":"50499","name":"Saint-Laurent-de-Cuves","department":"50","center":{"lng":-1.1094,"lat":48.7455},"population":499},{"code":"50510","name":"Saint-Martin-d'Aubigny","department":"50","center":{"lng":-1.3553,"lat":49.1658},"population":606},{"code":"50532","name":"Saint-Pair-sur-Mer","department":"50","center":{"lng":-1.5441,"lat":48.8014},"population":4372},{"code":"50554","name":"Saint-Senier-sous-Avranches","department":"50","center":{"lng":-1.3156,"lat":48.6911},"population":1426},{"code":"50576","name":"Siouville-Hague","department":"50","center":{"lng":-1.8303,"lat":49.5602},"population":936},{"code":"50598","name":"Tocqueville","department":"50","center":{"lng":-1.3322,"lat":49.6707},"population":257},{"code":"51005","name":"Allemant","department":"51","center":{"lng":3.8221,"lat":48.7633},"population":184},{"code":"51027","name":"Auve","department":"51","center":{"lng":4.6851,"lat":49.028},"population":313},{"code":"51049","name":"Bergères-lès-Vertus","department":"51","center":{"lng":4.0108,"lat":48.8747},"population":580},{"code":"51104","name":"Cernay-en-Dormois","department":"51","center":{"lng":4.762,"lat":49.2248},"population":134},{"code":"51126","name":"La Chapelle-Felcourt","department":"51","center":{"lng":4.755,"lat":49.0404},"population":45},{"code":"51148","name":"Cheppes-la-Prairie","department":"51","center":{"lng":4.4447,"lat":48.8207},"population":141},{"code":"51203","name":"Cuperly","department":"51","center":{"lng":4.4464,"lat":49.0653},"population":219},{"code":"51225","name":"Écueil","department":"51","center":{"lng":3.9528,"lat":49.1791},"population":349},{"code":"51247","name":"Fèrebrianges","department":"51","center":{"lng":3.8409,"lat":48.8708},"population":136},{"code":"51269","name":"Giffaumont-Champaubert","department":"51","center":{"lng":4.7496,"lat":48.5645},"population":286},{"code":"51302","name":"Les Istres-et-Bury","department":"51","center":{"lng":4.0873,"lat":48.9874},"population":90},{"code":"51324","name":"Linthes","department":"51","center":{"lng":3.8547,"lat":48.7335},"population":111},{"code":"51346","name":"Mareuil-le-Port","department":"51","center":{"lng":3.7504,"lat":49.074},"population":1151},{"code":"51368","name":"Minaucourt-le-Mesnil-lès-Hurlus","department":"51","center":{"lng":4.6919,"lat":49.178},"population":46},{"code":"51423","name":"Pargny-sur-Saulx","department":"51","center":{"lng":4.8548,"lat":48.7663},"population":1700},{"code":"51445","name":"Pourcy","department":"51","center":{"lng":3.9103,"lat":49.1473},"population":192},{"code":"51489","name":"Saint-Jean-devant-Possesse","department":"51","center":{"lng":4.7842,"lat":48.8701},"population":29},{"code":"51500","name":"Saint-Mard-sur-le-Mont","department":"51","center":{"lng":4.8543,"lat":48.9242},"population":114},{"code":"51522","name":"Sapignicourt","department":"51","center":{"lng":4.8073,"lat":48.6462},"population":387},{"code":"51544","name":"Sommepy-Tahure","department":"51","center":{"lng":4.6016,"lat":49.2445},"population":656},{"code":"51566","name":"Thibie","department":"51","center":{"lng":4.2076,"lat":48.9168},"population":292},{"code":"51588","name":"Valmy","department":"51","center":{"lng":4.7589,"lat":49.0808},"population":240},{"code":"51621","name":"Vienne-le-Château","department":"51","center":{"lng":4.9277,"lat":49.1964},"population":515},{"code":"51643","name":"Vinay","department":"51","center":{"lng":3.9009,"lat":49.0125},"population":535},{"code":"52017","name":"Arc-en-Barrois","department":"52","center":{"lng":5.0179,"lat":47.9485},"population":688},{"code":"52039","name":"Baudrecourt","department":"52","center":{"lng":4.9704,"lat":48.3939},"population":85},{"code":"52116","name":"Chatenay-Vaudin","department":"52","center":{"lng":5.4484,"lat":47.8503},"population":46},{"code":"52138","name":"Colmier-le-Haut","department":"52","center":{"lng":4.9801,"lat":47.7896},"population":62},{"code":"52237","name":"Harréville-les-Chanteurs","department":"52","center":{"lng":5.618,"lat":48.2671},"population":267},{"code":"52336","name":"Montreuil-sur-Blaise","department":"52","center":{"lng":4.9563,"lat":48.4762},"population":132},{"code":"52358","name":"Noyers","department":"52","center":{"lng":5.4811,"lat":48.0626},"population":95},{"code":"52413","name":"Rachecourt-Suzémont","department":"52","center":{"lng":4.9721,"lat":48.456},"population":106},{"code":"52457","name":"Saint-Vallier-sur-Marne","department":"52","center":{"lng":5.4043,"lat":47.8337},"population":173},{"code":"52479","name":"Sommevoire","department":"52","center":{"lng":4.8276,"lat":48.4108},"population":648},{"code":"52512","name":"Vecqueville","department":"52","center":{"lng":5.1403,"lat":48.4622},"population":506},{"code":"52534","name":"Villiers-en-Lieu","department":"52","center":{"lng":4.9032,"lat":48.6687},"population":1477},{"code":"53007","name":"Argentré","department":"53","center":{"lng":-0.624,"lat":48.0942},"population":2908},{"code":"53029","name":"Bierné-les-Villages","department":"53","center":{"lng":-0.5633,"lat":47.7918},"population":1280},{"code":"53106","name":"Gesvres","department":"53","center":{"lng":-0.1644,"lat":48.3722},"population":541},{"code":"53128","name":"Laubrières","department":"53","center":{"lng":-1.0691,"lat":47.9478},"population":322},{"code":"53249","name":"Vimartin-sur-Orthe","department":"53","center":{"lng":-0.2144,"lat":48.2169},"population":1107},{"code":"54019","name":"Ansauville","department":"54","center":{"lng":5.826,"lat":48.811},"population":76},{"code":"54118","name":"Charency-Vezin","department":"54","center":{"lng":5.5165,"lat":49.4874},"population":616},{"code":"54217","name":"Gélacourt","department":"54","center":{"lng":6.7316,"lat":48.476},"population":184},{"code":"54239","name":"Griscourt","department":"54","center":{"lng":6.0186,"lat":48.8418},"population":138},{"code":"54316","name":"Limey-Remenauville","department":"54","center":{"lng":5.9061,"lat":48.8934},"population":312},{"code":"54338","name":"Malleloy","department":"54","center":{"lng":6.1672,"lat":48.7909},"population":986},{"code":"54415","name":"Pagny-sur-Moselle","department":"54","center":{"lng":6.0057,"lat":48.9879},"population":3953},{"code":"54437","name":"Pulligny","department":"54","center":{"lng":6.1498,"lat":48.5497},"population":1151},{"code":"54459","name":"Richardménil","department":"54","center":{"lng":6.1772,"lat":48.5952},"population":2362},{"code":"54514","name":"Tellancourt","department":"54","center":{"lng":5.6311,"lat":49.509},"population":638},{"code":"54536","name":"Tucquegnieux","department":"54","center":{"lng":5.8947,"lat":49.3093},"population":2434},{"code":"54558","name":"Velaine-sous-Amance","department":"54","center":{"lng":6.3226,"lat":48.7168},"population":284},{"code":"55009","name":"Ancemont","department":"55","center":{"lng":5.3811,"lat":49.0632},"population":525},{"code":"55108","name":"Chaumont-sur-Aire","department":"55","center":{"lng":5.2707,"lat":48.9232},"population":120},{"code":"55207","name":"Géry","department":"55","center":{"lng":5.3034,"lat":48.7866},"population":54},{"code":"55229","name":"Han-sur-Meuse","department":"55","center":{"lng":5.556,"lat":48.8539},"population":269},{"code":"55306","name":"Louppy-sur-Loison","department":"55","center":{"lng":5.3388,"lat":49.4393},"population":118},{"code":"55328","name":"Maxey-sur-Vaise","department":"55","center":{"lng":5.6577,"lat":48.5321},"population":281},{"code":"55405","name":"Pillon","department":"55","center":{"lng":5.5848,"lat":49.3712},"population":250},{"code":"55427","name":"Revigny-sur-Ornain","department":"55","center":{"lng":4.9769,"lat":48.8268},"population":2600},{"code":"55449","name":"Rupt-en-Woëvre","department":"55","center":{"lng":5.4973,"lat":49.0648},"population":282},{"code":"55504","name":"Tannois","department":"55","center":{"lng":5.2195,"lat":48.7192},"population":389},{"code":"55526","name":"Vadonville","department":"55","center":{"lng":5.5139,"lat":48.8001},"population":251},{"code":"56219","name":"Saint-Guyomard","department":"56","center":{"lng":-2.5006,"lat":47.779},"population":1446},{"code":"57209","name":"Faulquemont","department":"57","center":{"lng":6.5918,"lat":49.0409},"population":5154},{"code":"57308","name":"Hazembourg","department":"57","center":{"lng":6.9452,"lat":48.9633},"population":155},{"code":"57407","name":"Lixheim","department":"57","center":{"lng":7.1457,"lat":48.7874},"population":564},{"code":"57506","name":"Niederstinzel","department":"57","center":{"lng":7.0124,"lat":48.8704},"population":236},{"code":"57528","name":"Oron","department":"57","center":{"lng":6.4832,"lat":48.9013},"population":107},{"code":"57605","name":"Sailly-Achâtel","department":"57","center":{"lng":6.2985,"lat":48.9438},"population":316},{"code":"57627","name":"Sanry-sur-Nied","department":"57","center":{"lng":6.3419,"lat":49.0535},"population":422},{"code":"57649","name":"Servigny-lès-Sainte-Barbe","department":"57","center":{"lng":6.2759,"lat":49.1486},"population":467},{"code":"57704","name":"Veckring","department":"57","center":{"lng":6.3637,"lat":49.3343},"population":651},{"code":"57726","name":"Vittoncourt","department":"57","center":{"lng":6.4525,"lat":49.0247},"population":389},{"code":"57748","name":"Wittring","department":"57","center":{"lng":7.1336,"lat":49.0515},"population":741},{"code":"59409","name":"Monchecourt","department":"59","center":{"lng":3.2113,"lat":50.307},"population":2488},{"code":"59508","name":"Roncq","department":"59","center":{"lng":3.1152,"lat":50.7453},"population":13873},{"code":"59607","name":"Vendegies-au-Bois","department":"59","center":{"lng":3.5816,"lat":50.1801},"population":479},{"code":"59629","name":"Vred","department":"59","center":{"lng":3.2311,"lat":50.3942},"population":1311},{"code":"60014","name":"Angivillers","department":"60","center":{"lng":2.5001,"lat":49.4893},"population":159},{"code":"60036","name":"Avrigny","department":"60","center":{"lng":2.5764,"lat":49.3873},"population":401},{"code":"60058","name":"Beauvoir","department":"60","center":{"lng":2.3291,"lat":49.6079},"population":224},{"code":"60113","name":"Bucamps","department":"60","center":{"lng":2.3132,"lat":49.5234},"population":207},{"code":"60135","name":"Cauvigny","department":"60","center":{"lng":2.2394,"lat":49.3015},"population":1675},{"code":"60157","name":"Clermont","department":"60","center":{"lng":2.4099,"lat":49.3782},"population":10704},{"code":"60179","name":"Crèvecœur-le-Petit","department":"60","center":{"lng":2.5016,"lat":49.5732},"population":157},{"code":"60212","name":"Ercuis","department":"60","center":{"lng":2.3107,"lat":49.2376},"population":1626},{"code":"60234","name":"Fitz-James","department":"60","center":{"lng":2.4293,"lat":49.3991},"population":2546},{"code":"60256","name":"Montchevreuil","department":"60","center":{"lng":1.9929,"lat":49.2904},"population":1332},{"code":"60278","name":"Golancourt","department":"60","center":{"lng":3.0686,"lat":49.7022},"population":407},{"code":"60311","name":"La Hérelle","department":"60","center":{"lng":2.4196,"lat":49.5998},"population":238},{"code":"60333","name":"Lachapelle-aux-Pots","department":"60","center":{"lng":1.921,"lat":49.4469},"population":1534},{"code":"60355","name":"Laversines","department":"60","center":{"lng":2.193,"lat":49.4255},"population":1133},{"code":"60377","name":"Maisoncelle-Tuilerie","department":"60","center":{"lng":2.2222,"lat":49.5885},"population":287},{"code":"60399","name":"Le Mesnil-Saint-Firmin","department":"60","center":{"lng":2.4092,"lat":49.6246},"population":249},{"code":"60410","name":"Mondescourt","department":"60","center":{"lng":3.1113,"lat":49.6018},"population":248},{"code":"60432","name":"Mortefontaine","department":"60","center":{"lng":2.6056,"lat":49.1186},"population":859},{"code":"60454","name":"La Neuville-en-Hez","department":"60","center":{"lng":2.3286,"lat":49.3875},"population":954},{"code":"60476","name":"Omécourt","department":"60","center":{"lng":1.8359,"lat":49.6163},"population":203},{"code":"60498","name":"Le Plessier-sur-Saint-Just","department":"60","center":{"lng":2.4591,"lat":49.5075},"population":539},{"code":"60531","name":"Remy","department":"60","center":{"lng":2.6992,"lat":49.4415},"population":1957},{"code":"60553","name":"Rouvillers","department":"60","center":{"lng":2.6301,"lat":49.4557},"population":282},{"code":"60575","name":"Sainte-Geneviève","department":"60","center":{"lng":2.2008,"lat":49.2871},"population":3478},{"code":"60597","name":"Saint-Sauveur","department":"60","center":{"lng":2.7999,"lat":49.3284},"population":1752},{"code":"60630","name":"Thibivillers","department":"60","center":{"lng":1.9004,"lat":49.3109},"population":214},{"code":"60652","name":"Valdampierre","department":"60","center":{"lng":2.0549,"lat":49.3046},"population":921},{"code":"60674","name":"Vieux-Moulin","department":"60","center":{"lng":2.9279,"lat":49.3905},"population":600},{"code":"61026","name":"Barville","department":"61","center":{"lng":0.3449,"lat":48.4737},"population":185},{"code":"61048","name":"Boëcé","department":"61","center":{"lng":0.4535,"lat":48.5148},"population":125},{"code":"61103","name":"Chaumont","department":"61","center":{"lng":0.3341,"lat":48.8472},"population":167},{"code":"61169","name":"Flers","department":"61","center":{"lng":-0.5603,"lat":48.7389},"population":14308},{"code":"61202","name":"Hauterive","department":"61","center":{"lng":0.2057,"lat":48.4807},"population":459},{"code":"61224","name":"Larré","department":"61","center":{"lng":0.1658,"lat":48.4939},"population":467},{"code":"61268","name":"Ménil-Hubert-en-Exmes","department":"61","center":{"lng":0.2344,"lat":48.8031},"population":120},{"code":"61301","name":"Neauphe-sous-Essai","department":"61","center":{"lng":0.1948,"lat":48.562},"population":214},{"code":"61323","name":"Le Pas-Saint-l'Homer","department":"61","center":{"lng":0.9265,"lat":48.4932},"population":128},{"code":"61345","name":"Rémalard en Perche","department":"61","center":{"lng":0.7644,"lat":48.4405},"population":1892},{"code":"61367","name":"Saint-Aubin-de-Courteraie","department":"61","center":{"lng":0.4512,"lat":48.6096},"population":130},{"code":"61389","name":"Sainte-Gauburge-Sainte-Colombe","department":"61","center":{"lng":0.4443,"lat":48.7082},"population":1013},{"code":"61400","name":"Saint-Gervais-du-Perron","department":"61","center":{"lng":0.1456,"lat":48.5372},"population":346},{"code":"61422","name":"Les Aspres","department":"61","center":{"lng":0.6026,"lat":48.6735},"population":620},{"code":"61444","name":"Saint-Philbert-sur-Orne","department":"61","center":{"lng":-0.3741,"lat":48.8347},"population":112},{"code":"61466","name":"La Selle-la-Forge","department":"61","center":{"lng":-0.5302,"lat":48.736},"population":1396},{"code":"61488","name":"Touquettes","department":"61","center":{"lng":0.4186,"lat":48.7938},"population":75},{"code":"62016","name":"Airon-Saint-Vaast","department":"62","center":{"lng":1.6687,"lat":50.4262},"population":189},{"code":"62038","name":"Ardres","department":"62","center":{"lng":1.9827,"lat":50.8772},"population":4393},{"code":"62115","name":"Berneville","department":"62","center":{"lng":2.6723,"lat":50.2632},"population":475},{"code":"62137","name":"Blangerval-Blangermont","department":"62","center":{"lng":2.2198,"lat":50.3258},"population":93},{"code":"62214","name":"Carly","department":"62","center":{"lng":1.7116,"lat":50.6577},"population":633},{"code":"62236","name":"Contes","department":"62","center":{"lng":1.9616,"lat":50.4184},"population":349},{"code":"62258","name":"Croisette","department":"62","center":{"lng":2.2627,"lat":50.3499},"population":300},{"code":"62313","name":"Estrée-Blanche","department":"62","center":{"lng":2.3224,"lat":50.5934},"population":906},{"code":"62335","name":"Fillièvres","department":"62","center":{"lng":2.1648,"lat":50.315},"population":512},{"code":"62357","name":"Fresnoy","department":"62","center":{"lng":2.1377,"lat":50.373},"population":65},{"code":"62379","name":"Gouy-en-Artois","department":"62","center":{"lng":2.5831,"lat":50.2418},"population":326},{"code":"62412","name":"Hardinghen","department":"62","center":{"lng":1.828,"lat":50.7977},"population":1245},{"code":"62434","name":"La Herlière","department":"62","center":{"lng":2.5588,"lat":50.1991},"population":136},{"code":"62456","name":"Houchin","department":"62","center":{"lng":2.6192,"lat":50.4798},"population":735},{"code":"62478","name":"Journy","department":"62","center":{"lng":2.0027,"lat":50.7544},"population":306},{"code":"62511","name":"Lignereuil","department":"62","center":{"lng":2.4727,"lat":50.292},"population":140},{"code":"62533","name":"Lugy","department":"62","center":{"lng":2.1733,"lat":50.5209},"population":138},{"code":"62555","name":"Marles-les-Mines","department":"62","center":{"lng":2.5074,"lat":50.5026},"population":5437},{"code":"62577","name":"Monchel-sur-Canche","department":"62","center":{"lng":2.2204,"lat":50.3016},"population":73},{"code":"62599","name":"Nabringhen","department":"62","center":{"lng":1.8612,"lat":50.7428},"population":233},{"code":"62610","name":"Neuville-sous-Montreuil","department":"62","center":{"lng":1.7924,"lat":50.4785},"population":633},{"code":"62632","name":"Oblinghem","department":"62","center":{"lng":2.5932,"lat":50.5511},"population":384},{"code":"62654","name":"Peuplingues","department":"62","center":{"lng":1.764,"lat":50.9117},"population":789},{"code":"62676","name":"Quernes","department":"62","center":{"lng":2.3681,"lat":50.6018},"population":429},{"code":"62698","name":"Recques-sur-Course","department":"62","center":{"lng":1.7761,"lat":50.5183},"population":268},{"code":"62731","name":"Ruyaulcourt","department":"62","center":{"lng":3.0205,"lat":50.0824},"population":284},{"code":"62753","name":"Saint-Laurent-Blangy","department":"62","center":{"lng":2.8079,"lat":50.3098},"population":6492},{"code":"62775","name":"Sanghen","department":"62","center":{"lng":1.892,"lat":50.7722},"population":327},{"code":"62797","name":"Siracourt","department":"62","center":{"lng":2.2664,"lat":50.3704},"population":282},{"code":"62830","name":"Trescault","department":"62","center":{"lng":3.0951,"lat":50.0906},"population":194},{"code":"62852","name":"Vieille-Église","department":"62","center":{"lng":2.0779,"lat":50.9359},"population":1496},{"code":"62874","name":"Wanquetin","department":"62","center":{"lng":2.6138,"lat":50.2703},"population":737},{"code":"62896","name":"Wirwignes","department":"62","center":{"lng":1.7702,"lat":50.6856},"population":743},{"code":"63006","name":"Anzat-le-Luguet","department":"63","center":{"lng":3.0104,"lat":45.3265},"population":174},{"code":"63028","name":"Bagnols","department":"63","center":{"lng":2.6376,"lat":45.4918},"population":402},{"code":"63105","name":"Chaumont-le-Bourg","department":"63","center":{"lng":3.7657,"lat":45.4619},"population":233},{"code":"63149","name":"Entraigues","department":"63","center":{"lng":3.2636,"lat":45.8844},"population":732},{"code":"63204","name":"Malintrat","department":"63","center":{"lng":3.1871,"lat":45.8127},"population":1133},{"code":"63226","name":"Mur-sur-Allier","department":"63","center":{"lng":3.2421,"lat":45.7603},"population":3102},{"code":"63248","name":"Nébouzat","department":"63","center":{"lng":2.9126,"lat":45.7174},"population":865},{"code":"63303","name":"Roche-Charles-la-Mayrand","department":"63","center":{"lng":3.0182,"lat":45.4505},"population":40},{"code":"63325","name":"Saint-Bonnet-lès-Allier","department":"63","center":{"lng":3.2545,"lat":45.7398},"population":426},{"code":"63347","name":"Saint-Genès-du-Retz","department":"63","center":{"lng":3.2121,"lat":46.0611},"population":463},{"code":"63369","name":"Saint-Julien-la-Geneste","department":"63","center":{"lng":2.7403,"lat":46.0454},"population":120},{"code":"63402","name":"Saint-Victor-Montvianeix","department":"63","center":{"lng":3.6033,"lat":45.9396},"population":264},{"code":"63424","name":"Surat","department":"63","center":{"lng":3.2594,"lat":45.9388},"population":611},{"code":"63446","name":"Vensat","department":"63","center":{"lng":3.1619,"lat":46.0542},"population":550},{"code":"63468","name":"Vollore-Montagne","department":"63","center":{"lng":3.6957,"lat":45.7845},"population":312},{"code":"64018","name":"Amendeuix-Oneix","department":"64","center":{"lng":-1.0445,"lat":43.3439},"population":466},{"code":"64117","name":"Bésingrand","department":"64","center":{"lng":-0.5687,"lat":43.3749},"population":146},{"code":"64139","name":"Bosdarros","department":"64","center":{"lng":-0.356,"lat":43.2011},"population":969},{"code":"64216","name":"Espoey","department":"64","center":{"lng":-0.1536,"lat":43.2508},"population":1206},{"code":"64238","name":"Ger","department":"64","center":{"lng":-0.0606,"lat":43.254},"population":2118},{"code":"64315","name":"Laroin","department":"64","center":{"lng":-0.4377,"lat":43.2933},"population":1035},{"code":"64337","name":"Lespielle","department":"64","center":{"lng":-0.1539,"lat":43.4682},"population":152},{"code":"64359","name":"Lucq-de-Béarn","department":"64","center":{"lng":-0.6497,"lat":43.2972},"population":926},{"code":"64414","name":"Narp","department":"64","center":{"lng":-0.8247,"lat":43.3819},"population":122},{"code":"64436","name":"Ossès","department":"64","center":{"lng":-1.2735,"lat":43.2462},"population":876},{"code":"64458","name":"Préchacq-Josbaig","department":"64","center":{"lng":-0.7348,"lat":43.2567},"population":295},{"code":"64513","name":"Sauveterre-de-Béarn","department":"64","center":{"lng":-0.931,"lat":43.4137},"population":1361},{"code":"64535","name":"Tarsacq","department":"64","center":{"lng":-0.5335,"lat":43.3555},"population":543},{"code":"64557","name":"Vignes","department":"64","center":{"lng":-0.4101,"lat":43.5244},"population":456},{"code":"65107","name":"Bourréac","department":"65","center":{"lng":0.0031,"lat":43.1053},"population":118},{"code":"65129","name":"Castelnau-Magnoac","department":"65","center":{"lng":0.5142,"lat":43.3008},"population":765},{"code":"65206","name":"Goudon","department":"65","center":{"lng":0.2364,"lat":43.2457},"population":239},{"code":"65228","name":"Ilhet","department":"65","center":{"lng":0.4035,"lat":42.9644},"population":121},{"code":"65305","name":"Mauléon-Barousse","department":"65","center":{"lng":0.581,"lat":42.9493},"population":103},{"code":"65327","name":"Nestier","department":"65","center":{"lng":0.4769,"lat":43.0603},"population":203},{"code":"65349","name":"Ourdon","department":"65","center":{"lng":-0.0139,"lat":43.031},"population":14},{"code":"65404","name":"Sariac-Magnoac","department":"65","center":{"lng":0.555,"lat":43.3104},"population":159},{"code":"65426","name":"Sinzos","department":"65","center":{"lng":0.2115,"lat":43.2209},"population":136},{"code":"65448","name":"Tournous-Darré","department":"65","center":{"lng":0.3557,"lat":43.2884},"population":78},{"code":"66119","name":"Mosset","department":"66","center":{"lng":2.2848,"lat":42.6719},"population":313},{"code":"66218","name":"Ur","department":"66","center":{"lng":1.9382,"lat":42.4594},"population":366},{"code":"67109","name":"Durningen","department":"67","center":{"lng":7.5636,"lat":48.6841},"population":686},{"code":"67208","name":"Hohengœft","department":"67","center":{"lng":7.4661,"lat":48.6606},"population":538},{"code":"67307","name":"Mulhausen","department":"67","center":{"lng":7.5561,"lat":48.8873},"population":440},{"code":"67329","name":"Niedernai","department":"67","center":{"lng":7.5326,"lat":48.4496},"population":1239},{"code":"67406","name":"Rohr","department":"67","center":{"lng":7.5369,"lat":48.694},"population":366},{"code":"67428","name":"Saint-Nabor","department":"67","center":{"lng":7.4169,"lat":48.4411},"population":511},{"code":"67505","name":"La Vancelle","department":"67","center":{"lng":7.3221,"lat":48.2829},"population":403},{"code":"67527","name":"Westhouse-Marmoutier","department":"67","center":{"lng":7.458,"lat":48.6848},"population":360},{"code":"70013","name":"Ambiévillers","department":"70","center":{"lng":6.1379,"lat":47.9911},"population":73},{"code":"70035","name":"Augicourt","department":"70","center":{"lng":5.8913,"lat":47.7692},"population":171},{"code":"70057","name":"Bay","department":"70","center":{"lng":5.714,"lat":47.2932},"population":162},{"code":"70079","name":"Bougnon","department":"70","center":{"lng":6.1049,"lat":47.6945},"population":501},{"code":"70112","name":"Cemboing","department":"70","center":{"lng":5.853,"lat":47.8408},"population":168},{"code":"70134","name":"Chariez","department":"70","center":{"lng":6.0775,"lat":47.6173},"population":220},{"code":"70156","name":"Citey","department":"70","center":{"lng":5.7867,"lat":47.4419},"population":106},{"code":"70178","name":"La Côte","department":"70","center":{"lng":6.5727,"lat":47.6882},"population":526},{"code":"70211","name":"Écuelle","department":"70","center":{"lng":5.5474,"lat":47.5527},"population":67},{"code":"70233","name":"Les Fessey","department":"70","center":{"lng":6.5169,"lat":47.8114},"population":129},{"code":"70255","name":"Fresne-Saint-Mamès","department":"70","center":{"lng":5.8622,"lat":47.5498},"population":491},{"code":"70277","name":"Granges-le-Bourg","department":"70","center":{"lng":6.5896,"lat":47.5775},"population":381},{"code":"70299","name":"Lavoncourt","department":"70","center":{"lng":5.7779,"lat":47.6232},"population":332},{"code":"70310","name":"Lure","department":"70","center":{"lng":6.4933,"lat":47.6817},"population":7912},{"code":"70332","name":"Marast","department":"70","center":{"lng":6.382,"lat":47.5589},"population":49},{"code":"70376","name":"Nantilly","department":"70","center":{"lng":5.5277,"lat":47.4579},"population":441},{"code":"70398","name":"Ormoiche","department":"70","center":{"lng":6.3022,"lat":47.8145},"population":68},{"code":"70431","name":"Quenoche","department":"70","center":{"lng":6.1061,"lat":47.4668},"population":241},{"code":"70453","name":"La Rosière","department":"70","center":{"lng":6.6214,"lat":47.9108},"population":79},{"code":"70552","name":"Villafans","department":"70","center":{"lng":6.4764,"lat":47.5831},"population":198},{"code":"70574","name":"Volon","department":"70","center":{"lng":5.7389,"lat":47.6261},"population":57},{"code":"71003","name":"Allerey-sur-Saône","department":"71","center":{"lng":4.9709,"lat":46.9145},"population":809},{"code":"71025","name":"Beaubery","department":"71","center":{"lng":4.3933,"lat":46.413},"population":361},{"code":"71047","name":"Bourbon-Lancy","department":"71","center":{"lng":3.7623,"lat":46.6184},"population":4656},{"code":"71069","name":"Bussières","department":"71","center":{"lng":4.7118,"lat":46.3337},"population":588},{"code":"71102","name":"La Charmée","department":"71","center":{"lng":4.7946,"lat":46.7231},"population":680},{"code":"71124","name":"Chenôves","department":"71","center":{"lng":4.6982,"lat":46.6642},"population":208},{"code":"71146","name":"Cortambert","department":"71","center":{"lng":4.6966,"lat":46.469},"population":271},{"code":"71168","name":"Dampierre-en-Bresse","department":"71","center":{"lng":5.2033,"lat":46.8285},"population":173},{"code":"71201","name":"Fley","department":"71","center":{"lng":4.6384,"lat":46.6762},"population":192},{"code":"71223","name":"La Grande-Verrière","department":"71","center":{"lng":4.1425,"lat":46.9699},"population":550},{"code":"71245","name":"Jugy","department":"71","center":{"lng":4.8643,"lat":46.6053},"population":332},{"code":"71267","name":"Lugny","department":"71","center":{"lng":4.8192,"lat":46.4797},"population":848},{"code":"71289","name":"Matour","department":"71","center":{"lng":4.4785,"lat":46.3095},"population":1159},{"code":"71300","name":"Le Miroir","department":"71","center":{"lng":5.3331,"lat":46.5481},"population":593},{"code":"71322","name":"Morlet","department":"71","center":{"lng":4.5052,"lat":46.9539},"population":59},{"code":"71344","name":"Passy","department":"71","center":{"lng":4.5344,"lat":46.5402},"population":70},{"code":"71366","name":"Ratenelle","department":"71","center":{"lng":5.0003,"lat":46.5247},"population":369},{"code":"71388","name":"Saint-Aubin-en-Charollais","department":"71","center":{"lng":4.2099,"lat":46.5013},"population":493},{"code":"71421","name":"Saint-Germain-en-Brionnais","department":"71","center":{"lng":4.247,"lat":46.3465},"population":177},{"code":"71443","name":"Saint-Loup-Géanges","department":"71","center":{"lng":4.9092,"lat":46.9374},"population":1643},{"code":"71465","name":"Saint-Micaud","department":"71","center":{"lng":4.5246,"lat":46.6924},"population":274},{"code":"71487","name":"Saint-Vérand","department":"71","center":{"lng":4.7288,"lat":46.2539},"population":156},{"code":"71520","name":"Sevrey","department":"71","center":{"lng":4.8285,"lat":46.7364},"population":1208},{"code":"71542","name":"Toulon-sur-Arroux","department":"71","center":{"lng":4.1526,"lat":46.6869},"population":1447},{"code":"71564","name":"Vendenesse-lès-Charolles","department":"71","center":{"lng":4.3596,"lat":46.4397},"population":738},{"code":"71586","name":"Viry","department":"71","center":{"lng":4.3463,"lat":46.4739},"population":260},{"code":"72015","name":"Les Aulneaux","department":"72","center":{"lng":0.3404,"lat":48.4405},"population":107},{"code":"72037","name":"Blèves","department":"72","center":{"lng":0.3332,"lat":48.4479},"population":129},{"code":"72059","name":"Chantenay-Villedieu","department":"72","center":{"lng":-0.1464,"lat":47.9203},"population":816},{"code":"72114","name":"Dehault","department":"72","center":{"lng":0.5785,"lat":48.2054},"population":250},{"code":"72136","name":"Fontenay-sur-Vègre","department":"72","center":{"lng":-0.2213,"lat":47.906},"population":309},{"code":"72158","name":"Lavaré","department":"72","center":{"lng":0.6494,"lat":48.0642},"population":817},{"code":"72213","name":"Mulsanne","department":"72","center":{"lng":0.244,"lat":47.919},"population":5299},{"code":"72235","name":"Piacé","department":"72","center":{"lng":0.1155,"lat":48.2655},"population":373},{"code":"72257","name":"Rouillon","department":"72","center":{"lng":0.1424,"lat":47.9997},"population":2352},{"code":"72279","name":"Saint-Georges-de-la-Couée","department":"72","center":{"lng":0.5952,"lat":47.8232},"population":171},{"code":"72312","name":"Saint-Pierre-des-Bois","department":"72","center":{"lng":-0.1355,"lat":47.9421},"population":225},{"code":"72334","name":"Sillé-le-Guillaume","department":"72","center":{"lng":-0.1333,"lat":48.1896},"population":2192},{"code":"72356","name":"Thoiré-sur-Dinan","department":"72","center":{"lng":0.4603,"lat":47.7663},"population":398},{"code":"72378","name":"Vion","department":"72","center":{"lng":-0.2654,"lat":47.8136},"population":1383},{"code":"73005","name":"Aillon-le-Vieux","department":"73","center":{"lng":6.0797,"lat":45.6529},"population":218},{"code":"73027","name":"Ayn","department":"73","center":{"lng":5.7517,"lat":45.5724},"population":390},{"code":"73049","name":"Bonvillaret","department":"73","center":{"lng":6.3183,"lat":45.5623},"population":144},{"code":"73104","name":"Dullin","department":"73","center":{"lng":5.7519,"lat":45.5482},"population":493},{"code":"73225","name":"Saint-Baldoph","department":"73","center":{"lng":5.9459,"lat":45.5303},"population":2827},{"code":"73247","name":"Saint-Jean-de-la-Porte","department":"73","center":{"lng":6.1214,"lat":45.5641},"population":977},{"code":"73269","name":"Saint-Paul-sur-Yenne","department":"73","center":{"lng":5.7935,"lat":45.6721},"population":750},{"code":"73302","name":"La Trinité","department":"73","center":{"lng":6.1515,"lat":45.504},"population":380},{"code":"73324","name":"Villaroux","department":"73","center":{"lng":6.0791,"lat":45.4613},"population":191},{"code":"74116","name":"Etaux","department":"74","center":{"lng":6.2703,"lat":46.061},"population":2109},{"code":"74138","name":"Gruffy","department":"74","center":{"lng":6.0643,"lat":45.781},"population":1497},{"code":"74215","name":"Praz-sur-Arly","department":"74","center":{"lng":6.5859,"lat":45.828},"population":1289},{"code":"74237","name":"Saint-Gingolph","department":"74","center":{"lng":6.7768,"lat":46.389},"population":907},{"code":"74259","name":"Le Sappey","department":"74","center":{"lng":6.1606,"lat":46.0888},"population":463},{"code":"74314","name":"Vulbens","department":"74","center":{"lng":5.9339,"lat":46.1083},"population":1698},{"code":"76019","name":"Anneville-sur-Scie","department":"76","center":{"lng":1.0935,"lat":49.8394},"population":411},{"code":"76118","name":"Bornambusc","department":"76","center":{"lng":0.3532,"lat":49.6251},"population":243},{"code":"76217","name":"Dieppe","department":"76","center":{"lng":1.0838,"lat":49.9199},"population":28599},{"code":"76239","name":"Épretot","department":"76","center":{"lng":0.3139,"lat":49.5378},"population":783},{"code":"76316","name":"Grainville-sur-Ry","department":"76","center":{"lng":1.3003,"lat":49.4728},"population":437},{"code":"76338","name":"La Hallotière","department":"76","center":{"lng":1.4765,"lat":49.5212},"population":204},{"code":"76415","name":"Massy","department":"76","center":{"lng":1.3928,"lat":49.6883},"population":318},{"code":"76437","name":"Meulers","department":"76","center":{"lng":1.2247,"lat":49.8409},"population":579},{"code":"76459","name":"Nesle-Hodeng","department":"76","center":{"lng":1.5186,"lat":49.704},"population":331},{"code":"76514","name":"Quévreville-la-Poterie","department":"76","center":{"lng":1.1881,"lat":49.3534},"population":1036},{"code":"76536","name":"Roncherolles-sur-le-Vivier","department":"76","center":{"lng":1.1828,"lat":49.4628},"population":1255},{"code":"76558","name":"Saint-Aubin-Celloville","department":"76","center":{"lng":1.161,"lat":49.3733},"population":1182},{"code":"76613","name":"Saint-Martin-aux-Buneaux","department":"76","center":{"lng":0.5497,"lat":49.828},"population":636},{"code":"76635","name":"Saint-Pierre-des-Jonquières","department":"76","center":{"lng":1.4524,"lat":49.8487},"population":76},{"code":"76657","name":"Saint-Vigor-d'Ymonville","department":"76","center":{"lng":0.3469,"lat":49.4761},"population":1165},{"code":"76679","name":"Sommesnil","department":"76","center":{"lng":0.6693,"lat":49.7116},"population":112},{"code":"76712","name":"La Trinité-du-Mont","department":"76","center":{"lng":0.5585,"lat":49.5454},"population":917},{"code":"76734","name":"Vergetot","department":"76","center":{"lng":0.2823,"lat":49.6102},"population":440},{"code":"76756","name":"Yquebeuf","department":"76","center":{"lng":1.2598,"lat":49.5946},"population":239},{"code":"77009","name":"Arville","department":"77","center":{"lng":2.5578,"lat":48.1819},"population":140},{"code":"77108","name":"Chelles","department":"77","center":{"lng":2.5954,"lat":48.8845},"population":54372},{"code":"77207","name":"Gironville","department":"77","center":{"lng":2.5383,"lat":48.1671},"population":161},{"code":"77229","name":"La Houssaye-en-Brie","department":"77","center":{"lng":2.8696,"lat":48.757},"population":1703},{"code":"77306","name":"Montereau-sur-le-Jard","department":"77","center":{"lng":2.6728,"lat":48.5969},"population":498},{"code":"77328","name":"Nanteau-sur-Essonne","department":"77","center":{"lng":2.4262,"lat":48.3184},"population":410},{"code":"77405","name":"Saint-Cyr-sur-Morin","department":"77","center":{"lng":3.1746,"lat":48.9141},"population":1943},{"code":"77427","name":"Saint-Mesmes","department":"77","center":{"lng":2.7105,"lat":48.986},"population":596},{"code":"77449","name":"Serris","department":"77","center":{"lng":2.7873,"lat":48.8453},"population":9988},{"code":"77504","name":"Villemaréchal","department":"77","center":{"lng":2.8784,"lat":48.2731},"population":1067},{"code":"77526","name":"Vincy-Manœuvre","department":"77","center":{"lng":2.9553,"lat":49.0752},"population":274},{"code":"78417","name":"Montchauvet","department":"78","center":{"lng":1.6265,"lat":48.8944},"population":285},{"code":"78439","name":"Mulcent","department":"78","center":{"lng":1.6524,"lat":48.879},"population":117},{"code":"78516","name":"Raizeux","department":"78","center":{"lng":1.6849,"lat":48.6375},"population":990},{"code":"78615","name":"Thiverval-Grignon","department":"78","center":{"lng":1.9322,"lat":48.8419},"population":1102},{"code":"79209","name":"Pierrefitte","department":"79","center":{"lng":-0.3024,"lat":46.8667},"population":323},{"code":"79308","name":"Sciecq","department":"79","center":{"lng":-0.4743,"lat":46.37},"population":663},{"code":"80034","name":"Athies","department":"80","center":{"lng":2.9778,"lat":49.8552},"population":613},{"code":"80056","name":"Bavelincourt","department":"80","center":{"lng":2.4478,"lat":50.0006},"population":100},{"code":"80078","name":"Bellancourt","department":"80","center":{"lng":1.9119,"lat":50.0933},"population":505},{"code":"80133","name":"Brailly-Cornehotte","department":"80","center":{"lng":1.9574,"lat":50.2264},"population":214},{"code":"80155","name":"Bussus-lès-Yaucourt","department":"80","center":{"lng":1.9948,"lat":50.108},"population":306},{"code":"80177","name":"Cartigny","department":"80","center":{"lng":3.0154,"lat":49.9109},"population":690},{"code":"80199","name":"Cléry-sur-Somme","department":"80","center":{"lng":2.8847,"lat":49.9618},"population":515},{"code":"80210","name":"Contre","department":"80","center":{"lng":2.087,"lat":49.7486},"population":146},{"code":"80232","name":"Damery","department":"80","center":{"lng":2.7342,"lat":49.7302},"population":222},{"code":"80276","name":"Équennes-Éramecourt","department":"80","center":{"lng":1.9563,"lat":49.7275},"population":280},{"code":"80298","name":"Étricourt-Manancourt","department":"80","center":{"lng":2.9797,"lat":50.0325},"population":525},{"code":"80331","name":"Forest-l'Abbaye","department":"80","center":{"lng":1.8336,"lat":50.2036},"population":314},{"code":"80353","name":"Fresnes-Mazancourt","department":"80","center":{"lng":2.8613,"lat":49.8521},"population":158},{"code":"80375","name":"Gauville","department":"80","center":{"lng":1.7859,"lat":49.782},"population":332},{"code":"80397","name":"Gueudecourt","department":"80","center":{"lng":2.8429,"lat":50.0586},"population":96},{"code":"80430","name":"Herbécourt","department":"80","center":{"lng":2.8396,"lat":49.9223},"population":181},{"code":"80452","name":"Jumel","department":"80","center":{"lng":2.322,"lat":49.7622},"population":531},{"code":"80474","name":"Licourt","department":"80","center":{"lng":2.9037,"lat":49.8258},"population":397},{"code":"80496","name":"Machiel","department":"80","center":{"lng":1.836,"lat":50.2741},"population":151},{"code":"80573","name":"Morvillers-Saint-Saturnin","department":"80","center":{"lng":1.8135,"lat":49.7801},"population":376},{"code":"80595","name":"La Neuville-Sire-Bernard","department":"80","center":{"lng":2.5251,"lat":49.7441},"population":279},{"code":"80650","name":"Querrieu","department":"80","center":{"lng":2.4114,"lat":49.9394},"population":621},{"code":"80672","name":"Ribemont-sur-Ancre","department":"80","center":{"lng":2.5563,"lat":49.9703},"population":619},{"code":"80694","name":"Sailly-le-Sec","department":"80","center":{"lng":2.5888,"lat":49.9255},"population":350},{"code":"80771","name":"Ugny-l'Équipée","department":"80","center":{"lng":3.065,"lat":49.8152},"population":30},{"code":"80793","name":"Vignacourt","department":"80","center":{"lng":2.1843,"lat":50.0053},"population":2280},{"code":"81002","name":"Aiguefonde","department":"81","center":{"lng":2.3264,"lat":43.4893},"population":2507},{"code":"81024","name":"Beauvais-sur-Tescou","department":"81","center":{"lng":1.582,"lat":43.8952},"population":376},{"code":"81046","name":"Cadalen","department":"81","center":{"lng":1.9904,"lat":43.8414},"population":1540},{"code":"81068","name":"Combefa","department":"81","center":{"lng":2.0966,"lat":44.0493},"population":197},{"code":"81101","name":"Le Garric","department":"81","center":{"lng":2.1711,"lat":44.0029},"population":1292},{"code":"81123","name":"Lacapelle-Ségalar","department":"81","center":{"lng":1.9941,"lat":44.1187},"population":90},{"code":"81145","name":"Lisle-sur-Tarn","department":"81","center":{"lng":1.7775,"lat":43.8897},"population":4857},{"code":"81167","name":"Miolles","department":"81","center":{"lng":2.5522,"lat":43.877},"population":107},{"code":"81189","name":"Mouzens","department":"81","center":{"lng":1.8887,"lat":43.5302},"population":117},{"code":"81200","name":"Palleville","department":"81","center":{"lng":1.9926,"lat":43.5002},"population":447},{"code":"81222","name":"Réalmont","department":"81","center":{"lng":2.1905,"lat":43.7792},"population":3542},{"code":"81244","name":"Saint-Benoît-de-Carmaux","department":"81","center":{"lng":2.1289,"lat":44.0551},"population":2059},{"code":"81266","name":"Saint-Paul-Cap-de-Joux","department":"81","center":{"lng":1.9919,"lat":43.636},"population":1060},{"code":"81288","name":"Sorèze","department":"81","center":{"lng":2.0807,"lat":43.4409},"population":2978},{"code":"81321","name":"Le Vintrou","department":"81","center":{"lng":2.4791,"lat":43.5306},"population":91},{"code":"82014","name":"Beaupuy","department":"82","center":{"lng":1.1164,"lat":43.8152},"population":274},{"code":"82036","name":"Le Causé","department":"82","center":{"lng":0.9714,"lat":43.802},"population":131},{"code":"82058","name":"Fajolles","department":"82","center":{"lng":1.0137,"lat":43.9686},"population":109},{"code":"82113","name":"Molières","department":"82","center":{"lng":1.393,"lat":44.1944},"population":1274},{"code":"82135","name":"Nohic","department":"82","center":{"lng":1.4389,"lat":43.8889},"population":1384},{"code":"82157","name":"Saint-Beauzeil","department":"82","center":{"lng":0.9106,"lat":44.3338},"population":113},{"code":"82179","name":"Septfonds","department":"82","center":{"lng":1.6214,"lat":44.178},"population":2254},{"code":"83004","name":"Les Arcs","department":"83","center":{"lng":6.4862,"lat":43.4533},"population":7844},{"code":"83026","name":"Cabasse","department":"83","center":{"lng":6.2303,"lat":43.4275},"population":1985},{"code":"83048","name":"La Croix-Valmer","department":"83","center":{"lng":6.588,"lat":43.1909},"population":3832},{"code":"83103","name":"Le Revest-les-Eaux","department":"83","center":{"lng":5.9453,"lat":43.1878},"population":4046},{"code":"83125","name":"Seillons-Source-d'Argens","department":"83","center":{"lng":5.8775,"lat":43.5156},"population":2717},{"code":"83147","name":"Vérignon","department":"83","center":{"lng":6.2653,"lat":43.658},"population":8},{"code":"84016","name":"Bédarrides","department":"84","center":{"lng":4.9029,"lat":44.0478},"population":5521},{"code":"84038","name":"Cheval-Blanc","department":"84","center":{"lng":5.1204,"lat":43.7875},"population":4340},{"code":"84115","name":"Saint-Pierre-de-Vassols","department":"84","center":{"lng":5.1463,"lat":44.0983},"population":504},{"code":"84137","name":"Vaison-la-Romaine","department":"84","center":{"lng":5.0586,"lat":44.2395},"population":5920},{"code":"85006","name":"Apremont","department":"85","center":{"lng":-1.7498,"lat":46.76},"population":2028},{"code":"85028","name":"Bouillé-Courdault","department":"85","center":{"lng":-0.6849,"lat":46.3855},"population":595},{"code":"85105","name":"Le Gué-de-Velluire","department":"85","center":{"lng":-0.9066,"lat":46.3682},"population":516},{"code":"85127","name":"Longeville-sur-Mer","department":"85","center":{"lng":-1.478,"lat":46.4095},"population":2442},{"code":"85149","name":"Moreilles","department":"85","center":{"lng":-1.1009,"lat":46.4206},"population":408},{"code":"85204","name":"Saint-Christophe-du-Ligneron","department":"85","center":{"lng":-1.7387,"lat":46.8142},"population":2653},{"code":"85226","name":"Saint-Hilaire-de-Riez","department":"85","center":{"lng":-1.9796,"lat":46.7452},"population":12923},{"code":"85248","name":"Saint-Martin-Lars-en-Sainte-Hermine","department":"85","center":{"lng":-0.9772,"lat":46.596},"population":421},{"code":"85303","name":"Vix","department":"85","center":{"lng":-0.8525,"lat":46.3528},"population":1829},{"code":"86018","name":"Basses","department":"86","center":{"lng":0.1266,"lat":47.0442},"population":336},{"code":"86117","name":"Jouhet","department":"86","center":{"lng":0.8766,"lat":46.4898},"population":510},{"code":"86139","name":"Lusignan","department":"86","center":{"lng":0.1186,"lat":46.4404},"population":2556},{"code":"87008","name":"La Bazeuge","department":"87","center":{"lng":1.0835,"lat":46.2575},"population":144},{"code":"87107","name":"Nieul","department":"87","center":{"lng":1.1781,"lat":45.9191},"population":1594},{"code":"87129","name":"Royères","department":"87","center":{"lng":1.4372,"lat":45.8494},"population":942},{"code":"87206","name":"Villefavard","department":"87","center":{"lng":1.2178,"lat":46.1702},"population":164},{"code":"88119","name":"Crainvilliers","department":"88","center":{"lng":5.8382,"lat":48.1497},"population":180},{"code":"88218","name":"Granges-Aumontzey","department":"88","center":{"lng":6.8151,"lat":48.1342},"population":2560},{"code":"88317","name":"Moussey","department":"88","center":{"lng":7.0593,"lat":48.4497},"population":549},{"code":"88416","name":"Saint-Genest","department":"88","center":{"lng":6.51,"lat":48.3456},"population":133},{"code":"88438","name":"La Salle","department":"88","center":{"lng":6.8099,"lat":48.3241},"population":398},{"code":"88515","name":"Vioménil","department":"88","center":{"lng":6.1625,"lat":48.0894},"population":153},{"code":"89208","name":"Joux-la-Ville","department":"89","center":{"lng":3.8576,"lat":47.6171},"population":1164},{"code":"89307","name":"Pontigny","department":"89","center":{"lng":3.7114,"lat":47.9038},"population":774},{"code":"89329","name":"Rugny","department":"89","center":{"lng":4.1459,"lat":47.8976},"population":75},{"code":"89406","name":"Talcy","department":"89","center":{"lng":4.0757,"lat":47.5783},"population":83},{"code":"89428","name":"Vallery","department":"89","center":{"lng":3.0476,"lat":48.2334},"population":579},{"code":"90011","name":"Bermont","department":"90","center":{"lng":6.8416,"lat":47.5757},"population":373},{"code":"90033","name":"Delle","department":"90","center":{"lng":6.996,"lat":47.509},"population":5677},{"code":"90055","name":"Grosne","department":"90","center":{"lng":6.994,"lat":47.5717},"population":322},{"code":"90077","name":"Petit-Croix","department":"90","center":{"lng":6.9751,"lat":47.6218},"population":305},{"code":"90099","name":"Valdoie","department":"90","center":{"lng":6.8476,"lat":47.6727},"population":5193},{"code":"91001","name":"Abbéville-la-Rivière","department":"91","center":{"lng":2.197,"lat":48.3369},"population":331},{"code":"91045","name":"Ballancourt-sur-Essonne","department":"91","center":{"lng":2.3882,"lat":48.5246},"population":7795},{"code":"91067","name":"Blandy","department":"91","center":{"lng":2.2576,"lat":48.3205},"population":115},{"code":"91100","name":"Bouville","department":"91","center":{"lng":2.2806,"lat":48.437},"population":658},{"code":"91122","name":"Bures-sur-Yvette","department":"91","center":{"lng":2.1589,"lat":48.6913},"population":9481},{"code":"91243","name":"Fontenay-lès-Briis","department":"91","center":{"lng":2.171,"lat":48.6112},"population":2322},{"code":"91386","name":"Mennecy","department":"91","center":{"lng":2.4362,"lat":48.5592},"population":16071},{"code":"91441","name":"Nainville-les-Roches","department":"91","center":{"lng":2.4943,"lat":48.5053},"population":521},{"code":"91463","name":"Oncy-sur-École","department":"91","center":{"lng":2.4564,"lat":48.3803},"population":1037},{"code":"91540","name":"Saint-Chéron","department":"91","center":{"lng":2.1249,"lat":48.5499},"population":5176},{"code":"91661","name":"Villebon-sur-Yvette","department":"91","center":{"lng":2.2366,"lat":48.6965},"population":10353},{"code":"92035","name":"La Garenne-Colombes","department":"92","center":{"lng":2.2437,"lat":48.9071},"population":29828},{"code":"93047","name":"Montfermeil","department":"93","center":{"lng":2.5678,"lat":48.8976},"population":28257},{"code":"94015","name":"Bry-sur-Marne","department":"94","center":{"lng":2.5224,"lat":48.8392},"population":18095},{"code":"94037","name":"Gentilly","department":"94","center":{"lng":2.3426,"lat":48.812},"population":18883},{"code":"94059","name":"Le Plessis-Trévise","department":"94","center":{"lng":2.5763,"lat":48.808},"population":21096},{"code":"95203","name":"Eaubonne","department":"95","center":{"lng":2.2781,"lat":48.9912},"population":25934},{"code":"95445","name":"Nerville-la-Forêt","department":"95","center":{"lng":2.2768,"lat":49.0882},"population":779},{"code":"95489","name":"Piscop","department":"95","center":{"lng":2.3421,"lat":49.0162},"population":737},{"code":"95500","name":"Pontoise","department":"95","center":{"lng":2.0996,"lat":49.0488},"population":31623},{"code":"95566","name":"Saint-Martin-du-Tertre","department":"95","center":{"lng":2.3353,"lat":49.1008},"population":2662},{"code":"97106","name":"Bouillante","department":"971","center":{"lng":-61.7578,"lat":16.1387},"population":6381},{"code":"97128","name":"Sainte-Anne","department":"971","center":{"lng":-61.3896,"lat":16.2565},"population":24415},{"code":"97205","name":"Case-Pilote","department":"972","center":{"lng":-61.1297,"lat":14.6594},"population":4524},{"code":"97227","name":"Sainte-Luce","department":"972","center":{"lng":-60.9467,"lat":14.4904},"population":9275},{"code":"97304","name":"Kourou","department":"973","center":{"lng":-52.7767,"lat":4.9085},"population":24470},{"code":"97403","name":"Entre-Deux","department":"974","center":{"lng":55.4937,"lat":-21.2108},"population":7115},{"code":"97601","name":"Acoua","department":"976","center":{"lng":45.0678,"lat":-12.7249},"population":5192}]