[{"code":"02619","name":"Prémontré","department":"02","center":{"lng":3.4153,"lat":49.5493},"population":596},{"code":"02718","name":"Silly-la-Poterie","department":"02","center":{"lng":3.1517,"lat":49.197},"population":114},{"code":"02817","name":"Ville-Savoye","department":"02","center":{"lng":3.6403,"lat":49.2942},"population":83},{"code":"10319","name":"Rigny-le-Ferron","department":"10","center":{"lng":3.6238,"lat":48.2022},"population":322},{"code":"10418","name":"Villemorien","department":"10","center":{"lng":4.2937,"lat":48.0793},"population":203},{"code":"11309","name":"Rennes-le-Château","department":"11","center":{"lng":2.2782,"lat":42.9154},"population":87},{"code":"11408","name":"Verzeille","department":"11","center":{"lng":2.3306,"lat":43.1209},"population":457},{"code":"14719","name":"Urville","department":"14","center":{"lng":-0.2967,"lat":49.0267},"population":761},{"code":"21209","name":"Couternon","department":"21","center":{"lng":5.1501,"lat":47.3303},"population":1903},{"code":"21308","name":"Grignon","department":"21","center":{"lng":4.4,"lat":47.5552},"population":191},{"code":"21407","name":"Messanges","department":"21","center":{"lng":4.8678,"lat":47.1621},"population":248},{"code":"21429","name":"Montigny-Montfort","department":"21","center":{"lng":4.3387,"lat":47.5851},"population":277},{"code":"21506","name":"Premeaux-Prissey","department":"21","center":{"lng":4.9411,"lat":47.1023},"population":372},{"code":"21528","name":"La Roche-Vanneau","department":"21","center":{"lng":4.5248,"lat":47.4665},"population":137},{"code":"21605","name":"Sennecey-lès-Dijon","department":"21","center":{"lng":5.1061,"lat":47.2922},"population":2125},{"code":"21627","name":"Thenissey","department":"21","center":{"lng":4.6211,"lat":47.4977},"population":91},{"code":"21649","name":"Uncey-le-Franc","department":"21","center":{"lng":4.5755,"lat":47.3446},"population":49},{"code":"21704","name":"Villiers-le-Duc","department":"21","center":{"lng":4.7032,"lat":47.7931},"population":111},{"code":"25609","name":"Verrières-de-Joux","department":"25","center":{"lng":6.4442,"lat":46.8865},"population":472},{"code":"2A094","name":"Corrano","department":"2A","center":{"lng":9.0732,"lat":41.8829},"population":76},{"code":"2A270","name":"Sari-d'Orcino","department":"2A","center":{"lng":8.8369,"lat":42.064},"population":351},{"code":"2B084","name":"Cateri","department":"2B","center":{"lng":8.897,"lat":42.5678},"population":249},{"code":"2B161","name":"Moïta","department":"2B","center":{"lng":9.4136,"lat":42.2802},"population":62},{"code":"2B183","name":"Ogliastro","department":"2B","center":{"lng":9.3565,"lat":42.8216},"population":90},{"code":"2B260","name":"Riventosa","department":"2B","center":{"lng":9.2061,"lat":42.2484},"population":150},{"code":"30119","name":"Fressac","department":"30","center":{"lng":3.923,"lat":43.9968},"population":161},{"code":"30218","name":"Rochegude","department":"30","center":{"lng":4.2837,"lat":44.2388},"population":246},{"code":"30317","name":"Sernhac","department":"30","center":{"lng":4.5575,"lat":43.9167},"population":1816},{"code":"30339","name":"Val-d'Aigoual","department":"30","center":{"lng":3.6272,"lat":44.081},"population":1418},{"code":"31109","name":"Cassagnabère-Tournas","department":"31","center":{"lng":0.8008,"lat":43.2296},"population":467},{"code":"31208","name":"Ganties","department":"31","center":{"lng":0.8379,"lat":43.0611},"population":305},{"code":"31329","name":"Maurens","department":"31","center":{"lng":1.7968,"lat":43.4668},"population":207},{"code":"31406","name":"Palaminy","department":"31","center":{"lng":1.059,"lat":43.1948},"population":772},{"code":"31428","name":"Polastron","department":"31","center":{"lng":0.9505,"lat":43.3193},"population":64},{"code":"31505","name":"Saint-Michel","department":"31","center":{"lng":1.0819,"lat":43.1613},"population":310},{"code":"31527","name":"La Salvetat-Lauragais","department":"31","center":{"lng":1.8013,"lat":43.5466},"population":149},{"code":"31549","name":"Sode","department":"31","center":{"lng":0.6399,"lat":42.8122},"population":20},{"code":"32319","name":"Plaisance","department":"32","center":{"lng":0.0475,"lat":43.6015},"population":1426},{"code":"32418","name":"Sauveterre","department":"32","center":{"lng":0.8503,"lat":43.4533},"population":281},{"code":"33309","name":"Ordonnac","department":"33","center":{"lng":-0.8385,"lat":45.3089},"population":487},{"code":"33408","name":"Saint-Genès-de-Lombaud","department":"33","center":{"lng":-0.3824,"lat":44.7539},"population":390},{"code":"33507","name":"Sauviac","department":"33","center":{"lng":-0.183,"lat":44.4001},"population":330},{"code":"33529","name":"La Teste-de-Buch","department":"33","center":{"lng":-1.1809,"lat":44.586},"population":27141},{"code":"40019","name":"Aureilhan","department":"40","center":{"lng":-1.192,"lat":44.2094},"population":1117},{"code":"40118","name":"Habas","department":"40","center":{"lng":-0.932,"lat":43.5651},"population":1464},{"code":"40217","name":"Parentis-en-Born","department":"40","center":{"lng":-1.0879,"lat":44.3527},"population":7463},{"code":"40239","name":"Puyol-Cazalet","department":"40","center":{"lng":-0.4034,"lat":43.6059},"population":104},{"code":"40316","name":"Tilh","department":"40","center":{"lng":-0.8336,"lat":43.5819},"population":841},{"code":"41009","name":"Averdon","department":"41","center":{"lng":1.3038,"lat":47.6875},"population":677},{"code":"41108","name":"Lancôme","department":"41","center":{"lng":1.1327,"lat":47.6524},"population":121},{"code":"41207","name":"Saint-Dyé-sur-Loire","department":"41","center":{"lng":1.4961,"lat":47.6512},"population":1155},{"code":"41229","name":"Saint-Romain-sur-Cher","department":"41","center":{"lng":1.3902,"lat":47.3169},"population":1458},{"code":"42219","name":"Saint-Étienne-le-Molard","department":"42","center":{"lng":4.0997,"lat":45.743},"population":1032},{"code":"42318","name":"Usson-en-Forez","department":"42","center":{"lng":3.937,"lat":45.3847},"population":1461},{"code":"50117","name":"Champeaux","department":"50","center":{"lng":-1.5259,"lat":48.7405},"population":341},{"code":"50139","name":"Condé-sur-Vire","department":"50","center":{"lng":-1.0409,"lat":49.0503},"population":4136},{"code":"50216","name":"Graignes-Mesnil-Angot","department":"50","center":{"lng":-1.1961,"lat":49.2358},"population":800},{"code":"50238","name":"Héauville","department":"50","center":{"lng":-1.8044,"lat":49.5744},"population":462},{"code":"50315","name":"Le Mesnillard","department":"50","center":{"lng":-1.0801,"lat":48.632},"population":251},{"code":"50359","name":"Mortain-Bocage","department":"50","center":{"lng":-0.9259,"lat":48.6077},"population":2954},{"code":"50436","name":"Romagny Fontenay","department":"50","center":{"lng":-0.9934,"lat":48.6317},"population":1247},{"code":"50513","name":"Saint-Martin-de-Cenilly","department":"50","center":{"lng":-1.286,"lat":48.9782},"population":206},{"code":"50535","name":"Le Parc","department":"50","center":{"lng":-1.2904,"lat":48.7515},"population":907},{"code":"50579","name":"Sottevast","department":"50","center":{"lng":-1.605,"lat":49.5208},"population":1455},{"code":"50612","name":"Vains","department":"50","center":{"lng":-1.4255,"lat":48.6741},"population":760},{"code":"50634","name":"Videcosville","department":"50","center":{"lng":-1.3712,"lat":49.5673},"population":88},{"code":"51008","name":"Ambrières","department":"51","center":{"lng":4.8276,"lat":48.6285},"population":212},{"code":"51107","name":"Chaintrix-Bierges","department":"51","center":{"lng":4.1088,"lat":48.8934},"population":344},{"code":"51129","name":"Charleville","department":"51","center":{"lng":3.6535,"lat":48.8028},"population":260},{"code":"51206","name":"Dampierre-le-Château","department":"51","center":{"lng":4.7957,"lat":49.007},"population":117},{"code":"51228","name":"Élise-Daucourt","department":"51","center":{"lng":4.8658,"lat":49.0425},"population":81},{"code":"51305","name":"Janvry","department":"51","center":{"lng":3.875,"lat":49.2461},"population":146},{"code":"51327","name":"Loisy-en-Brie","department":"51","center":{"lng":3.8951,"lat":48.8953},"population":173},{"code":"51349","name":"Margerie-Hancourt","department":"51","center":{"lng":4.5508,"lat":48.5504},"population":181},{"code":"51404","name":"Noirlieu","department":"51","center":{"lng":4.8038,"lat":48.9397},"population":110},{"code":"51426","name":"Péas","department":"51","center":{"lng":3.777,"lat":48.7366},"population":65},{"code":"51448","name":"Prouilly","department":"51","center":{"lng":3.8446,"lat":49.2958},"population":549},{"code":"51503","name":"Saint-Martin-l'Heureux","department":"51","center":{"lng":4.3818,"lat":49.2467},"population":91},{"code":"51525","name":"Sarry","department":"51","center":{"lng":4.4148,"lat":48.9259},"population":2028},{"code":"51547","name":"Somme-Tourbe","department":"51","center":{"lng":4.6568,"lat":49.0955},"population":141},{"code":"51569","name":"Thillois","department":"51","center":{"lng":3.9483,"lat":49.2607},"population":519},{"code":"51602","name":"Vavray-le-Petit","department":"51","center":{"lng":4.7185,"lat":48.8073},"population":61},{"code":"51624","name":"Ville-en-Tardenois","department":"51","center":{"lng":3.7977,"lat":49.1791},"population":648},{"code":"51646","name":"Virginy","department":"51","center":{"lng":4.7612,"lat":49.1665},"population":83},{"code":"52119","name":"Chaudenay","department":"52","center":{"lng":5.5071,"lat":47.821},"population":340},{"code":"52218","name":"Germay","department":"52","center":{"lng":5.3726,"lat":48.4074},"population":49},{"code":"52416","name":"Rangecourt","department":"52","center":{"lng":5.4861,"lat":48.0427},"population":62},{"code":"52438","name":"Rougeux","department":"52","center":{"lng":5.5717,"lat":47.8099},"population":114},{"code":"52515","name":"Verseilles-le-Bas","department":"52","center":{"lng":5.2837,"lat":47.7623},"population":111},{"code":"53109","name":"Grazay","department":"53","center":{"lng":-0.4766,"lat":48.2871},"population":626},{"code":"53208","name":"Saint-Cyr-en-Pail","department":"53","center":{"lng":-0.2518,"lat":48.4369},"population":502},{"code":"54418","name":"Parroy","department":"54","center":{"lng":6.6107,"lat":48.6733},"population":179},{"code":"54517","name":"Thézey-Saint-Martin","department":"54","center":{"lng":6.3039,"lat":48.9016},"population":201},{"code":"54539","name":"Vacqueville","department":"54","center":{"lng":6.8162,"lat":48.4792},"population":222},{"code":"55408","name":"Pouilly-sur-Meuse","department":"55","center":{"lng":5.1227,"lat":49.5387},"population":172},{"code":"55507","name":"Thillot","department":"55","center":{"lng":5.667,"lat":49.0246},"population":206},{"code":"57509","name":"Nitting","department":"57","center":{"lng":7.0482,"lat":48.6601},"population":514},{"code":"57707","name":"Vernéville","department":"57","center":{"lng":6.0085,"lat":49.1362},"population":676},{"code":"60017","name":"Ansauvillers","department":"60","center":{"lng":2.3865,"lat":49.567},"population":1140},{"code":"60039","name":"Bacouël","department":"60","center":{"lng":2.3805,"lat":49.6231},"population":479},{"code":"60116","name":"Bury","department":"60","center":{"lng":2.3613,"lat":49.3127},"population":2876},{"code":"60138","name":"Chamant","department":"60","center":{"lng":2.6228,"lat":49.2276},"population":1037},{"code":"60215","name":"Erquery","department":"60","center":{"lng":2.4512,"lat":49.4112},"population":592},{"code":"60237","name":"Fléchy","department":"60","center":{"lng":2.2319,"lat":49.6596},"population":87},{"code":"60259","name":"Fresnoy-en-Thelle","department":"60","center":{"lng":2.2594,"lat":49.1983},"population":874},{"code":"60314","name":"Hétomesnil","department":"60","center":{"lng":2.0436,"lat":49.6307},"population":321},{"code":"60336","name":"Lachaussée-du-Bois-d'Écu","department":"60","center":{"lng":2.1751,"lat":49.5616},"population":184},{"code":"60358","name":"Lévignen","department":"60","center":{"lng":2.9131,"lat":49.1976},"population":1014},{"code":"60413","name":"Montagny-Sainte-Félicité","department":"60","center":{"lng":2.7471,"lat":49.1293},"population":431},{"code":"60435","name":"Morvillers","department":"60","center":{"lng":1.8686,"lat":49.5842},"population":504},{"code":"60457","name":"La Neuville-Saint-Pierre","department":"60","center":{"lng":2.198,"lat":49.533},"population":162},{"code":"60479","name":"Ormoy-Villers","department":"60","center":{"lng":2.8482,"lat":49.1991},"population":795},{"code":"60512","name":"Pouilly","department":"60","center":{"lng":2.0299,"lat":49.2765},"population":153},{"code":"60534","name":"Rethondes","department":"60","center":{"lng":2.9472,"lat":49.4347},"population":649},{"code":"60556","name":"Royaucourt","department":"60","center":{"lng":2.5296,"lat":49.6141},"population":211},{"code":"60578","name":"Saintines","department":"60","center":{"lng":2.7707,"lat":49.3006},"population":1062},{"code":"60611","name":"Senantes","department":"60","center":{"lng":1.8336,"lat":49.4818},"population":583},{"code":"60633","name":"Thieuloy-Saint-Antoine","department":"60","center":{"lng":1.9457,"lat":49.6347},"population":381},{"code":"60655","name":"Varesnes","department":"60","center":{"lng":3.0772,"lat":49.5553},"population":365},{"code":"60677","name":"Villembray","department":"60","center":{"lng":1.8729,"lat":49.4828},"population":248},{"code":"60699","name":"Wambez","department":"60","center":{"lng":1.8437,"lat":49.5217},"population":162},{"code":"61007","name":"Athis-Val de Rouvre","department":"61","center":{"lng":-0.4621,"lat":48.7934},"population":4208},{"code":"61029","name":"Bazoches-sur-Hoëne","department":"61","center":{"lng":0.4644,"lat":48.5509},"population":833},{"code":"61227","name":"Lignou","department":"61","center":{"lng":-0.345,"lat":48.6756},"population":139},{"code":"61304","name":"Neuilly-le-Bisson","department":"61","center":{"lng":0.2186,"lat":48.505},"population":275},{"code":"61326","name":"Perrou","department":"61","center":{"lng":-0.5469,"lat":48.5753},"population":325},{"code":"61348","name":"Réveillon","department":"61","center":{"lng":0.5595,"lat":48.4808},"population":356},{"code":"61425","name":"Saint-Martin-des-Pézerits","department":"61","center":{"lng":0.489,"lat":48.6285},"population":121},{"code":"61447","name":"Saint-Pierre-du-Regard","department":"61","center":{"lng":-0.5399,"lat":48.8322},"population":1335},{"code":"61502","name":"Vidai","department":"61","center":{"lng":0.3724,"lat":48.46},"population":73},{"code":"62019","name":"Aix-Noulette","department":"62","center":{"lng":2.7125,"lat":50.4231},"population":3915},{"code":"62118","name":"Béthonsart","department":"62","center":{"lng":2.5428,"lat":50.3818},"population":150},{"code":"62217","name":"Cauchy-à-la-Tour","department":"62","center":{"lng":2.4505,"lat":50.5057},"population":2645},{"code":"62239","name":"Coquelles","department":"62","center":{"lng":1.8226,"lat":50.9279},"population":2625},{"code":"62316","name":"Estrée-Wamin","department":"62","center":{"lng":2.3951,"lat":50.2691},"population":218},{"code":"62338","name":"Fleurbaix","department":"62","center":{"lng":2.8304,"lat":50.6407},"population":2944},{"code":"62415","name":"Haute-Avesnes","department":"62","center":{"lng":2.6395,"lat":50.3301},"population":462},{"code":"62437","name":"Herly","department":"62","center":{"lng":1.9926,"lat":50.5434},"population":319},{"code":"62459","name":"Houvin-Houvigneul","department":"62","center":{"lng":2.3763,"lat":50.2951},"population":244},{"code":"62514","name":"Ligny-Saint-Flochel","department":"62","center":{"lng":2.4244,"lat":50.3599},"population":238},{"code":"62536","name":"Magnicourt-en-Comte","department":"62","center":{"lng":2.4815,"lat":50.4026},"population":645},{"code":"62558","name":"Marquay","department":"62","center":{"lng":2.4252,"lat":50.3791},"population":173},{"code":"62613","name":"Nielles-lès-Bléquin","department":"62","center":{"lng":2.0246,"lat":50.6753},"population":913},{"code":"62635","name":"Offin","department":"62","center":{"lng":1.9532,"lat":50.4438},"population":203},{"code":"62657","name":"Pihen-lès-Guînes","department":"62","center":{"lng":1.7904,"lat":50.8728},"population":530},{"code":"62679","name":"Questrecques","department":"62","center":{"lng":1.7491,"lat":50.6647},"population":333},{"code":"62712","name":"Rivière","department":"62","center":{"lng":2.6866,"lat":50.232},"population":1124},{"code":"62734","name":"Sailly-en-Ostrevent","department":"62","center":{"lng":2.9924,"lat":50.286},"population":667},{"code":"62756","name":"Sainte-Marie-Kerque","department":"62","center":{"lng":2.1534,"lat":50.9014},"population":1715},{"code":"62778","name":"Sars-le-Bois","department":"62","center":{"lng":2.4301,"lat":50.2972},"population":79},{"code":"62811","name":"Thérouanne","department":"62","center":{"lng":2.2532,"lat":50.6272},"population":1128},{"code":"62833","name":"Vacquerie-le-Boucq","department":"62","center":{"lng":2.2081,"lat":50.27},"population":70},{"code":"62855","name":"Villers-au-Flos","department":"62","center":{"lng":2.9046,"lat":50.0805},"population":243},{"code":"62877","name":"Warlincourt-lès-Pas","department":"62","center":{"lng":2.5055,"lat":50.1805},"population":165},{"code":"62899","name":"Wissant","department":"62","center":{"lng":1.6749,"lat":50.8876},"population":847},{"code":"63009","name":"Ardes","department":"63","center":{"lng":3.127,"lat":45.3978},"population":599},{"code":"63108","name":"Le Cheix-sur-Morge","department":"63","center":{"lng":3.1826,"lat":45.9563},"population":689},{"code":"63207","name":"Marat","department":"63","center":{"lng":3.6812,"lat":45.6767},"population":805},{"code":"63229","name":"Moissat","department":"63","center":{"lng":3.3482,"lat":45.7779},"population":1256},{"code":"63306","name":"La Roche-Noire","department":"63","center":{"lng":3.2228,"lat":45.7147},"population":630},{"code":"63328","name":"Sainte-Catherine","department":"63","center":{"lng":3.4785,"lat":45.4526},"population":55},{"code":"63405","name":"Sallèdes","department":"63","center":{"lng":3.3265,"lat":45.6463},"population":566},{"code":"63427","name":"Teilhède","department":"63","center":{"lng":3.0533,"lat":45.9625},"population":519},{"code":"63449","name":"Le Vernet-Sainte-Marguerite","department":"63","center":{"lng":2.9234,"lat":45.6183},"population":329},{"code":"64219","name":"Estialescq","department":"64","center":{"lng":-0.5539,"lat":43.2236},"population":260},{"code":"64318","name":"Larreule","department":"64","center":{"lng":-0.4686,"lat":43.4742},"population":192},{"code":"64417","name":"Nay","department":"64","center":{"lng":-0.2624,"lat":43.1766},"population":3203},{"code":"64439","name":"Ousse","department":"64","center":{"lng":-0.2674,"lat":43.2765},"population":1667},{"code":"64516","name":"Sedzère","department":"64","center":{"lng":-0.1832,"lat":43.3429},"population":391},{"code":"64538","name":"Uhart-Cize","department":"64","center":{"lng":-1.2537,"lat":43.1289},"population":795},{"code":"65209","name":"Grézian","department":"65","center":{"lng":0.3531,"lat":42.8722},"population":82},{"code":"65308","name":"Mazerolles","department":"65","center":{"lng":0.2863,"lat":43.3542},"population":110},{"code":"65407","name":"Sarp","department":"65","center":{"lng":0.577,"lat":43.0172},"population":106},{"code":"65429","name":"Sombrun","department":"65","center":{"lng":-0.0017,"lat":43.4816},"population":198},{"code":"67409","name":"Roppenheim","department":"67","center":{"lng":8.0687,"lat":48.8377},"population":1039},{"code":"67508","name":"Vœllerdingen","department":"67","center":{"lng":7.1322,"lat":48.9722},"population":419},{"code":"70016","name":"Amont-et-Effreney","department":"70","center":{"lng":6.563,"lat":47.8672},"population":166},{"code":"70038","name":"Authoison","department":"70","center":{"lng":6.1492,"lat":47.4886},"population":314},{"code":"70115","name":"Cerre-lès-Noroy","department":"70","center":{"lng":6.3179,"lat":47.587},"population":238},{"code":"70137","name":"Chassey-lès-Montbozon","department":"70","center":{"lng":6.3243,"lat":47.5241},"population":230},{"code":"70159","name":"Cognières","department":"70","center":{"lng":6.2858,"lat":47.4981},"population":101},{"code":"70214","name":"Équevilley","department":"70","center":{"lng":6.182,"lat":47.7776},"population":120},{"code":"70236","name":"Fleurey-lès-Faverney","department":"70","center":{"lng":6.0861,"lat":47.7406},"population":454},{"code":"70258","name":"Froideconche","department":"70","center":{"lng":6.4187,"lat":47.8366},"population":1974},{"code":"70313","name":"Lyoffans","department":"70","center":{"lng":6.5922,"lat":47.6454},"population":443},{"code":"70335","name":"Maussans","department":"70","center":{"lng":6.2464,"lat":47.4374},"population":56},{"code":"70357","name":"Montbozon","department":"70","center":{"lng":6.2569,"lat":47.4617},"population":545},{"code":"70412","name":"Plainemont","department":"70","center":{"lng":6.2176,"lat":47.8469},"population":66},{"code":"70456","name":"Ruhans","department":"70","center":{"lng":6.1365,"lat":47.4613},"population":149},{"code":"70478","name":"Saulx","department":"70","center":{"lng":6.2785,"lat":47.6945},"population":875},{"code":"70511","name":"Vaite","department":"70","center":{"lng":5.7113,"lat":47.583},"population":229},{"code":"70533","name":"Vellefrey-et-Vellefrange","department":"70","center":{"lng":5.8156,"lat":47.4426},"population":112},{"code":"70555","name":"La Villedieu-en-Fontenette","department":"70","center":{"lng":6.2018,"lat":47.7748},"population":167},{"code":"70577","name":"Vouhenans","department":"70","center":{"lng":6.4982,"lat":47.6419},"population":381},{"code":"71006","name":"Amanzé","department":"71","center":{"lng":4.2364,"lat":46.3261},"population":195},{"code":"71028","name":"Beauvernois","department":"71","center":{"lng":5.4374,"lat":46.8436},"population":103},{"code":"71105","name":"Charnay-lès-Mâcon","department":"71","center":{"lng":4.7887,"lat":46.3054},"population":8154},{"code":"71127","name":"Chevagny-sur-Guye","department":"71","center":{"lng":4.4978,"lat":46.5392},"population":51},{"code":"71149","name":"Couches","department":"71","center":{"lng":4.5743,"lat":46.8743},"population":1211},{"code":"71204","name":"Fragnes-La Loyère","department":"71","center":{"lng":4.8374,"lat":46.8404},"population":1434},{"code":"71226","name":"Grevilly","department":"71","center":{"lng":4.8189,"lat":46.5142},"population":26},{"code":"71248","name":"Lacrost","department":"71","center":{"lng":4.9402,"lat":46.5723},"population":695},{"code":"71303","name":"Montagny-près-Louhans","department":"71","center":{"lng":5.2837,"lat":46.655},"population":496},{"code":"71325","name":"La Motte-Saint-Jean","department":"71","center":{"lng":3.9548,"lat":46.5217},"population":1186},{"code":"71347","name":"Perreuil","department":"71","center":{"lng":4.5687,"lat":46.8219},"population":565},{"code":"71369","name":"Remigny","department":"71","center":{"lng":4.7237,"lat":46.9102},"population":411},{"code":"71402","name":"Saint-Cyr","department":"71","center":{"lng":4.9031,"lat":46.6797},"population":765},{"code":"71424","name":"Saint-Gervais-sur-Couches","department":"71","center":{"lng":4.5631,"lat":46.9216},"population":209},{"code":"71446","name":"Saint-Marcelin-de-Cray","department":"71","center":{"lng":4.5194,"lat":46.5701},"population":196},{"code":"71468","name":"Saint-Pierre-de-Varennes","department":"71","center":{"lng":4.5123,"lat":46.8422},"population":837},{"code":"71501","name":"Sassangy","department":"71","center":{"lng":4.6434,"lat":46.7246},"population":141},{"code":"71523","name":"Simard","department":"71","center":{"lng":5.1795,"lat":46.7175},"population":1175},{"code":"71545","name":"Tramayes","department":"71","center":{"lng":4.6013,"lat":46.3069},"population":1067},{"code":"71567","name":"Vergisson","department":"71","center":{"lng":4.7117,"lat":46.3094},"population":233},{"code":"71589","name":"Vitry-sur-Loire","department":"71","center":{"lng":3.7151,"lat":46.6802},"population":423},{"code":"72018","name":"Avesnes-en-Saosnois","department":"72","center":{"lng":0.3597,"lat":48.2681},"population":88},{"code":"72139","name":"Fyé","department":"72","center":{"lng":0.0825,"lat":48.3241},"population":995},{"code":"72216","name":"Neuvillalais","department":"72","center":{"lng":-0.0064,"lat":48.1543},"population":593},{"code":"72238","name":"Pizieux","department":"72","center":{"lng":0.3324,"lat":48.3219},"population":74},{"code":"72315","name":"Saint-Rémy-de-Sillé","department":"72","center":{"lng":-0.1034,"lat":48.1844},"population":832},{"code":"72337","name":"Sougé-le-Ganelon","department":"72","center":{"lng":-0.0425,"lat":48.3158},"population":832},{"code":"72359","name":"Torcé-en-Vallée","department":"72","center":{"lng":0.3934,"lat":48.1326},"population":1412},{"code":"73008","name":"Aix-les-Bains","department":"73","center":{"lng":5.9035,"lat":45.6943},"population":32175},{"code":"73107","name":"Entremont-le-Vieux","department":"73","center":{"lng":5.8808,"lat":45.4634},"population":646},{"code":"73129","name":"Grésy-sur-Isère","department":"73","center":{"lng":6.245,"lat":45.6025},"population":1197},{"code":"73206","name":"Pralognan-la-Vanoise","department":"73","center":{"lng":6.7305,"lat":45.3431},"population":700},{"code":"73228","name":"Saint-Cassin","department":"73","center":{"lng":5.8792,"lat":45.5217},"population":1009},{"code":"73327","name":"Vions","department":"73","center":{"lng":5.8077,"lat":45.8281},"population":426},{"code":"74119","name":"Évian-les-Bains","department":"74","center":{"lng":6.5911,"lat":46.3911},"population":9224},{"code":"74218","name":"Publier","department":"74","center":{"lng":6.5428,"lat":46.3914},"population":7793},{"code":"76319","name":"Grand-Couronne","department":"76","center":{"lng":1.0097,"lat":49.3508},"population":9722},{"code":"76418","name":"Maulévrier-Sainte-Gertrude","department":"76","center":{"lng":0.7049,"lat":49.555},"population":1052},{"code":"76517","name":"Quincampoix","department":"76","center":{"lng":1.1738,"lat":49.5172},"population":3118},{"code":"76616","name":"Saint-Martin-du-Manoir","department":"76","center":{"lng":0.2332,"lat":49.5389},"population":1496},{"code":"76638","name":"Saint-Pierre-en-Val","department":"76","center":{"lng":1.4447,"lat":50.0114},"population":1091},{"code":"76715","name":"Trouville","department":"76","center":{"lng":0.6015,"lat":49.5843},"population":617},{"code":"76737","name":"Vibeuf","department":"76","center":{"lng":0.9137,"lat":49.6879},"population":621},{"code":"76759","name":"Yville-sur-Seine","department":"76","center":{"lng":0.8846,"lat":49.4098},"population":424},{"code":"77309","name":"Monthyon","department":"77","center":{"lng":2.8345,"lat":49.0097},"population":1747},{"code":"77408","name":"Saint-Fiacre","department":"77","center":{"lng":2.9528,"lat":48.9234},"population":490},{"code":"77507","name":"Villenauxe-la-Petite","department":"77","center":{"lng":3.312,"lat":48.4016},"population":453},{"code":"77529","name":"Voulangis","department":"77","center":{"lng":2.892,"lat":48.8382},"population":1504},{"code":"78618","name":"Tilly","department":"78","center":{"lng":1.5764,"lat":48.8785},"population":529},{"code":"80015","name":"Aizecourt-le-Haut","department":"80","center":{"lng":2.9836,"lat":49.9682},"population":67},{"code":"80037","name":"Aubvillers","department":"80","center":{"lng":2.4787,"lat":49.7108},"population":167},{"code":"80059","name":"Bazentin","department":"80","center":{"lng":2.7651,"lat":50.0287},"population":82},{"code":"80114","name":"Bosquel","department":"80","center":{"lng":2.2115,"lat":49.7374},"population":346},{"code":"80136","name":"Bray-sur-Somme","department":"80","center":{"lng":2.7184,"lat":49.9479},"population":1191},{"code":"80158","name":"Buverchy","department":"80","center":{"lng":2.9699,"lat":49.7265},"population":45},{"code":"80213","name":"Cottenchy","department":"80","center":{"lng":2.3609,"lat":49.8102},"population":555},{"code":"80235","name":"Dargnies","department":"80","center":{"lng":1.5312,"lat":50.0425},"population":1150},{"code":"80279","name":"Ercheu","department":"80","center":{"lng":2.9488,"lat":49.6944},"population":754},{"code":"80312","name":"Fins","department":"80","center":{"lng":3.0453,"lat":50.0376},"population":279},{"code":"80334","name":"Fossemanant","department":"80","center":{"lng":2.1901,"lat":49.8022},"population":101},{"code":"80356","name":"Fresnoy-Andainville","department":"80","center":{"lng":1.7912,"lat":49.9097},"population":94},{"code":"80378","name":"Ginchy","department":"80","center":{"lng":2.8346,"lat":50.0188},"population":73},{"code":"80411","name":"Le Hamel","department":"80","center":{"lng":2.5794,"lat":49.8953},"population":488},{"code":"80433","name":"Herly","department":"80","center":{"lng":2.87,"lat":49.7526},"population":40},{"code":"80455","name":"Lachapelle","department":"80","center":{"lng":1.9577,"lat":49.7603},"population":89},{"code":"80477","name":"Ligescourt","department":"80","center":{"lng":1.8744,"lat":50.2914},"population":222},{"code":"80499","name":"Mailly-Raineval","department":"80","center":{"lng":2.4512,"lat":49.7414},"population":303},{"code":"80554","name":"Molliens-Dreuil","department":"80","center":{"lng":2.0141,"lat":49.8797},"population":924},{"code":"80576","name":"Moyencourt","department":"80","center":{"lng":2.9471,"lat":49.7237},"population":330},{"code":"80598","name":"Nouvion","department":"80","center":{"lng":1.7822,"lat":50.2155},"population":1207},{"code":"80631","name":"Ponches-Estruval","department":"80","center":{"lng":1.8721,"lat":50.3097},"population":117},{"code":"80675","name":"Rogy","department":"80","center":{"lng":2.2063,"lat":49.7136},"population":143},{"code":"80697","name":"Saint-Acheul","department":"80","center":{"lng":2.163,"lat":50.1907},"population":36},{"code":"80730","name":"Saveuse","department":"80","center":{"lng":2.2076,"lat":49.8942},"population":1086},{"code":"80752","name":"Thézy-Glimont","department":"80","center":{"lng":2.437,"lat":49.8227},"population":666},{"code":"80774","name":"Vaire-sous-Corbie","department":"80","center":{"lng":2.5465,"lat":49.8971},"population":289},{"code":"80796","name":"Villeroy","department":"80","center":{"lng":1.7264,"lat":49.9399},"population":175},{"code":"81005","name":"Albine","department":"81","center":{"lng":2.5299,"lat":43.4478},"population":512},{"code":"81027","name":"Belleserre","department":"81","center":{"lng":2.0622,"lat":43.4902},"population":165},{"code":"81049","name":"Cahuzac","department":"81","center":{"lng":2.0797,"lat":43.4765},"population":360},{"code":"81104","name":"Giroussens","department":"81","center":{"lng":1.794,"lat":43.7715},"population":1543},{"code":"81126","name":"Lacougotte-Cadoul","department":"81","center":{"lng":1.8191,"lat":43.6416},"population":178},{"code":"81148","name":"Loubers","department":"81","center":{"lng":1.891,"lat":44.0389},"population":94},{"code":"81203","name":"Paulinet","department":"81","center":{"lng":2.431,"lat":43.8402},"population":506},{"code":"81225","name":"Rivières","department":"81","center":{"lng":1.965,"lat":43.9132},"population":1065},{"code":"81247","name":"Saint-Cirgue","department":"81","center":{"lng":2.3675,"lat":43.9699},"population":219},{"code":"81269","name":"Saint-Salvy-de-la-Balme","department":"81","center":{"lng":2.3775,"lat":43.6108},"population":528},{"code":"81302","name":"Tréban","department":"81","center":{"lng":2.3452,"lat":44.0924},"population":58},{"code":"81324","name":"Viviers-lès-Lavaur","department":"81","center":{"lng":1.794,"lat":43.6287},"population":265},{"code":"82017","name":"Bessens","department":"82","center":{"lng":1.2685,"lat":43.8859},"population":1470},{"code":"82039","name":"Cayrac","department":"82","center":{"lng":1.4795,"lat":44.1043},"population":562},{"code":"82116","name":"Montagudet","department":"82","center":{"lng":1.087,"lat":44.2468},"population":197},{"code":"82138","name":"Perville","department":"82","center":{"lng":0.8801,"lat":44.1788},"population":169},{"code":"83007","name":"Aups","department":"83","center":{"lng":6.2139,"lat":43.6283},"population":2254},{"code":"83029","name":"Callian","department":"83","center":{"lng":6.7601,"lat":43.6069},"population":3794},{"code":"83106","name":"Rocbaron","department":"83","center":{"lng":6.0869,"lat":43.3062},"population":5489},{"code":"83128","name":"Sillans-la-Cascade","department":"83","center":{"lng":6.1549,"lat":43.565},"population":783},{"code":"84019","name":"Bollène","department":"84","center":{"lng":4.751,"lat":44.2885},"population":13871},{"code":"84118","name":"Saint-Saturnin-lès-Apt","department":"84","center":{"lng":5.3566,"lat":43.961},"population":2986},{"code":"85009","name":"Auchay-sur-Vendée","department":"85","center":{"lng":-0.8739,"lat":46.4366},"population":1118},{"code":"85108","name":"L'Herbergement","department":"85","center":{"lng":-1.3745,"lat":46.9153},"population":3437},{"code":"85207","name":"Saint-Denis-du-Payré","department":"85","center":{"lng":-1.2769,"lat":46.4085},"population":413},{"code":"85229","name":"Saint-Hilaire-de-Voust","department":"85","center":{"lng":-0.6513,"lat":46.589},"population":628},{"code":"85306","name":"Xanton-Chassenon","department":"85","center":{"lng":-0.7027,"lat":46.453},"population":743},{"code":"88419","name":"Saint-Jean-d'Ormont","department":"88","center":{"lng":6.9895,"lat":48.3312},"population":128},{"code":"88518","name":"Viviers-lès-Offroicourt","department":"88","center":{"lng":6.017,"lat":48.2693},"population":27},{"code":"89409","name":"Tharoiseau","department":"89","center":{"lng":3.8171,"lat":47.4645},"population":62},{"code":"90014","name":"Boron","department":"90","center":{"lng":7.016,"lat":47.5556},"population":490},{"code":"90036","name":"Eguenigue","department":"90","center":{"lng":6.9351,"lat":47.6785},"population":270},{"code":"90058","name":"Lachapelle-sous-Rougemont","department":"90","center":{"lng":7.0149,"lat":47.7152},"population":554},{"code":"91103","name":"Brétigny-sur-Orge","department":"91","center":{"lng":2.2989,"lat":48.601},"population":26658},{"code":"91345","name":"Longjumeau","department":"91","center":{"lng":2.3057,"lat":48.6923},"population":20470},{"code":"91521","name":"Ris-Orangis","department":"91","center":{"lng":2.4104,"lat":48.6457},"population":30283},{"code":"91587","name":"Saulx-les-Chartreux","department":"91","center":{"lng":2.2648,"lat":48.6869},"population":6611},{"code":"93006","name":"Bagnolet","department":"93","center":{"lng":2.4252,"lat":48.8671},"population":41776},{"code":"94018","name":"Charenton-le-Pont","department":"94","center":{"lng":2.405,"lat":48.8229},"population":28756},{"code":"95008","name":"Aincourt","department":"95","center":{"lng":1.773,"lat":49.0733},"population":870},{"code":"95426","name":"Montlignon","department":"95","center":{"lng":2.2882,"lat":49.0157},"population":2966},{"code":"97109","name":"Gourbeyre","department":"971","center":{"lng":-61.689,"lat":16.0057},"population":7378},{"code":"97208","name":"Fonds-Saint-Denis","department":"972","center":{"lng":-61.1207,"lat":14.7228},"population":641},{"code":"97307","name":"Matoury","department":"973","center":{"lng":-52.3498,"lat":4.8281},"population":35551},{"code":"97406","name":"La Plaine-des-Palmistes","department":"974","center":{"lng":55.6442,"lat":-21.153},"population":6920},{"code":"97604","name":"Bouéni","department":"976","center":{"lng":45.1021,"lat":-12.9279},"population":6189}]