[{"code":"03091","name":"Créchy","department":"03","center":{"lng":3.4228,"lat":46.2692},"population":430},{"code":"03190","name":"Moulins","department":"03","center":{"lng":3.3255,"lat":46.5591},"population":19344},{"code":"04081","name":"Esparron-de-Verdon","department":"04","center":{"lng":5.9948,"lat":43.74},"population":382},{"code":"04180","name":"Saint-Jacques","department":"04","center":{"lng":6.369,"lat":43.9759},"population":72},{"code":"05071","name":"Lardier-et-Valença","department":"05","center":{"lng":5.9721,"lat":44.4372},"population":371},{"code":"05093","name":"Névache","department":"05","center":{"lng":6.616,"lat":45.0487},"population":360},{"code":"05170","name":"Tallard","department":"05","center":{"lng":6.0485,"lat":44.4599},"population":2272},{"code":"06061","name":"Les Ferres","department":"06","center":{"lng":7.0966,"lat":43.8424},"population":93},{"code":"06083","name":"Menton","department":"06","center":{"lng":7.498,"lat":43.7961},"population":30326},{"code":"06160","name":"Villeneuve-d'Entraunes","department":"06","center":{"lng":6.774,"lat":44.1301},"population":87},{"code":"07051","name":"Champagne","department":"07","center":{"lng":4.7979,"lat":45.277},"population":621},{"code":"07073","name":"Le Crestet","department":"07","center":{"lng":4.6322,"lat":45.0115},"population":522},{"code":"07095","name":"Gilhoc-sur-Ormèze","department":"07","center":{"lng":4.6757,"lat":44.9882},"population":473},{"code":"07150","name":"Mariac","department":"07","center":{"lng":4.351,"lat":44.8877},"population":541},{"code":"07172","name":"Peaugres","department":"07","center":{"lng":4.7335,"lat":45.2827},"population":2353},{"code":"07194","name":"Rochessauve","department":"07","center":{"lng":4.6063,"lat":44.6779},"population":484},{"code":"07293","name":"Saint-Romain-de-Lerps","department":"07","center":{"lng":4.7952,"lat":44.9768},"population":989},{"code":"08041","name":"Baâlons","department":"08","center":{"lng":4.6636,"lat":49.6011},"population":208},{"code":"08063","name":"La Besace","department":"08","center":{"lng":4.9661,"lat":49.5541},"population":134},{"code":"08085","name":"Brieulles-sur-Bar","department":"08","center":{"lng":4.865,"lat":49.4802},"population":224},{"code":"08140","name":"Dom-le-Mesnil","department":"08","center":{"lng":4.8125,"lat":49.684},"population":1053},{"code":"08162","name":"Fagnon","department":"08","center":{"lng":4.612,"lat":49.7305},"population":341},{"code":"08184","name":"Fromy","department":"08","center":{"lng":5.2549,"lat":49.6027},"population":85},{"code":"08283","name":"Mazerny","department":"08","center":{"lng":4.6195,"lat":49.6089},"population":128},{"code":"08360","name":"Renneville","department":"08","center":{"lng":4.14,"lat":49.6529},"population":192},{"code":"08382","name":"Saint-Jean-aux-Bois","department":"08","center":{"lng":4.3068,"lat":49.7229},"population":93},{"code":"08481","name":"Villers-sur-Bar","department":"08","center":{"lng":4.8553,"lat":49.682},"population":240},{"code":"09031","name":"Axiat","department":"09","center":{"lng":1.7626,"lat":42.7996},"population":39},{"code":"09053","name":"Bestiac","department":"09","center":{"lng":1.8002,"lat":42.7836},"population":30},{"code":"09075","name":"Campagne-sur-Arize","department":"09","center":{"lng":1.3176,"lat":43.1194},"population":286},{"code":"09097","name":"Clermont","department":"09","center":{"lng":1.2887,"lat":43.0387},"population":118},{"code":"09130","name":"Ganac","department":"09","center":{"lng":1.5546,"lat":42.9327},"population":746},{"code":"09152","name":"Lapège","department":"09","center":{"lng":1.5558,"lat":42.8026},"population":18},{"code":"09174","name":"Loubières","department":"09","center":{"lng":1.5949,"lat":43.0091},"population":359},{"code":"09196","name":"Montagagne","department":"09","center":{"lng":1.4126,"lat":42.963},"population":82},{"code":"09251","name":"Roumengoux","department":"09","center":{"lng":1.9252,"lat":43.0771},"population":169},{"code":"09273","name":"Saint-Pierre-de-Rivière","department":"09","center":{"lng":1.5576,"lat":42.9668},"population":676},{"code":"09295","name":"Siguer","department":"09","center":{"lng":1.5507,"lat":42.7176},"population":95},{"code":"13090","name":"Saint-Antonin-sur-Bayon","department":"13","center":{"lng":5.5972,"lat":43.5191},"population":125},{"code":"14080","name":"Le Bô","department":"14","center":{"lng":-0.4412,"lat":48.9061},"population":126},{"code":"15070","name":"Fontanges","department":"15","center":{"lng":2.5196,"lat":45.1106},"population":208},{"code":"15092","name":"Lanobre","department":"15","center":{"lng":2.5567,"lat":45.4355},"population":1350},{"code":"15191","name":"Saint-Illide","department":"15","center":{"lng":2.3152,"lat":45.0463},"population":649},{"code":"16060","name":"Bréville","department":"16","center":{"lng":-0.2744,"lat":45.7848},"population":440},{"code":"16082","name":"Boisné-La Tude","department":"16","center":{"lng":0.1976,"lat":45.4697},"population":661},{"code":"16181","name":"Lessac","department":"16","center":{"lng":0.648,"lat":46.0701},"population":534},{"code":"16280","name":"Rivières","department":"16","center":{"lng":0.3492,"lat":45.7657},"population":2023},{"code":"17050","name":"Bois","department":"17","center":{"lng":-0.6161,"lat":45.4801},"population":519},{"code":"17072","name":"Burie","department":"17","center":{"lng":-0.4294,"lat":45.778},"population":1337},{"code":"17094","name":"Châtelaillon-Plage","department":"17","center":{"lng":-1.0804,"lat":46.0738},"population":6440},{"code":"17171","name":"Geay","department":"17","center":{"lng":-0.7543,"lat":45.8595},"population":783},{"code":"17193","name":"La Jarne","department":"17","center":{"lng":-1.074,"lat":46.1215},"population":2591},{"code":"17270","name":"Ozillac","department":"17","center":{"lng":-0.4022,"lat":45.4068},"population":611},{"code":"17292","name":"Puy-du-Lac","department":"17","center":{"lng":-0.7573,"lat":45.946},"population":521},{"code":"17391","name":"Saint-Rogatien","department":"17","center":{"lng":-1.0585,"lat":46.1462},"population":2394},{"code":"18040","name":"Bussy","department":"18","center":{"lng":2.6223,"lat":46.9001},"population":357},{"code":"18062","name":"Le Chautay","department":"18","center":{"lng":2.9639,"lat":46.9855},"population":264},{"code":"18084","name":"Dampierre-en-Crot","department":"18","center":{"lng":2.5797,"lat":47.4523},"population":203},{"code":"18161","name":"Neuilly-en-Dun","department":"18","center":{"lng":2.7837,"lat":46.8021},"population":225},{"code":"18183","name":"Le Pondy","department":"18","center":{"lng":2.6422,"lat":46.8009},"population":154},{"code":"18260","name":"Tendron","department":"18","center":{"lng":2.8189,"lat":46.9804},"population":88},{"code":"18282","name":"Villabon","department":"18","center":{"lng":2.68,"lat":47.108},"population":563},{"code":"19030","name":"Brignac-la-Plaine","department":"19","center":{"lng":1.3234,"lat":45.1745},"population":967},{"code":"19052","name":"Chavanac","department":"19","center":{"lng":2.0984,"lat":45.6167},"population":49},{"code":"19074","name":"L'Église-aux-Bois","department":"19","center":{"lng":1.7951,"lat":45.6579},"population":51},{"code":"19096","name":"Ladignac-sur-Rondelles","department":"19","center":{"lng":1.8226,"lat":45.2273},"population":405},{"code":"19151","name":"Noailles","department":"19","center":{"lng":1.5204,"lat":45.0989},"population":945},{"code":"19173","name":"Rilhac-Xaintrie","department":"19","center":{"lng":2.1961,"lat":45.1801},"population":306},{"code":"19195","name":"Saint-Cyprien","department":"19","center":{"lng":1.3638,"lat":45.2534},"population":393},{"code":"19250","name":"Salon-la-Tour","department":"19","center":{"lng":1.5293,"lat":45.5007},"population":679},{"code":"19272","name":"Tulle","department":"19","center":{"lng":1.7663,"lat":45.2685},"population":13602},{"code":"25091","name":"Les Bréseux","department":"25","center":{"lng":6.8017,"lat":47.274},"population":487},{"code":"25190","name":"Dampierre-les-Bois","department":"25","center":{"lng":6.9181,"lat":47.5073},"population":1565},{"code":"26081","name":"Châteaudouble","department":"26","center":{"lng":5.1074,"lat":44.9043},"population":613},{"code":"26180","name":"Mérindol-les-Oliviers","department":"26","center":{"lng":5.166,"lat":44.2723},"population":209},{"code":"27071","name":"Le Bois-Hellain","department":"27","center":{"lng":0.3912,"lat":49.2761},"population":210},{"code":"27170","name":"Cormeilles","department":"27","center":{"lng":0.384,"lat":49.251},"population":1136},{"code":"27192","name":"Crosville-la-Vieille","department":"27","center":{"lng":0.93,"lat":49.1484},"population":610},{"code":"27291","name":"Gournay-le-Guérin","department":"27","center":{"lng":0.7644,"lat":48.7181},"population":119},{"code":"27390","name":"Marcilly-la-Campagne","department":"27","center":{"lng":1.1866,"lat":48.8277},"population":1117},{"code":"28061","name":"Brou","department":"28","center":{"lng":1.1557,"lat":48.2189},"population":3245},{"code":"28160","name":"Francourville","department":"28","center":{"lng":1.6583,"lat":48.4008},"population":930},{"code":"28182","name":"Gohory","department":"28","center":{"lng":1.2212,"lat":48.1647},"population":319},{"code":"28281","name":"Nogent-sur-Eure","department":"28","center":{"lng":1.3868,"lat":48.3896},"population":502},{"code":"28380","name":"Sours","department":"28","center":{"lng":1.5977,"lat":48.4126},"population":1964},{"code":"29051","name":"Ergué-Gabéric","department":"29","center":{"lng":-4.0111,"lat":48.0115},"population":8576},{"code":"29073","name":"Guimaëc","department":"29","center":{"lng":-3.7008,"lat":48.6814},"population":966},{"code":"29095","name":"Kersaint-Plabennec","department":"29","center":{"lng":-4.3639,"lat":48.4844},"population":1537},{"code":"29150","name":"Moëlan-sur-Mer","department":"29","center":{"lng":-3.6522,"lat":47.8075},"population":6763},{"code":"29172","name":"Plomodiern","department":"29","center":{"lng":-4.2045,"lat":48.1808},"population":2254},{"code":"29271","name":"Saint-Vougay","department":"29","center":{"lng":-4.1444,"lat":48.5917},"population":879},{"code":"29293","name":"Trégunc","department":"29","center":{"lng":-3.8463,"lat":47.8372},"population":7094},{"code":"2A114","name":"Figari","department":"2A","center":{"lng":9.126,"lat":41.5188},"population":1742},{"code":"2A158","name":"Mela","department":"2A","center":{"lng":9.0917,"lat":41.6827},"population":34},{"code":"2A279","name":"Serriera","department":"2A","center":{"lng":8.7296,"lat":42.3084},"population":115},{"code":"2A312","name":"Santa-Maria-Siché","department":"2A","center":{"lng":8.9819,"lat":41.8838},"population":371},{"code":"2B005","name":"Alando","department":"2B","center":{"lng":9.2899,"lat":42.3083},"population":25},{"code":"2B049","name":"Calenzana","department":"2B","center":{"lng":8.7864,"lat":42.4736},"population":2571},{"code":"2B126","name":"Giuncaggio","department":"2B","center":{"lng":9.398,"lat":42.1829},"population":81},{"code":"2B148","name":"Lucciana","department":"2B","center":{"lng":9.465,"lat":42.5393},"population":6354},{"code":"2B225","name":"Pietra-di-Verde","department":"2B","center":{"lng":9.4443,"lat":42.2898},"population":101},{"code":"2B302","name":"San-Giovanni-di-Moriani","department":"2B","center":{"lng":9.4607,"lat":42.3714},"population":97},{"code":"2B346","name":"Vescovato","department":"2B","center":{"lng":9.4756,"lat":42.5122},"population":3393},{"code":"35090","name":"Crevin","department":"35","center":{"lng":-1.6602,"lat":47.931},"population":2790},{"code":"36080","name":"Frédille","department":"36","center":{"lng":1.476,"lat":47.0025},"population":76},{"code":"37070","name":"Chenonceaux","department":"37","center":{"lng":1.0701,"lat":47.3436},"population":334},{"code":"37092","name":"Crotelles","department":"37","center":{"lng":0.8218,"lat":47.5399},"population":651},{"code":"37191","name":"Razines","department":"37","center":{"lng":0.3946,"lat":46.9715},"population":221},{"code":"38060","name":"Brion","department":"38","center":{"lng":5.3416,"lat":45.2929},"population":142},{"code":"38082","name":"Charavines","department":"38","center":{"lng":5.5166,"lat":45.4231},"population":2014},{"code":"38181","name":"Goncelin","department":"38","center":{"lng":5.9886,"lat":45.3365},"population":2452},{"code":"38280","name":"Notre-Dame-de-Vaulx","department":"38","center":{"lng":5.7398,"lat":44.9939},"population":518},{"code":"39050","name":"Besain","department":"39","center":{"lng":5.795,"lat":46.7857},"population":155},{"code":"39072","name":"Bracon","department":"39","center":{"lng":5.8672,"lat":46.9263},"population":355},{"code":"39094","name":"Chamole","department":"39","center":{"lng":5.7382,"lat":46.8453},"population":160},{"code":"39171","name":"Courlaoux","department":"39","center":{"lng":5.4504,"lat":46.668},"population":1179},{"code":"39193","name":"Le Deschaux","department":"39","center":{"lng":5.5016,"lat":46.9525},"population":1030},{"code":"39270","name":"Jouhe","department":"39","center":{"lng":5.4826,"lat":47.1373},"population":537},{"code":"39292","name":"Lent","department":"39","center":{"lng":5.977,"lat":46.75},"population":137},{"code":"39391","name":"Nozeroy","department":"39","center":{"lng":6.0371,"lat":46.7683},"population":396},{"code":"39490","name":"Saint-Loup","department":"39","center":{"lng":5.3122,"lat":46.9954},"population":239},{"code":"47091","name":"Estillac","department":"47","center":{"lng":0.5765,"lat":44.1709},"population":2392},{"code":"47190","name":"Montpezat","department":"47","center":{"lng":0.5289,"lat":44.3438},"population":562},{"code":"48081","name":"Lanuéjols","department":"48","center":{"lng":3.5813,"lat":44.4895},"population":370},{"code":"49170","name":"Juvardeil","department":"49","center":{"lng":-0.5145,"lat":47.6611},"population":828},{"code":"49192","name":"Maulévrier","department":"49","center":{"lng":-0.7662,"lat":47.0159},"population":3206},{"code":"49291","name":"Saint-Just-sur-Dive","department":"49","center":{"lng":-0.1027,"lat":47.1718},"population":386},{"code":"57090","name":"Blanche-Église","department":"57","center":{"lng":6.6753,"lat":48.7907},"population":105},{"code":"58080","name":"La Collancelle","department":"58","center":{"lng":3.6453,"lat":47.1779},"population":161},{"code":"59092","name":"Bouchain","department":"59","center":{"lng":3.3164,"lat":50.2785},"population":4054},{"code":"59191","name":"Élincourt","department":"59","center":{"lng":3.3692,"lat":50.0477},"population":618},{"code":"59290","name":"Haut-Lieu","department":"59","center":{"lng":3.9026,"lat":50.1045},"population":374},{"code":"69091","name":"Givors","department":"69","center":{"lng":4.7561,"lat":45.5845},"population":20943},{"code":"69190","name":"Sainte-Consorce","department":"69","center":{"lng":4.6959,"lat":45.7765},"population":2109},{"code":"79090","name":"Chizé","department":"79","center":{"lng":-0.3589,"lat":46.111},"population":843},{"code":"80519","name":"Matigny","department":"80","center":{"lng":3.011,"lat":49.7972},"population":499},{"code":"80618","name":"Pendé","department":"80","center":{"lng":1.5845,"lat":50.1593},"population":1035},{"code":"80717","name":"Saint-Sauflieu","department":"80","center":{"lng":2.2558,"lat":49.7869},"population":981},{"code":"91508","name":"Puiselet-le-Marais","department":"91","center":{"lng":2.2635,"lat":48.3947},"population":261},{"code":"91629","name":"Valpuiseaux","department":"91","center":{"lng":2.2996,"lat":48.3963},"population":621}]