[{"code":"02819","name":"Vincy-Reuil-et-Magny","department":"02","center":{"lng":4.0467,"lat":49.7153},"population":103},{"code":"09090","name":"Cazaux","department":"09","center":{"lng":1.5171,"lat":43.0556},"population":45},{"code":"21409","name":"Meuilley","department":"21","center":{"lng":4.8792,"lat":47.139},"population":420},{"code":"21508","name":"Prenois","department":"21","center":{"lng":4.9081,"lat":47.3778},"population":462},{"code":"21607","name":"Seurre","department":"21","center":{"lng":5.1551,"lat":47.0086},"population":2336},{"code":"21629","name":"Thoisy-la-Berchère","department":"21","center":{"lng":4.3257,"lat":47.2632},"population":305},{"code":"21706","name":"Villotte-sur-Ource","department":"21","center":{"lng":4.6911,"lat":47.8665},"population":106},{"code":"2A272","name":"Sartène","department":"2A","center":{"lng":8.9326,"lat":41.5752},"population":3732},{"code":"2B020","name":"Aregno","department":"2B","center":{"lng":8.8765,"lat":42.5943},"population":594},{"code":"2B042","name":"Borgo","department":"2B","center":{"lng":9.4546,"lat":42.5809},"population":10102},{"code":"2B086","name":"Centuri","department":"2B","center":{"lng":9.3685,"lat":42.9715},"population":179},{"code":"2B185","name":"Oletta","department":"2B","center":{"lng":9.3453,"lat":42.6451},"population":1816},{"code":"2B361","name":"Zilia","department":"2B","center":{"lng":8.8989,"lat":42.5181},"population":314},{"code":"30319","name":"Serviers-et-Labaume","department":"30","center":{"lng":4.3377,"lat":44.0409},"population":609},{"code":"31309","name":"Lussan-Adeilhac","department":"31","center":{"lng":0.953,"lat":43.2944},"population":238},{"code":"31408","name":"Payssous","department":"31","center":{"lng":0.7163,"lat":43.0343},"population":81},{"code":"31507","name":"Saint-Paul-sur-Save","department":"31","center":{"lng":1.2197,"lat":43.699},"population":1749},{"code":"31529","name":"Samouillan","department":"31","center":{"lng":0.948,"lat":43.2673},"population":110},{"code":"33509","name":"Savignac-de-l'Isle","department":"33","center":{"lng":-0.2381,"lat":44.986},"population":603},{"code":"40219","name":"Payros-Cazautets","department":"40","center":{"lng":-0.3975,"lat":43.627},"population":106},{"code":"40318","name":"Toulouzette","department":"40","center":{"lng":-0.6762,"lat":43.7557},"population":309},{"code":"41209","name":"Saint-Firmin-des-Prés","department":"41","center":{"lng":1.1039,"lat":47.8441},"population":756},{"code":"50218","name":"Granville","department":"50","center":{"lng":-1.7657,"lat":48.8724},"population":12799},{"code":"50317","name":"Le Mesnil-Ozenne","department":"50","center":{"lng":-1.2184,"lat":48.6686},"population":269},{"code":"50537","name":"Saint-Pierre-de-Coutances","department":"50","center":{"lng":-1.4356,"lat":49.0401},"population":396},{"code":"51109","name":"Châlons-sur-Vesle","department":"51","center":{"lng":3.9198,"lat":49.2875},"population":202},{"code":"51208","name":"Dampierre-sur-Moivre","department":"51","center":{"lng":4.5735,"lat":48.8809},"population":110},{"code":"51307","name":"Jonchery-sur-Suippe","department":"51","center":{"lng":4.4773,"lat":49.1361},"population":228},{"code":"51329","name":"Loivre","department":"51","center":{"lng":3.9761,"lat":49.3482},"population":1438},{"code":"51406","name":"Norrois","department":"51","center":{"lng":4.6247,"lat":48.6708},"population":152},{"code":"51428","name":"Les Petites-Loges","department":"51","center":{"lng":4.2331,"lat":49.1351},"population":483},{"code":"51505","name":"Saint-Masmes","department":"51","center":{"lng":4.2517,"lat":49.3095},"population":527},{"code":"51527","name":"Savigny-sur-Ardres","department":"51","center":{"lng":3.7954,"lat":49.2526},"population":255},{"code":"51549","name":"Somme-Yèvre","department":"51","center":{"lng":4.7444,"lat":48.9442},"population":112},{"code":"51604","name":"Ventelay","department":"51","center":{"lng":3.7953,"lat":49.3399},"population":254},{"code":"51626","name":"La Villeneuve-lès-Charleville","department":"51","center":{"lng":3.7115,"lat":48.7976},"population":119},{"code":"51648","name":"Vitry-la-Ville","department":"51","center":{"lng":4.4329,"lat":48.835},"population":368},{"code":"52319","name":"Mennouveaux","department":"52","center":{"lng":5.4141,"lat":48.1007},"population":65},{"code":"52517","name":"Vesaignes-sous-Lafauche","department":"52","center":{"lng":5.4462,"lat":48.2846},"population":122},{"code":"52539","name":"Violot","department":"52","center":{"lng":5.4473,"lat":47.7585},"population":64},{"code":"54519","name":"Thiaville-sur-Meurthe","department":"54","center":{"lng":6.8034,"lat":48.4053},"population":595},{"code":"55509","name":"Thonne-le-Thil","department":"55","center":{"lng":5.3381,"lat":49.5731},"population":276},{"code":"57709","name":"Vescheim","department":"57","center":{"lng":7.2274,"lat":48.7943},"population":306},{"code":"60019","name":"Antheuil-Portes","department":"60","center":{"lng":2.7333,"lat":49.5002},"population":410},{"code":"60118","name":"Caisnes","department":"60","center":{"lng":3.0671,"lat":49.5198},"population":512},{"code":"60217","name":"Escames","department":"60","center":{"lng":1.8006,"lat":49.5608},"population":223},{"code":"60239","name":"Fleury","department":"60","center":{"lng":1.9699,"lat":49.2497},"population":586},{"code":"60316","name":"Hodenc-l'Évêque","department":"60","center":{"lng":2.1402,"lat":49.336},"population":228},{"code":"60338","name":"Lacroix-Saint-Ouen","department":"60","center":{"lng":2.7961,"lat":49.3575},"population":5175},{"code":"60415","name":"Montépilloy","department":"60","center":{"lng":2.7088,"lat":49.2147},"population":151},{"code":"60437","name":"Mouchy-le-Châtel","department":"60","center":{"lng":2.248,"lat":49.3254},"population":75},{"code":"60459","name":"La Neuville-sur-Ressons","department":"60","center":{"lng":2.7448,"lat":49.5512},"population":203},{"code":"60514","name":"Prévillers","department":"60","center":{"lng":1.9989,"lat":49.6161},"population":249},{"code":"60536","name":"Rhuis","department":"60","center":{"lng":2.6981,"lat":49.3034},"population":134},{"code":"60558","name":"Roye-sur-Matz","department":"60","center":{"lng":2.7684,"lat":49.5926},"population":451},{"code":"60613","name":"Senots","department":"60","center":{"lng":2.0131,"lat":49.2625},"population":351},{"code":"60635","name":"Thiverny","department":"60","center":{"lng":2.4295,"lat":49.2451},"population":1061},{"code":"60657","name":"Vauchelles","department":"60","center":{"lng":2.9678,"lat":49.5856},"population":245},{"code":"60679","name":"La Villeneuve-sous-Thury","department":"60","center":{"lng":3.064,"lat":49.1618},"population":141},{"code":"61108","name":"Cisai-Saint-Aubin","department":"61","center":{"lng":0.3572,"lat":48.7746},"population":181},{"code":"61207","name":"Igé","department":"61","center":{"lng":0.5129,"lat":48.3142},"population":589},{"code":"61229","name":"Loisail","department":"61","center":{"lng":0.5841,"lat":48.5048},"population":134},{"code":"61328","name":"Le Pin-au-Haras","department":"61","center":{"lng":0.1386,"lat":48.7461},"population":253},{"code":"61405","name":"Saint-Hilaire-sur-Erre","department":"61","center":{"lng":0.7495,"lat":48.3119},"population":486},{"code":"61427","name":"Saint-Martin-l'Aiguillon","department":"61","center":{"lng":-0.176,"lat":48.6008},"population":186},{"code":"62219","name":"Caumont","department":"62","center":{"lng":2.0305,"lat":50.2939},"population":153},{"code":"62318","name":"Étaples","department":"62","center":{"lng":1.6462,"lat":50.5247},"population":10693},{"code":"62439","name":"Hermelinghen","department":"62","center":{"lng":1.8609,"lat":50.8035},"population":406},{"code":"62516","name":"Lillers","department":"62","center":{"lng":2.4824,"lat":50.5622},"population":10200},{"code":"62538","name":"Maintenay","department":"62","center":{"lng":1.819,"lat":50.3707},"population":453},{"code":"62615","name":"Nielles-lès-Calais","department":"62","center":{"lng":1.8334,"lat":50.9048},"population":281},{"code":"62637","name":"Oignies","department":"62","center":{"lng":2.9917,"lat":50.4636},"population":10260},{"code":"62659","name":"Planques","department":"62","center":{"lng":2.0916,"lat":50.4674},"population":104},{"code":"62714","name":"Roclincourt","department":"62","center":{"lng":2.7937,"lat":50.3319},"population":786},{"code":"62736","name":"Sailly-sur-la-Lys","department":"62","center":{"lng":2.7937,"lat":50.6514},"population":3932},{"code":"62758","name":"Saint-Martin-Boulogne","department":"62","center":{"lng":1.6468,"lat":50.7229},"population":11036},{"code":"62813","name":"La Thieuloye","department":"62","center":{"lng":2.4334,"lat":50.4142},"population":470},{"code":"62835","name":"Valhuon","department":"62","center":{"lng":2.3846,"lat":50.4352},"population":544},{"code":"62857","name":"Villers-Châtel","department":"62","center":{"lng":2.5915,"lat":50.3762},"population":127},{"code":"62879","name":"Warluzel","department":"62","center":{"lng":2.4689,"lat":50.2306},"population":215},{"code":"63209","name":"Mareugheol","department":"63","center":{"lng":3.1718,"lat":45.4812},"population":226},{"code":"63308","name":"Royat","department":"63","center":{"lng":3.0431,"lat":45.7573},"population":4420},{"code":"63407","name":"Saulzet-le-Froid","department":"63","center":{"lng":2.8932,"lat":45.6332},"population":287},{"code":"63429","name":"Ternant-les-Eaux","department":"63","center":{"lng":3.1284,"lat":45.4808},"population":49},{"code":"64419","name":"Nousty","department":"64","center":{"lng":-0.2178,"lat":43.2635},"population":1591},{"code":"64518","name":"Sendets","department":"64","center":{"lng":-0.2675,"lat":43.3037},"population":1156},{"code":"65409","name":"Sarriac-Bigorre","department":"65","center":{"lng":0.1171,"lat":43.3882},"population":273},{"code":"70018","name":"Ancier","department":"70","center":{"lng":5.6367,"lat":47.4444},"population":521},{"code":"70117","name":"Châlonvillars","department":"70","center":{"lng":6.7766,"lat":47.6378},"population":1253},{"code":"70216","name":"Esboz-Brest","department":"70","center":{"lng":6.4359,"lat":47.8048},"population":448},{"code":"70238","name":"Fleurey-lès-Saint-Loup","department":"70","center":{"lng":6.2922,"lat":47.9234},"population":128},{"code":"70315","name":"Magnoncourt","department":"70","center":{"lng":6.2917,"lat":47.9064},"population":400},{"code":"70337","name":"Melin","department":"70","center":{"lng":5.8238,"lat":47.7431},"population":55},{"code":"70359","name":"Montcourt","department":"70","center":{"lng":5.961,"lat":47.929},"population":52},{"code":"70414","name":"Plancher-les-Mines","department":"70","center":{"lng":6.7759,"lat":47.7884},"population":897},{"code":"70436","name":"Raincourt","department":"70","center":{"lng":5.8852,"lat":47.8587},"population":110},{"code":"70513","name":"Vaivre-et-Montoille","department":"70","center":{"lng":6.1091,"lat":47.6375},"population":2436},{"code":"70535","name":"Velleguindry-et-Levrecey","department":"70","center":{"lng":6.0895,"lat":47.5531},"population":156},{"code":"70579","name":"Vyans-le-Val","department":"70","center":{"lng":6.761,"lat":47.5495},"population":417},{"code":"71008","name":"Anglure-sous-Dun","department":"71","center":{"lng":4.3694,"lat":46.2359},"population":146},{"code":"71107","name":"Charrecey","department":"71","center":{"lng":4.6699,"lat":46.8368},"population":330},{"code":"71129","name":"Chissey-en-Morvan","department":"71","center":{"lng":4.2138,"lat":47.1212},"population":295},{"code":"71206","name":"La Frette","department":"71","center":{"lng":5.0504,"lat":46.6407},"population":251},{"code":"71228","name":"Guerfand","department":"71","center":{"lng":5.0285,"lat":46.7835},"population":226},{"code":"71305","name":"Montbellet","department":"71","center":{"lng":4.8778,"lat":46.4715},"population":864},{"code":"71327","name":"Mussy-sous-Dun","department":"71","center":{"lng":4.335,"lat":46.238},"population":330},{"code":"71349","name":"La Petite-Verrière","department":"71","center":{"lng":4.1681,"lat":47.0454},"population":48},{"code":"71404","name":"Saint-Désert","department":"71","center":{"lng":4.715,"lat":46.7569},"population":898},{"code":"71426","name":"Sainte-Hélène","department":"71","center":{"lng":4.6324,"lat":46.7564},"population":510},{"code":"71448","name":"Saint-Martin-Belle-Roche","department":"71","center":{"lng":4.8569,"lat":46.3806},"population":1388},{"code":"71503","name":"Saules","department":"71","center":{"lng":4.6795,"lat":46.6553},"population":124},{"code":"71525","name":"Sologny","department":"71","center":{"lng":4.6739,"lat":46.3743},"population":576},{"code":"71547","name":"Trivy","department":"71","center":{"lng":4.4877,"lat":46.3933},"population":259},{"code":"72119","name":"Domfront-en-Champagne","department":"72","center":{"lng":0.0487,"lat":48.112},"population":1062},{"code":"72218","name":"Neuvillette-en-Charnie","department":"72","center":{"lng":-0.2062,"lat":48.0895},"population":302},{"code":"72317","name":"Saint-Rémy-du-Val","department":"72","center":{"lng":0.2491,"lat":48.3524},"population":498},{"code":"72339","name":"Souligné-Flacé","department":"72","center":{"lng":0.018,"lat":47.9683},"population":646},{"code":"73109","name":"Épierre","department":"73","center":{"lng":6.3274,"lat":45.4479},"population":762},{"code":"73208","name":"Pugny-Chatenod","department":"73","center":{"lng":5.9577,"lat":45.6928},"population":1060},{"code":"73307","name":"Valmeinier","department":"73","center":{"lng":6.5088,"lat":45.1509},"population":578},{"code":"73329","name":"Voglans","department":"73","center":{"lng":5.8892,"lat":45.6287},"population":1998},{"code":"76519","name":"Rainfreville","department":"76","center":{"lng":0.9238,"lat":49.7936},"population":74},{"code":"76618","name":"Petit-Caux","department":"76","center":{"lng":1.2343,"lat":49.9612},"population":9626},{"code":"76717","name":"Val-de-la-Haye","department":"76","center":{"lng":0.9907,"lat":49.3885},"population":699},{"code":"76739","name":"Vieux-Rouen-sur-Bresle","department":"76","center":{"lng":1.7013,"lat":49.8337},"population":583},{"code":"77509","name":"Villeneuve-les-Bordes","department":"77","center":{"lng":3.0278,"lat":48.4948},"population":614},{"code":"80017","name":"Allaines","department":"80","center":{"lng":2.9364,"lat":49.964},"population":419},{"code":"80039","name":"Ault","department":"80","center":{"lng":1.4437,"lat":50.0943},"population":1369},{"code":"80116","name":"Bouchoir","department":"80","center":{"lng":2.6783,"lat":49.7456},"population":266},{"code":"80138","name":"Bresle","department":"80","center":{"lng":2.5491,"lat":49.9889},"population":118},{"code":"80215","name":"Coulonvillers","department":"80","center":{"lng":2.0178,"lat":50.1558},"population":207},{"code":"80237","name":"Démuin","department":"80","center":{"lng":2.5416,"lat":49.8218},"population":538},{"code":"80259","name":"Dromesnil","department":"80","center":{"lng":1.8704,"lat":49.8775},"population":83},{"code":"80314","name":"Flers","department":"80","center":{"lng":2.8155,"lat":50.0517},"population":194},{"code":"80336","name":"Foucaucourt-Hors-Nesle","department":"80","center":{"lng":1.7148,"lat":49.9178},"population":79},{"code":"80358","name":"Fresnoy-en-Chaussée","department":"80","center":{"lng":2.5839,"lat":49.7726},"population":140},{"code":"80413","name":"Hancourt","department":"80","center":{"lng":3.0678,"lat":49.9053},"population":91},{"code":"80435","name":"Hesbécourt","department":"80","center":{"lng":3.1442,"lat":49.9452},"population":49},{"code":"80479","name":"Lignières-Châtelain","department":"80","center":{"lng":1.8599,"lat":49.7768},"population":344},{"code":"80512","name":"Mareuil-Caubert","department":"80","center":{"lng":1.8315,"lat":50.0724},"population":828},{"code":"80556","name":"Mons-Boubert","department":"80","center":{"lng":1.6641,"lat":50.1267},"population":578},{"code":"80578","name":"Moyenneville","department":"80","center":{"lng":1.7521,"lat":50.0764},"population":701},{"code":"80611","name":"Oresmaux","department":"80","center":{"lng":2.269,"lat":49.7684},"population":978},{"code":"80633","name":"Ponthoile","department":"80","center":{"lng":1.7079,"lat":50.2218},"population":584},{"code":"80655","name":"Quesnoy-sur-Airaines","department":"80","center":{"lng":1.9899,"lat":49.9485},"population":421},{"code":"80677","name":"Roisel","department":"80","center":{"lng":3.0973,"lat":49.9418},"population":1609},{"code":"80699","name":"Saint-Aubin-Rivière","department":"80","center":{"lng":1.7798,"lat":49.8666},"population":116},{"code":"80710","name":"Saint-Maxent","department":"80","center":{"lng":1.7318,"lat":49.9967},"population":389},{"code":"80732","name":"Senarpont","department":"80","center":{"lng":1.7163,"lat":49.8912},"population":629},{"code":"80754","name":"Thieulloy-l'Abbaye","department":"80","center":{"lng":1.9457,"lat":49.8194},"population":382},{"code":"80776","name":"Varennes","department":"80","center":{"lng":2.5159,"lat":50.0432},"population":221},{"code":"80798","name":"Villers-Bocage","department":"80","center":{"lng":2.3227,"lat":50.0025},"population":1509},{"code":"81007","name":"Alos","department":"81","center":{"lng":1.8759,"lat":44.0202},"population":97},{"code":"81029","name":"Bernac","department":"81","center":{"lng":2.0311,"lat":43.9532},"population":185},{"code":"81106","name":"Grazac","department":"81","center":{"lng":1.6462,"lat":43.8454},"population":641},{"code":"81128","name":"Lacrouzette","department":"81","center":{"lng":2.3611,"lat":43.6598},"population":1533},{"code":"81205","name":"Péchaudier","department":"81","center":{"lng":1.942,"lat":43.5424},"population":185},{"code":"81227","name":"Roquecourbe","department":"81","center":{"lng":2.2716,"lat":43.6733},"population":2181},{"code":"81249","name":"Sainte-Gemme","department":"81","center":{"lng":2.1949,"lat":44.0876},"population":846},{"code":"81304","name":"Trévien","department":"81","center":{"lng":2.1236,"lat":44.1075},"population":200},{"code":"81326","name":"Sainte-Croix","department":"81","center":{"lng":2.0721,"lat":43.97},"population":423},{"code":"82019","name":"Boudou","department":"82","center":{"lng":1.0189,"lat":44.1058},"population":755},{"code":"82118","name":"Montaïn","department":"82","center":{"lng":1.1131,"lat":43.9398},"population":92},{"code":"83009","name":"Bandol","department":"83","center":{"lng":5.7488,"lat":43.147},"population":8263},{"code":"83108","name":"La Roquebrussanne","department":"83","center":{"lng":5.9787,"lat":43.3384},"population":2199},{"code":"85209","name":"Saint-Étienne-de-Brillouet","department":"85","center":{"lng":-1.0098,"lat":46.5145},"population":613},{"code":"90016","name":"Bourg-sous-Châtelet","department":"90","center":{"lng":6.948,"lat":47.7068},"population":120},{"code":"91105","name":"Breuillet","department":"91","center":{"lng":2.1644,"lat":48.5716},"population":9023},{"code":"91204","name":"Écharcon","department":"91","center":{"lng":2.4023,"lat":48.5747},"population":720},{"code":"91226","name":"Étréchy","department":"91","center":{"lng":2.177,"lat":48.4956},"population":6926},{"code":"91248","name":"La Forêt-Sainte-Croix","department":"91","center":{"lng":2.2308,"lat":48.3832},"population":153},{"code":"91347","name":"Longpont-sur-Orge","department":"91","center":{"lng":2.2859,"lat":48.639},"population":6456},{"code":"91468","name":"Ormoy","department":"91","center":{"lng":2.4576,"lat":48.5714},"population":2896},{"code":"91589","name":"Savigny-sur-Orge","department":"91","center":{"lng":2.3493,"lat":48.6851},"population":37775},{"code":"91600","name":"Soisy-sur-Seine","department":"91","center":{"lng":2.4666,"lat":48.6593},"population":7370},{"code":"91666","name":"Villejust","department":"91","center":{"lng":2.2207,"lat":48.6788},"population":2502},{"code":"93008","name":"Bobigny","department":"93","center":{"lng":2.4432,"lat":48.9073},"population":55270},{"code":"95428","name":"Montmorency","department":"95","center":{"lng":2.322,"lat":48.9922},"population":21677},{"code":"95527","name":"Roissy-en-France","department":"95","center":{"lng":2.5188,"lat":49.0036},"population":2682},{"code":"95604","name":"Survilliers","department":"95","center":{"lng":2.5451,"lat":49.1077},"population":4154},{"code":"97309","name":"Remire-Montjoly","department":"973","center":{"lng":-52.2809,"lat":4.8897},"population":27037},{"code":"97408","name":"La Possession","department":"974","center":{"lng":55.3918,"lat":-20.9965},"population":36390},{"code":"97606","name":"Chirongui","department":"976","center":{"lng":45.1428,"lat":-12.9179},"population":8920}]