[{"code":"01016","name":"Arbigny","department":"01","center":{"lng":4.9613,"lat":46.4808},"population":459},{"code":"01038","name":"Bény","department":"01","center":{"lng":5.2789,"lat":46.3189},"population":769},{"code":"01115","name":"Confrançon","department":"01","center":{"lng":5.06,"lat":46.2732},"population":1357},{"code":"01159","name":"Feillens","department":"01","center":{"lng":4.8866,"lat":46.3393},"population":3388},{"code":"01214","name":"Leyssard","department":"01","center":{"lng":5.4767,"lat":46.1605},"population":163},{"code":"01236","name":"Marsonnas","department":"01","center":{"lng":5.0608,"lat":46.3401},"population":1034},{"code":"01258","name":"Montceaux","department":"01","center":{"lng":4.8041,"lat":46.0978},"population":1202},{"code":"01313","name":"Prévessin-Moëns","department":"01","center":{"lng":6.0722,"lat":46.2594},"population":9081},{"code":"01335","name":"Saint-André-le-Bouchoux","department":"01","center":{"lng":5.0775,"lat":46.1137},"population":427},{"code":"01357","name":"Saint-Germain-de-Joux","department":"01","center":{"lng":5.7435,"lat":46.1812},"population":505},{"code":"01379","name":"Saint-Maurice-de-Rémens","department":"01","center":{"lng":5.2706,"lat":45.9542},"population":758},{"code":"01412","name":"Sulignat","department":"01","center":{"lng":4.9601,"lat":46.1727},"population":605},{"code":"01434","name":"Versailleux","department":"01","center":{"lng":5.115,"lat":45.9883},"population":500},{"code":"01456","name":"Vongnes","department":"01","center":{"lng":5.7255,"lat":45.8122},"population":71},{"code":"02006","name":"Aisonville-et-Bernoville","department":"02","center":{"lng":3.5121,"lat":49.9313},"population":257},{"code":"02028","name":"Athies-sous-Laon","department":"02","center":{"lng":3.6905,"lat":49.5754},"population":2600},{"code":"02105","name":"Bouresches","department":"02","center":{"lng":3.3191,"lat":49.0665},"population":187},{"code":"02127","name":"Bruyères-sur-Fère","department":"02","center":{"lng":3.445,"lat":49.1994},"population":195},{"code":"02149","name":"Cerizy","department":"02","center":{"lng":3.3346,"lat":49.7667},"population":59},{"code":"02204","name":"Coingt","department":"02","center":{"lng":4.0956,"lat":49.7928},"population":63},{"code":"02226","name":"Courmelles","department":"02","center":{"lng":3.2994,"lat":49.3456},"population":1831},{"code":"02248","name":"Cuirieux","department":"02","center":{"lng":3.8206,"lat":49.6835},"population":154},{"code":"02303","name":"Fayet","department":"02","center":{"lng":3.2533,"lat":49.871},"population":711},{"code":"02347","name":"Gland","department":"02","center":{"lng":3.4602,"lat":49.059},"population":429},{"code":"02369","name":"Harcigny","department":"02","center":{"lng":3.9767,"lat":49.8081},"population":243},{"code":"02402","name":"Lanchy","department":"02","center":{"lng":3.0727,"lat":49.8297},"population":38},{"code":"02424","name":"Leury","department":"02","center":{"lng":3.3415,"lat":49.4246},"population":102},{"code":"02446","name":"Ly-Fontaine","department":"02","center":{"lng":3.311,"lat":49.7329},"population":118},{"code":"02468","name":"Marle","department":"02","center":{"lng":3.7654,"lat":49.7444},"population":2224},{"code":"02501","name":"Montchâlons","department":"02","center":{"lng":3.7228,"lat":49.5137},"population":74},{"code":"02523","name":"Mont-Saint-Martin","department":"02","center":{"lng":3.6409,"lat":49.2754},"population":70},{"code":"02545","name":"La Neuville-Bosmont","department":"02","center":{"lng":3.8346,"lat":49.7152},"population":187},{"code":"02567","name":"Ohis","department":"02","center":{"lng":4.0078,"lat":49.9216},"population":270},{"code":"02589","name":"Pargny-et-Filain","department":"02","center":{"lng":3.5491,"lat":49.4583},"population":250},{"code":"02600","name":"Pierrepont","department":"02","center":{"lng":3.7843,"lat":49.6472},"population":336},{"code":"02622","name":"Priez","department":"02","center":{"lng":3.2616,"lat":49.1308},"population":58},{"code":"02644","name":"Retheuil","department":"02","center":{"lng":3.001,"lat":49.3186},"population":348},{"code":"02666","name":"Rozoy-sur-Serre","department":"02","center":{"lng":4.1348,"lat":49.7036},"population":922},{"code":"02688","name":"Saint-Pierre-lès-Franqueville","department":"02","center":{"lng":3.8189,"lat":49.8246},"population":41},{"code":"02721","name":"Sissy","department":"02","center":{"lng":3.4206,"lat":49.8089},"population":490},{"code":"02743","name":"Le Thuel","department":"02","center":{"lng":4.0834,"lat":49.643},"population":155},{"code":"02765","name":"Vaucelles-et-Beffecourt","department":"02","center":{"lng":3.5584,"lat":49.5215},"population":233},{"code":"02787","name":"Verneuil-sur-Serre","department":"02","center":{"lng":3.6806,"lat":49.6452},"population":255},{"code":"02820","name":"Viry-Noureuil","department":"02","center":{"lng":3.2483,"lat":49.6355},"population":1682},{"code":"03018","name":"Bayet","department":"03","center":{"lng":3.2755,"lat":46.2585},"population":673},{"code":"03117","name":"Franchesse","department":"03","center":{"lng":3.0411,"lat":46.6422},"population":465},{"code":"03139","name":"Laprugne","department":"03","center":{"lng":3.768,"lat":45.9941},"population":310},{"code":"03216","name":"Ronnet","department":"03","center":{"lng":2.6993,"lat":46.2047},"population":168},{"code":"03238","name":"Saint-Hilaire","department":"03","center":{"lng":3.0183,"lat":46.4835},"population":508},{"code":"03315","name":"Villefranche-d'Allier","department":"03","center":{"lng":2.8401,"lat":46.397},"population":1265},{"code":"04008","name":"Annot","department":"04","center":{"lng":6.6631,"lat":43.9631},"population":1013},{"code":"04107","name":"Majastres","department":"04","center":{"lng":6.2773,"lat":43.8937},"population":5},{"code":"04129","name":"Montjustin","department":"04","center":{"lng":5.6584,"lat":43.8436},"population":57},{"code":"04206","name":"Sigonce","department":"04","center":{"lng":5.8505,"lat":44.0087},"population":421},{"code":"04228","name":"Valavoire","department":"04","center":{"lng":6.0787,"lat":44.2793},"population":39},{"code":"05119","name":"Risoul","department":"05","center":{"lng":6.6242,"lat":44.6202},"population":663},{"code":"06109","name":"La Roquette-sur-Var","department":"06","center":{"lng":7.2072,"lat":43.8328},"population":933},{"code":"07319","name":"Le Teil","department":"07","center":{"lng":4.6664,"lat":44.5476},"population":8812},{"code":"08309","name":"Mont-Saint-Remy","department":"08","center":{"lng":4.4753,"lat":49.3881},"population":53},{"code":"08408","name":"Sécheval","department":"08","center":{"lng":4.6707,"lat":49.8613},"population":536},{"code":"10003","name":"Aix-Villemaur-Pâlis","department":"10","center":{"lng":3.7218,"lat":48.2266},"population":3336},{"code":"10025","name":"Bagneux-la-Fosse","department":"10","center":{"lng":4.2954,"lat":47.9984},"population":177},{"code":"10047","name":"Blignicourt","department":"10","center":{"lng":4.5408,"lat":48.4542},"population":43},{"code":"10069","name":"Buxières-sur-Arce","department":"10","center":{"lng":4.4521,"lat":48.1359},"population":107},{"code":"10102","name":"Colombé-la-Fosse","department":"10","center":{"lng":4.7901,"lat":48.2701},"population":163},{"code":"10124","name":"Dierrey-Saint-Julien","department":"10","center":{"lng":3.8379,"lat":48.3022},"population":274},{"code":"10146","name":"Fay-lès-Marcilly","department":"10","center":{"lng":3.6071,"lat":48.4038},"population":84},{"code":"10168","name":"Les Granges","department":"10","center":{"lng":4.0612,"lat":48.0562},"population":80},{"code":"10201","name":"La Loge-Pomblin","department":"10","center":{"lng":4.0444,"lat":48.0703},"population":58},{"code":"10223","name":"Marcilly-le-Hayer","department":"10","center":{"lng":3.6417,"lat":48.329},"population":713},{"code":"10245","name":"Montaulin","department":"10","center":{"lng":4.1958,"lat":48.2487},"population":818},{"code":"10267","name":"Nogent-sur-Aube","department":"10","center":{"lng":4.3004,"lat":48.4866},"population":311},{"code":"10289","name":"Plancy-l'Abbaye","department":"10","center":{"lng":3.9882,"lat":48.592},"population":963},{"code":"10300","name":"Pougy","department":"10","center":{"lng":4.3491,"lat":48.437},"population":266},{"code":"10344","name":"Saint-Léger-près-Troyes","department":"10","center":{"lng":4.0715,"lat":48.2394},"population":915},{"code":"10366","name":"Saulcy","department":"10","center":{"lng":4.8362,"lat":48.2763},"population":62},{"code":"10388","name":"Turgy","department":"10","center":{"lng":4.0505,"lat":48.0335},"population":44},{"code":"10421","name":"La Villeneuve-au-Châtelot","department":"10","center":{"lng":3.608,"lat":48.5528},"population":148},{"code":"10443","name":"Vougrey","department":"10","center":{"lng":4.2373,"lat":48.0886},"population":41},{"code":"11015","name":"Arques","department":"11","center":{"lng":2.3878,"lat":42.9445},"population":253},{"code":"11037","name":"Berriac","department":"11","center":{"lng":2.4053,"lat":43.2153},"population":958},{"code":"11059","name":"Cailhavel","department":"11","center":{"lng":2.1234,"lat":43.1669},"population":150},{"code":"11114","name":"Cumiès","department":"11","center":{"lng":1.8309,"lat":43.2983},"population":43},{"code":"11136","name":"Fanjeaux","department":"11","center":{"lng":2.0359,"lat":43.1921},"population":886},{"code":"11158","name":"Gaja-et-Villedieu","department":"11","center":{"lng":2.1842,"lat":43.0794},"population":309},{"code":"11213","name":"Maisons","department":"11","center":{"lng":2.6406,"lat":42.9292},"population":52},{"code":"11235","name":"Missègre","department":"11","center":{"lng":2.3743,"lat":43.0036},"population":64},{"code":"11257","name":"Monze","department":"11","center":{"lng":2.4624,"lat":43.1539},"population":243},{"code":"11279","name":"Pennautier","department":"11","center":{"lng":2.3083,"lat":43.2522},"population":2875},{"code":"11312","name":"Ribouisse","department":"11","center":{"lng":1.91,"lat":43.1663},"population":101},{"code":"11334","name":"Sainte-Camelle","department":"11","center":{"lng":1.7885,"lat":43.2713},"population":124},{"code":"11356","name":"Saint-Martin-Lalande","department":"11","center":{"lng":2.0143,"lat":43.3022},"population":1109},{"code":"11378","name":"Serviès-en-Val","department":"11","center":{"lng":2.5261,"lat":43.0955},"population":207},{"code":"11411","name":"Villanière","department":"11","center":{"lng":2.3392,"lat":43.3505},"population":147},{"code":"11433","name":"Villeneuve-Minervois","department":"11","center":{"lng":2.4702,"lat":43.333},"population":980},{"code":"12027","name":"Bessuéjouls","department":"12","center":{"lng":2.7104,"lat":44.5168},"population":223},{"code":"12049","name":"Campuac","department":"12","center":{"lng":2.5808,"lat":44.5656},"population":452},{"code":"12104","name":"Foissac","department":"12","center":{"lng":2.016,"lat":44.5028},"population":470},{"code":"12148","name":"Montbazens","department":"12","center":{"lng":2.214,"lat":44.48},"population":1444},{"code":"12203","name":"Roquefort-sur-Soulzon","department":"12","center":{"lng":2.9826,"lat":43.9685},"population":502},{"code":"12225","name":"Saint-Georges-de-Luzençon","department":"12","center":{"lng":2.9875,"lat":44.0567},"population":1584},{"code":"12247","name":"Saint-Saturnin-de-Lenne","department":"12","center":{"lng":3.0203,"lat":44.4095},"population":325},{"code":"12269","name":"La Serre","department":"12","center":{"lng":2.6537,"lat":43.8959},"population":127},{"code":"13017","name":"Boulbon","department":"13","center":{"lng":4.6962,"lat":43.8721},"population":1531},{"code":"13039","name":"Fos-sur-Mer","department":"13","center":{"lng":4.8979,"lat":43.4545},"population":15694},{"code":"13116","name":"Verquières","department":"13","center":{"lng":4.9192,"lat":43.8377},"population":775},{"code":"14007","name":"Amayé-sur-Seulles","department":"14","center":{"lng":-0.7162,"lat":49.0824},"population":211},{"code":"14106","name":"Bréville-les-Monts","department":"14","center":{"lng":-0.2177,"lat":49.2369},"population":651},{"code":"14205","name":"Cristot","department":"14","center":{"lng":-0.5742,"lat":49.1956},"population":214},{"code":"14227","name":"Douville-en-Auge","department":"14","center":{"lng":-0.0204,"lat":49.2648},"population":221},{"code":"14249","name":"Esquay-Notre-Dame","department":"14","center":{"lng":-0.4757,"lat":49.1135},"population":1447},{"code":"14304","name":"Gonneville-sur-Honfleur","department":"14","center":{"lng":0.2392,"lat":49.3829},"population":855},{"code":"14326","name":"Hermival-les-Vaux","department":"14","center":{"lng":0.2979,"lat":49.1657},"population":860},{"code":"14348","name":"Juvigny-sur-Seulles","department":"14","center":{"lng":-0.6037,"lat":49.1558},"population":83},{"code":"14403","name":"Marolles","department":"14","center":{"lng":0.3706,"lat":49.1403},"population":737},{"code":"14425","name":"Le Mesnil-Simon","department":"14","center":{"lng":0.1117,"lat":49.0896},"population":157},{"code":"14469","name":"Norrey-en-Auge","department":"14","center":{"lng":-0.0164,"lat":48.9129},"population":95},{"code":"14502","name":"Pierrepont","department":"14","center":{"lng":-0.324,"lat":48.8851},"population":84},{"code":"14524","name":"Putot-en-Auge","department":"14","center":{"lng":-0.0652,"lat":49.2133},"population":311},{"code":"14546","name":"Rouvres","department":"14","center":{"lng":-0.1852,"lat":49.0026},"population":222},{"code":"14601","name":"Saint-Julien-sur-Calonne","department":"14","center":{"lng":0.2296,"lat":49.2873},"population":172},{"code":"14645","name":"Saint-Pierre-Azif","department":"14","center":{"lng":0.0377,"lat":49.2936},"population":165},{"code":"14667","name":"Saon","department":"14","center":{"lng":-0.8658,"lat":49.2727},"population":223},{"code":"14689","name":"Thury-Harcourt-le-Hom","department":"14","center":{"lng":-0.5222,"lat":48.9871},"population":3593},{"code":"14700","name":"Tour-en-Bessin","department":"14","center":{"lng":-0.7821,"lat":49.2937},"population":694},{"code":"14744","name":"Vienne-en-Bessin","department":"14","center":{"lng":-0.6279,"lat":49.2826},"population":266},{"code":"15019","name":"Bassignac","department":"15","center":{"lng":2.4044,"lat":45.3116},"population":222},{"code":"15118","name":"Marmanhac","department":"15","center":{"lng":2.4789,"lat":45.0075},"population":686},{"code":"15217","name":"Saint-Victor","department":"15","center":{"lng":2.2905,"lat":45.0085},"population":96},{"code":"16009","name":"Ambernac","department":"16","center":{"lng":0.5516,"lat":45.978},"population":377},{"code":"16108","name":"Coulonges","department":"16","center":{"lng":0.0885,"lat":45.8367},"population":121},{"code":"16207","name":"Marcillac-Lanville","department":"16","center":{"lng":0.0177,"lat":45.8576},"population":509},{"code":"16229","name":"Montjean","department":"16","center":{"lng":0.1122,"lat":46.0831},"population":251},{"code":"16306","name":"Saint-Christophe","department":"16","center":{"lng":0.8565,"lat":46.0028},"population":323},{"code":"16405","name":"Vignolles","department":"16","center":{"lng":-0.0997,"lat":45.5086},"population":161},{"code":"17219","name":"Marennes-Hiers-Brouage","department":"17","center":{"lng":-1.0702,"lat":45.8328},"population":6148},{"code":"17318","name":"Saint-Clément-des-Baleines","department":"17","center":{"lng":-1.5386,"lat":46.2355},"population":712},{"code":"17417","name":"Salignac-de-Mirambeau","department":"17","center":{"lng":-0.4821,"lat":45.3478},"population":164},{"code":"17439","name":"Taugon","department":"17","center":{"lng":-0.8304,"lat":46.3162},"population":772},{"code":"18209","name":"Saint-Georges-de-Poisieux","department":"18","center":{"lng":2.4808,"lat":46.6838},"population":435},{"code":"21014","name":"Antheuil","department":"21","center":{"lng":4.7463,"lat":47.1763},"population":62},{"code":"21036","name":"Auxant","department":"21","center":{"lng":4.6168,"lat":47.1298},"population":83},{"code":"21058","name":"Belan-sur-Ource","department":"21","center":{"lng":4.6388,"lat":47.9519},"population":228},{"code":"21113","name":"Broindon","department":"21","center":{"lng":5.0412,"lat":47.1955},"population":197},{"code":"21135","name":"Champagne-sur-Vingeanne","department":"21","center":{"lng":5.4068,"lat":47.4411},"population":313},{"code":"21157","name":"Chaugey","department":"21","center":{"lng":4.95,"lat":47.7467},"population":24},{"code":"21179","name":"Clénay","department":"21","center":{"lng":5.1136,"lat":47.4119},"population":904},{"code":"21212","name":"Crépand","department":"21","center":{"lng":4.3082,"lat":47.6059},"population":317},{"code":"21234","name":"Drée","department":"21","center":{"lng":4.6985,"lat":47.3437},"population":66},{"code":"21256","name":"Étevaux","department":"21","center":{"lng":5.3211,"lat":47.3228},"population":316},{"code":"21278","name":"Fontaine-lès-Dijon","department":"21","center":{"lng":5.025,"lat":47.3477},"population":9032},{"code":"21311","name":"Grosbois-lès-Tichey","department":"21","center":{"lng":5.2374,"lat":47.0102},"population":69},{"code":"21333","name":"Labruyère","department":"21","center":{"lng":5.1441,"lat":47.0393},"population":232},{"code":"21355","name":"Longvic","department":"21","center":{"lng":5.0585,"lat":47.2855},"population":8787},{"code":"21377","name":"Marcellois","department":"21","center":{"lng":4.6185,"lat":47.3472},"population":45},{"code":"21399","name":"Meilly-sur-Rouvres","department":"21","center":{"lng":4.5528,"lat":47.2071},"population":231},{"code":"21410","name":"Meulson","department":"21","center":{"lng":4.7061,"lat":47.6918},"population":28},{"code":"21432","name":"Montigny-sur-Aube","department":"21","center":{"lng":4.7515,"lat":47.9517},"population":255},{"code":"21454","name":"Nicey","department":"21","center":{"lng":4.2933,"lat":47.8676},"population":108},{"code":"21476","name":"Painblanc","department":"21","center":{"lng":4.6289,"lat":47.1488},"population":169},{"code":"21498","name":"Posanges","department":"21","center":{"lng":4.5233,"lat":47.422},"population":50},{"code":"21531","name":"Rouvray","department":"21","center":{"lng":4.1128,"lat":47.4196},"population":503},{"code":"21553","name":"Saint-Jean-de-Bœuf","department":"21","center":{"lng":4.7647,"lat":47.2116},"population":103},{"code":"21575","name":"Saint-Symphorien-sur-Saône","department":"21","center":{"lng":5.3201,"lat":47.0924},"population":322},{"code":"21597","name":"Segrois","department":"21","center":{"lng":4.8932,"lat":47.1612},"population":57},{"code":"21630","name":"Thoisy-le-Désert","department":"21","center":{"lng":4.5211,"lat":47.2501},"population":215},{"code":"21652","name":"Vandenesse-en-Auxois","department":"21","center":{"lng":4.6225,"lat":47.2242},"population":294},{"code":"21674","name":"Veuxhaulles-sur-Aube","department":"21","center":{"lng":4.8154,"lat":47.9354},"population":210},{"code":"21696","name":"Villeneuve-sous-Charigny","department":"21","center":{"lng":4.3985,"lat":47.4357},"population":87},{"code":"22004","name":"Bégard","department":"22","center":{"lng":-3.2921,"lat":48.6365},"population":4862},{"code":"22026","name":"Calorguen","department":"22","center":{"lng":-2.0248,"lat":48.4061},"population":722},{"code":"22048","name":"Corseul","department":"22","center":{"lng":-2.1675,"lat":48.4846},"population":2270},{"code":"22103","name":"Langrolay-sur-Rance","department":"22","center":{"lng":-2.0151,"lat":48.5547},"population":992},{"code":"22147","name":"Merdrignac","department":"22","center":{"lng":-2.3946,"lat":48.1961},"population":2950},{"code":"22169","name":"Peumerit-Quintin","department":"22","center":{"lng":-3.2923,"lat":48.368},"population":184},{"code":"22202","name":"Plévin","department":"22","center":{"lng":-3.5191,"lat":48.22},"population":754},{"code":"22224","name":"Ploulec'h","department":"22","center":{"lng":-3.5001,"lat":48.7182},"population":1591},{"code":"22246","name":"Pommeret","department":"22","center":{"lng":-2.6215,"lat":48.4599},"population":2119},{"code":"22268","name":"Ruca","department":"22","center":{"lng":-2.336,"lat":48.5598},"population":596},{"code":"22323","name":"Saint-Pôtan","department":"22","center":{"lng":-2.2977,"lat":48.5589},"population":833},{"code":"22345","name":"Trébry","department":"22","center":{"lng":-2.5589,"lat":48.343},"population":822},{"code":"22389","name":"Yffiniac","department":"22","center":{"lng":-2.6862,"lat":48.4692},"population":4980},{"code":"23016","name":"Banize","department":"23","center":{"lng":1.9932,"lat":45.9376},"population":181},{"code":"23038","name":"Bussière-Saint-Georges","department":"23","center":{"lng":2.1525,"lat":46.396},"population":259},{"code":"23115","name":"Magnat-l'Étrange","department":"23","center":{"lng":2.2676,"lat":45.7939},"population":240},{"code":"23137","name":"Mourioux-Vieilleville","department":"23","center":{"lng":1.6427,"lat":46.0761},"population":523},{"code":"23159","name":"Puy-Malsignat","department":"23","center":{"lng":2.219,"lat":46.0322},"population":144},{"code":"23214","name":"Saint-Martial-le-Mont","department":"23","center":{"lng":2.0934,"lat":46.0522},"population":264},{"code":"23236","name":"Saint-Priest-la-Plaine","department":"23","center":{"lng":1.6313,"lat":46.2044},"population":256},{"code":"23258","name":"Vareilles","department":"23","center":{"lng":1.4562,"lat":46.3012},"population":322},{"code":"24006","name":"Allas-les-Mines","department":"24","center":{"lng":1.0748,"lat":44.8276},"population":195},{"code":"24028","name":"Beaumontois en Périgord","department":"24","center":{"lng":0.7552,"lat":44.7387},"population":1730},{"code":"24105","name":"Chapdeuil","department":"24","center":{"lng":0.4638,"lat":45.3406},"population":140},{"code":"24226","name":"Lamothe-Montravel","department":"24","center":{"lng":0.0094,"lat":44.8466},"population":1430},{"code":"24248","name":"Lussas-et-Nontronneau","department":"24","center":{"lng":0.5792,"lat":45.522},"population":285},{"code":"24303","name":"Nanteuil-Auriac-de-Bourzac","department":"24","center":{"lng":0.2862,"lat":45.3795},"population":233},{"code":"24325","name":"Pechs-de-l'Espérance","department":"24","center":{"lng":1.4006,"lat":44.9},"population":784},{"code":"24347","name":"Rampieux","department":"24","center":{"lng":0.8021,"lat":44.7039},"population":139},{"code":"24424","name":"Saint-Jean-d'Ataux","department":"24","center":{"lng":0.3941,"lat":45.1337},"population":132},{"code":"24446","name":"Saint-Marcory","department":"24","center":{"lng":0.9289,"lat":44.7225},"population":54},{"code":"24468","name":"Saint-Michel-de-Villadeix","department":"24","center":{"lng":0.7335,"lat":44.9943},"population":299},{"code":"24501","name":"Saint-Seurin-de-Prats","department":"24","center":{"lng":0.0709,"lat":44.8311},"population":461},{"code":"24523","name":"Saussignac","department":"24","center":{"lng":0.3157,"lat":44.8045},"population":412},{"code":"24545","name":"Teillots","department":"24","center":{"lng":1.215,"lat":45.2611},"population":99},{"code":"24567","name":"Vaunac","department":"24","center":{"lng":0.8671,"lat":45.3731},"population":240},{"code":"25018","name":"Anteuil","department":"25","center":{"lng":6.5781,"lat":47.3769},"population":600},{"code":"25117","name":"Champoux","department":"25","center":{"lng":6.1342,"lat":47.342},"population":90},{"code":"25139","name":"La Chaux","department":"25","center":{"lng":6.4093,"lat":47.0202},"population":611},{"code":"25216","name":"Écurcey","department":"25","center":{"lng":6.8071,"lat":47.4028},"population":266},{"code":"25238","name":"Fessevillers","department":"25","center":{"lng":6.9204,"lat":47.2812},"population":159},{"code":"25315","name":"L'Isle-sur-le-Doubs","department":"25","center":{"lng":6.5912,"lat":47.4242},"population":2812},{"code":"25359","name":"Malans","department":"25","center":{"lng":6.0295,"lat":47.0452},"population":151},{"code":"25414","name":"Le Moutherot","department":"25","center":{"lng":5.7317,"lat":47.2429},"population":132},{"code":"25436","name":"Orve","department":"25","center":{"lng":6.5589,"lat":47.338},"population":58},{"code":"25458","name":"Les Plains-et-Grands-Essarts","department":"25","center":{"lng":6.8954,"lat":47.3025},"population":211},{"code":"25513","name":"Sainte-Anne","department":"25","center":{"lng":5.981,"lat":46.9505},"population":52},{"code":"25535","name":"Saules","department":"25","center":{"lng":6.2032,"lat":47.1238},"population":232},{"code":"25557","name":"Tallenay","department":"25","center":{"lng":6.0186,"lat":47.305},"population":437},{"code":"25579","name":"Val-de-Roulans","department":"25","center":{"lng":6.2692,"lat":47.3606},"population":197},{"code":"25612","name":"Vieilley","department":"25","center":{"lng":6.0843,"lat":47.3363},"population":667},{"code":"25634","name":"Vuillecin","department":"25","center":{"lng":6.3329,"lat":46.9524},"population":669},{"code":"26008","name":"Ancône","department":"26","center":{"lng":4.7197,"lat":44.5803},"population":1353},{"code":"26107","name":"Crépol","department":"26","center":{"lng":5.0675,"lat":45.1778},"population":527},{"code":"26129","name":"Eymeux","department":"26","center":{"lng":5.1773,"lat":45.0667},"population":1083},{"code":"26206","name":"Montmeyran","department":"26","center":{"lng":4.9821,"lat":44.8362},"population":2964},{"code":"26228","name":"Pennes-le-Sec","department":"26","center":{"lng":5.3177,"lat":44.6379},"population":22},{"code":"26305","name":"Saint-Gervais-sur-Roubion","department":"26","center":{"lng":4.8943,"lat":44.5845},"population":1088},{"code":"26327","name":"Saint-Roman","department":"26","center":{"lng":5.4237,"lat":44.6919},"population":231},{"code":"26349","name":"Tersanne","department":"26","center":{"lng":5.0134,"lat":45.2177},"population":354},{"code":"27119","name":"Bueil","department":"27","center":{"lng":1.4459,"lat":48.934},"population":1635},{"code":"27218","name":"Épaignes","department":"27","center":{"lng":0.4516,"lat":49.2728},"population":1562},{"code":"27317","name":"La Haye-Aubrée","department":"27","center":{"lng":0.6948,"lat":49.395},"population":419},{"code":"27339","name":"Hondouville","department":"27","center":{"lng":1.1098,"lat":49.1457},"population":813},{"code":"27438","name":"Nonancourt","department":"27","center":{"lng":1.1907,"lat":48.7775},"population":2300},{"code":"27537","name":"Saint-Étienne-du-Vauvray","department":"27","center":{"lng":1.2175,"lat":49.2416},"population":890},{"code":"27614","name":"Sancourt","department":"27","center":{"lng":1.6748,"lat":49.3532},"population":171},{"code":"27658","name":"Le Tremblay-Omonville","department":"27","center":{"lng":0.9162,"lat":49.1195},"population":383},{"code":"28109","name":"Les Corvées-les-Yys","department":"28","center":{"lng":1.1477,"lat":48.3666},"population":327},{"code":"28208","name":"Levainville","department":"28","center":{"lng":1.7458,"lat":48.4925},"population":377},{"code":"28329","name":"Saint-Christophe","department":"28","center":{"lng":1.3709,"lat":48.133},"population":148},{"code":"28406","name":"Éole-en-Beauce","department":"28","center":{"lng":1.6716,"lat":48.2108},"population":1240},{"code":"30001","name":"Aigaliers","department":"30","center":{"lng":4.3092,"lat":44.0703},"population":534},{"code":"30023","name":"Aujargues","department":"30","center":{"lng":4.1253,"lat":43.7918},"population":769},{"code":"30045","name":"Bordezac","department":"30","center":{"lng":4.0843,"lat":44.3161},"population":392},{"code":"30067","name":"La Capelle-et-Masmolène","department":"30","center":{"lng":4.5309,"lat":44.0437},"population":421},{"code":"30089","name":"Comps","department":"30","center":{"lng":4.5863,"lat":43.8489},"population":1703},{"code":"30100","name":"Cruviers-Lascours","department":"30","center":{"lng":4.1924,"lat":44.0128},"population":703},{"code":"30122","name":"Gajan","department":"30","center":{"lng":4.2239,"lat":43.8976},"population":747},{"code":"30144","name":"Lecques","department":"30","center":{"lng":4.0561,"lat":43.8423},"population":473},{"code":"30166","name":"Meynes","department":"30","center":{"lng":4.5524,"lat":43.8765},"population":2576},{"code":"30188","name":"Ners","department":"30","center":{"lng":4.1591,"lat":44.0245},"population":791},{"code":"30221","name":"Roquemaure","department":"30","center":{"lng":4.7598,"lat":44.0443},"population":5528},{"code":"30243","name":"Saint-Christol-lez-Alès","department":"30","center":{"lng":4.0682,"lat":44.083},"population":7199},{"code":"30265","name":"Saint-Jean-de-Crieulon","department":"30","center":{"lng":4.0013,"lat":43.9672},"population":254},{"code":"30287","name":"Saint-Michel-d'Euzet","department":"30","center":{"lng":4.5567,"lat":44.2103},"population":719},{"code":"30320","name":"Seynes","department":"30","center":{"lng":4.2894,"lat":44.1134},"population":172},{"code":"30342","name":"Vénéjan","department":"30","center":{"lng":4.6726,"lat":44.1961},"population":1262},{"code":"31013","name":"Ardiège","department":"31","center":{"lng":0.6424,"lat":43.0647},"population":372},{"code":"31035","name":"Auzeville-Tolosane","department":"31","center":{"lng":1.4896,"lat":43.5285},"population":4451},{"code":"31057","name":"Belberaud","department":"31","center":{"lng":1.5709,"lat":43.5045},"population":1528},{"code":"31079","name":"Bouloc","department":"31","center":{"lng":1.4192,"lat":43.7958},"population":4655},{"code":"31112","name":"Castagnède","department":"31","center":{"lng":0.9765,"lat":43.051},"population":178},{"code":"31134","name":"Cazeneuve-Montaut","department":"31","center":{"lng":0.8605,"lat":43.1846},"population":90},{"code":"31156","name":"Cox","department":"31","center":{"lng":1.0419,"lat":43.7606},"population":365},{"code":"31178","name":"Fabas","department":"31","center":{"lng":0.8919,"lat":43.3128},"population":199},{"code":"31211","name":"Gargas","department":"31","center":{"lng":1.4595,"lat":43.7589},"population":758},{"code":"31233","name":"Grépiac","department":"31","center":{"lng":1.4539,"lat":43.4053},"population":1009},{"code":"31255","name":"Labroquère","department":"31","center":{"lng":0.5874,"lat":43.0433},"population":323},{"code":"31277","name":"Lasserre-Pradère","department":"31","center":{"lng":1.176,"lat":43.637},"population":1590},{"code":"31299","name":"Lherm","department":"31","center":{"lng":1.2288,"lat":43.4273},"population":3849},{"code":"31310","name":"Lux","department":"31","center":{"lng":1.7854,"lat":43.4299},"population":341},{"code":"31332","name":"Mauvaisin","department":"31","center":{"lng":1.5339,"lat":43.3587},"population":221},{"code":"31354","name":"Monestrol","department":"31","center":{"lng":1.66,"lat":43.3351},"population":53},{"code":"31376","name":"Montgaillard-de-Salies","department":"31","center":{"lng":0.9328,"lat":43.0598},"population":106},{"code":"31398","name":"Nizan-Gesse","department":"31","center":{"lng":0.5979,"lat":43.2298},"population":100},{"code":"31431","name":"Portet-d'Aspet","department":"31","center":{"lng":0.8522,"lat":42.9412},"population":62},{"code":"31453","name":"Rieumajou","department":"31","center":{"lng":1.8023,"lat":43.4112},"population":137},{"code":"31475","name":"Saint-Clar-de-Rivière","department":"31","center":{"lng":1.208,"lat":43.4749},"population":1664},{"code":"31497","name":"Saint-Loup-Cammas","department":"31","center":{"lng":1.4786,"lat":43.6968},"population":2343},{"code":"31530","name":"Sana","department":"31","center":{"lng":1.0115,"lat":43.2277},"population":239},{"code":"31552","name":"Terrebasse","department":"31","center":{"lng":0.9752,"lat":43.2403},"population":139},{"code":"31574","name":"Vernet","department":"31","center":{"lng":1.4193,"lat":43.4272},"population":3294},{"code":"32003","name":"Antras","department":"32","center":{"lng":0.4465,"lat":43.7304},"population":41},{"code":"32025","name":"Ayzieu","department":"32","center":{"lng":-0.0257,"lat":43.8586},"population":159},{"code":"32047","name":"Berrac","department":"32","center":{"lng":0.5501,"lat":44.0093},"population":114},{"code":"32069","name":"Cadeillan","department":"32","center":{"lng":0.8385,"lat":43.4217},"population":78},{"code":"32102","name":"Cézan","department":"32","center":{"lng":0.4991,"lat":43.8035},"population":203},{"code":"32124","name":"Espaon","department":"32","center":{"lng":0.8699,"lat":43.4306},"population":186},{"code":"32146","name":"Gimbrède","department":"32","center":{"lng":0.7192,"lat":44.0382},"population":285},{"code":"32201","name":"Lasseube-Propre","department":"32","center":{"lng":0.5786,"lat":43.5715},"population":336},{"code":"32223","name":"Magnas","department":"32","center":{"lng":0.7234,"lat":43.892},"population":58},{"code":"32245","name":"Maumusson-Laguian","department":"32","center":{"lng":-0.0923,"lat":43.6107},"population":143},{"code":"32267","name":"Monferran-Plavès","department":"32","center":{"lng":0.641,"lat":43.495},"population":107},{"code":"32289","name":"Montpezat","department":"32","center":{"lng":0.9756,"lat":43.3867},"population":242},{"code":"32300","name":"Orbessan","department":"32","center":{"lng":0.6129,"lat":43.546},"population":270},{"code":"32322","name":"Pompiac","department":"32","center":{"lng":1.0057,"lat":43.5201},"population":207},{"code":"32344","name":"Riscle","department":"32","center":{"lng":-0.0777,"lat":43.6392},"population":1643},{"code":"32366","name":"Saint-Brès","department":"32","center":{"lng":0.7688,"lat":43.785},"population":71},{"code":"32388","name":"Sainte-Marie","department":"32","center":{"lng":0.8633,"lat":43.6747},"population":391},{"code":"32421","name":"Savignac-Mona","department":"32","center":{"lng":1.0092,"lat":43.4852},"population":145},{"code":"32443","name":"Termes-d'Armagnac","department":"32","center":{"lng":-0.0128,"lat":43.6755},"population":199},{"code":"32465","name":"Villefranche-d'Astarac","department":"32","center":{"lng":0.7326,"lat":43.4219},"population":168},{"code":"33015","name":"Arveyres","department":"33","center":{"lng":-0.2798,"lat":44.89},"population":2058},{"code":"33037","name":"Beautiran","department":"33","center":{"lng":-0.4604,"lat":44.7035},"population":2466},{"code":"33059","name":"Blésignac","department":"33","center":{"lng":-0.2537,"lat":44.7786},"population":311},{"code":"33114","name":"Cavignac","department":"33","center":{"lng":-0.3784,"lat":45.0981},"population":2368},{"code":"33136","name":"Cours-de-Monségur","department":"33","center":{"lng":0.1353,"lat":44.6489},"population":243},{"code":"33158","name":"Les Esseintes","department":"33","center":{"lng":-0.0655,"lat":44.6104},"population":245},{"code":"33213","name":"La Brède","department":"33","center":{"lng":-0.5396,"lat":44.6777},"population":4423},{"code":"33235","name":"Lavazan","department":"33","center":{"lng":-0.1133,"lat":44.3926},"population":229},{"code":"33257","name":"Lugaignac","department":"33","center":{"lng":-0.1943,"lat":44.8123},"population":433},{"code":"33279","name":"Mazères","department":"33","center":{"lng":-0.251,"lat":44.5023},"population":781},{"code":"33312","name":"Parempuyre","department":"33","center":{"lng":-0.5844,"lat":44.9548},"population":10407},{"code":"33334","name":"Portets","department":"33","center":{"lng":-0.4263,"lat":44.6783},"population":2638},{"code":"33356","name":"La Rivière","department":"33","center":{"lng":-0.318,"lat":44.9385},"population":412},{"code":"33378","name":"Saint-Avit-Saint-Nazaire","department":"33","center":{"lng":0.2762,"lat":44.8478},"population":1484},{"code":"33411","name":"Saint-Germain-de-Grave","department":"33","center":{"lng":-0.2153,"lat":44.6245},"population":147},{"code":"33433","name":"Saint-Loubès","department":"33","center":{"lng":-0.4257,"lat":44.9223},"population":10057},{"code":"33477","name":"Saint-Seurin-de-Cursac","department":"33","center":{"lng":-0.6252,"lat":45.1576},"population":773},{"code":"33499","name":"Les Salles-de-Castillon","department":"33","center":{"lng":0.0058,"lat":44.9117},"population":321},{"code":"33510","name":"Semens","department":"33","center":{"lng":-0.233,"lat":44.6135},"population":216},{"code":"33532","name":"Tizac-de-Lapouyade","department":"33","center":{"lng":-0.3111,"lat":45.0699},"population":475},{"code":"33554","name":"Yvrac","department":"33","center":{"lng":-0.4705,"lat":44.8817},"population":2901},{"code":"34005","name":"Agonès","department":"34","center":{"lng":3.7241,"lat":43.899},"population":312},{"code":"34027","name":"Beaulieu","department":"34","center":{"lng":4.0256,"lat":43.7293},"population":2239},{"code":"34049","name":"Camplong","department":"34","center":{"lng":3.1056,"lat":43.6842},"population":217},{"code":"34104","name":"Fos","department":"34","center":{"lng":3.2451,"lat":43.567},"population":131},{"code":"34126","name":"Lamalou-les-Bains","department":"34","center":{"lng":3.0847,"lat":43.5982},"population":2421},{"code":"34148","name":"Maraussan","department":"34","center":{"lng":3.154,"lat":43.3733},"population":4693},{"code":"34203","name":"Pinet","department":"34","center":{"lng":3.5149,"lat":43.4099},"population":2012},{"code":"34225","name":"Puisserguier","department":"34","center":{"lng":3.056,"lat":43.379},"population":3034},{"code":"34247","name":"Saint-Clément-de-Rivière","department":"34","center":{"lng":3.8447,"lat":43.6831},"population":5140},{"code":"34269","name":"Saint-Jean-de-Minervois","department":"34","center":{"lng":2.8187,"lat":43.4051},"population":133},{"code":"34302","name":"Siran","department":"34","center":{"lng":2.6641,"lat":43.3298},"population":751},{"code":"34324","name":"Valras-Plage","department":"34","center":{"lng":3.2909,"lat":43.2471},"population":4300},{"code":"35017","name":"La Baussaine","department":"35","center":{"lng":-1.8971,"lat":48.3143},"population":675},{"code":"35039","name":"Brécé","department":"35","center":{"lng":-1.4934,"lat":48.1091},"population":2185},{"code":"35116","name":"La Fresnais","department":"35","center":{"lng":-1.8383,"lat":48.5846},"population":2508},{"code":"35138","name":"Laignelet","department":"35","center":{"lng":-1.1516,"lat":48.3771},"population":1217},{"code":"35215","name":"Parigné","department":"35","center":{"lng":-1.1999,"lat":48.4205},"population":1301},{"code":"35237","name":"Renac","department":"35","center":{"lng":-1.9769,"lat":47.722},"population":1032},{"code":"35259","name":"Saint-Broladre","department":"35","center":{"lng":-1.6641,"lat":48.5786},"population":1166},{"code":"35314","name":"Saint-Suliac","department":"35","center":{"lng":-1.967,"lat":48.5713},"population":977},{"code":"35336","name":"Le Tiercent","department":"35","center":{"lng":-1.4213,"lat":48.349},"population":194},{"code":"35358","name":"La Ville-ès-Nonais","department":"35","center":{"lng":-1.9508,"lat":48.5504},"population":1226},{"code":"36007","name":"Argy","department":"36","center":{"lng":1.4632,"lat":46.9408},"population":574},{"code":"36029","name":"Buxeuil","department":"36","center":{"lng":1.6973,"lat":47.1273},"population":221},{"code":"36106","name":"Luzeret","department":"36","center":{"lng":1.3894,"lat":46.5487},"population":155},{"code":"36128","name":"Montierchaume","department":"36","center":{"lng":1.7741,"lat":46.866},"population":1637},{"code":"36205","name":"Saint-Pierre-de-Jards","department":"36","center":{"lng":1.9693,"lat":47.1005},"population":98},{"code":"36227","name":"Urciers","department":"36","center":{"lng":2.1478,"lat":46.5298},"population":239},{"code":"37019","name":"Barrou","department":"37","center":{"lng":0.7743,"lat":46.8812},"population":480},{"code":"37118","name":"Huismes","department":"37","center":{"lng":0.2532,"lat":47.2311},"population":1446},{"code":"37217","name":"Saint-Étienne-de-Chigny","department":"37","center":{"lng":0.5002,"lat":47.3933},"population":1595},{"code":"38009","name":"Anjou","department":"38","center":{"lng":4.882,"lat":45.3493},"population":1023},{"code":"38108","name":"Choranche","department":"38","center":{"lng":5.399,"lat":45.0744},"population":140},{"code":"38207","name":"Lavaldens","department":"38","center":{"lng":5.8987,"lat":44.9891},"population":161},{"code":"38229","name":"Meylan","department":"38","center":{"lng":5.7865,"lat":45.2147},"population":18790},{"code":"38328","name":"Quaix-en-Chartreuse","department":"38","center":{"lng":5.7302,"lat":45.2591},"population":926},{"code":"38405","name":"Saint-Joseph-de-Rivière","department":"38","center":{"lng":5.6937,"lat":45.3652},"population":1243},{"code":"38427","name":"Saint-Michel-de-Saint-Geoirs","department":"38","center":{"lng":5.3587,"lat":45.3008},"population":290},{"code":"38449","name":"Saint-Quentin-Fallavier","department":"38","center":{"lng":5.1128,"lat":45.6392},"population":6182},{"code":"38504","name":"Theys","department":"38","center":{"lng":6.0067,"lat":45.2958},"population":2014},{"code":"38526","name":"Vatilieu","department":"38","center":{"lng":5.4109,"lat":45.2594},"population":367},{"code":"38548","name":"Villard-de-Lans","department":"38","center":{"lng":5.5392,"lat":45.051},"population":4365},{"code":"39219","name":"Évans","department":"39","center":{"lng":5.764,"lat":47.1794},"population":658},{"code":"39318","name":"Martigna","department":"39","center":{"lng":5.6987,"lat":46.3891},"population":207},{"code":"39439","name":"Port-Lesney","department":"39","center":{"lng":5.8184,"lat":47.0006},"population":539},{"code":"39538","name":"Uxelles","department":"39","center":{"lng":5.7938,"lat":46.6027},"population":65},{"code":"40022","name":"Bahus-Soubiran","department":"40","center":{"lng":-0.3456,"lat":43.6744},"population":393},{"code":"40044","name":"Biaudos","department":"40","center":{"lng":-1.3086,"lat":43.5432},"population":1022},{"code":"40066","name":"Carcarès-Sainte-Croix","department":"40","center":{"lng":-0.7602,"lat":43.8568},"population":540},{"code":"40088","name":"Dax","department":"40","center":{"lng":-1.0637,"lat":43.7025},"population":21716},{"code":"40121","name":"Hauriet","department":"40","center":{"lng":-0.6958,"lat":43.7327},"population":273},{"code":"40143","name":"Lamothe","department":"40","center":{"lng":-0.6612,"lat":43.7961},"population":305},{"code":"40165","name":"Luglon","department":"40","center":{"lng":-0.7306,"lat":44.0807},"population":375},{"code":"40187","name":"Moliets-et-Maa","department":"40","center":{"lng":-1.3589,"lat":43.8626},"population":1303},{"code":"40220","name":"Pécorade","department":"40","center":{"lng":-0.3588,"lat":43.6495},"population":135},{"code":"40242","name":"Rimbez-et-Baudiets","department":"40","center":{"lng":0.0473,"lat":44.0594},"population":104},{"code":"40264","name":"Saint-Jean-de-Marsacq","department":"40","center":{"lng":-1.2545,"lat":43.6161},"population":1810},{"code":"40286","name":"Samadet","department":"40","center":{"lng":-0.4896,"lat":43.6299},"population":1131},{"code":"41012","name":"Baillou","department":"41","center":{"lng":0.8534,"lat":47.9819},"population":205},{"code":"41034","name":"Chambord","department":"41","center":{"lng":1.5374,"lat":47.6208},"population":99},{"code":"41078","name":"Épuisay","department":"41","center":{"lng":0.9297,"lat":47.8971},"population":790},{"code":"41155","name":"Muides-sur-Loire","department":"41","center":{"lng":1.5326,"lat":47.6669},"population":1250},{"code":"41177","name":"Le Plessis-Dorin","department":"41","center":{"lng":0.8505,"lat":48.0837},"population":149},{"code":"41199","name":"Saint-Amand-Longpré","department":"41","center":{"lng":0.9883,"lat":47.6804},"population":1214},{"code":"41232","name":"Salbris","department":"41","center":{"lng":2.0427,"lat":47.4194},"population":4880},{"code":"41254","name":"Le Temple","department":"41","center":{"lng":0.9301,"lat":47.9296},"population":173},{"code":"41276","name":"Villebarou","department":"41","center":{"lng":1.3187,"lat":47.6252},"population":2558},{"code":"42002","name":"Ailleux","department":"42","center":{"lng":3.9363,"lat":45.7981},"population":179},{"code":"42046","name":"Champdieu","department":"42","center":{"lng":4.0484,"lat":45.6394},"population":2035},{"code":"42068","name":"Combre","department":"42","center":{"lng":4.2609,"lat":46.0182},"population":413},{"code":"42101","name":"Graix","department":"42","center":{"lng":4.5544,"lat":45.3606},"population":134},{"code":"42123","name":"Lorette","department":"42","center":{"lng":4.5819,"lat":45.5088},"population":4896},{"code":"42145","name":"Montagny","department":"42","center":{"lng":4.2227,"lat":46.0292},"population":1100},{"code":"42167","name":"Pavezin","department":"42","center":{"lng":4.6605,"lat":45.467},"population":399},{"code":"42189","name":"Roche-la-Molière","department":"42","center":{"lng":4.3282,"lat":45.4271},"population":9853},{"code":"42200","name":"Saint-André-le-Puy","department":"42","center":{"lng":4.2607,"lat":45.6448},"population":1534},{"code":"42222","name":"Saint-Galmier","department":"42","center":{"lng":4.314,"lat":45.6038},"population":5848},{"code":"42266","name":"Saint-Nizier-de-Fornas","department":"42","center":{"lng":4.081,"lat":45.4066},"population":653},{"code":"42288","name":"Saint-Sixte","department":"42","center":{"lng":3.9695,"lat":45.7728},"population":683},{"code":"42321","name":"La Valla-sur-Rochefort","department":"42","center":{"lng":3.8447,"lat":45.7575},"population":103},{"code":"43014","name":"Autrac","department":"43","center":{"lng":3.1282,"lat":45.335},"population":51},{"code":"43036","name":"Borne","department":"43","center":{"lng":3.7921,"lat":45.0946},"population":405},{"code":"43058","name":"La Chapelle-d'Aurec","department":"43","center":{"lng":4.1954,"lat":45.3295},"population":1111},{"code":"43113","name":"Lantriac","department":"43","center":{"lng":4.0078,"lat":44.9903},"population":1929},{"code":"43135","name":"Le Monastier-sur-Gazeille","department":"43","center":{"lng":4.0147,"lat":44.9338},"population":1773},{"code":"43157","name":"Le Puy-en-Velay","department":"43","center":{"lng":3.8973,"lat":45.0283},"population":18989},{"code":"43212","name":"Saint-Pal-de-Chalencon","department":"43","center":{"lng":3.9642,"lat":45.3464},"population":1019},{"code":"43234","name":"Saugues","department":"43","center":{"lng":3.5213,"lat":44.9508},"population":1664},{"code":"43256","name":"Venteuges","department":"43","center":{"lng":3.4871,"lat":44.9803},"population":341},{"code":"44026","name":"Carquefou","department":"44","center":{"lng":-1.4687,"lat":47.2968},"population":20535},{"code":"44048","name":"Couffé","department":"44","center":{"lng":-1.2853,"lat":47.3873},"population":2534},{"code":"44103","name":"Montoir-de-Bretagne","department":"44","center":{"lng":-2.1539,"lat":47.3238},"population":7289},{"code":"44125","name":"Piriac-sur-Mer","department":"44","center":{"lng":-2.5449,"lat":47.3838},"population":2663},{"code":"44169","name":"Saint-Julien-de-Concelles","department":"44","center":{"lng":-1.4036,"lat":47.2469},"population":7768},{"code":"44202","name":"Teillé","department":"44","center":{"lng":-1.2838,"lat":47.4654},"population":1820},{"code":"44224","name":"La Grigonnais","department":"44","center":{"lng":-1.687,"lat":47.5208},"population":1815},{"code":"45016","name":"Autry-le-Châtel","department":"45","center":{"lng":2.6042,"lat":47.5951},"population":858},{"code":"45038","name":"Bondaroy","department":"45","center":{"lng":2.28,"lat":48.1853},"population":414},{"code":"45115","name":"Courtenay","department":"45","center":{"lng":3.0646,"lat":48.0285},"population":3799},{"code":"45137","name":"Escrennes","department":"45","center":{"lng":2.184,"lat":48.1364},"population":711},{"code":"45159","name":"Grangermont","department":"45","center":{"lng":2.4279,"lat":48.1878},"population":177},{"code":"45214","name":"Montigny","department":"45","center":{"lng":2.1169,"lat":48.107},"population":243},{"code":"45258","name":"Puiseaux","department":"45","center":{"lng":2.4679,"lat":48.2084},"population":3336},{"code":"45313","name":"Sougy","department":"45","center":{"lng":1.7974,"lat":48.0611},"population":835},{"code":"45335","name":"Vienne-en-Val","department":"45","center":{"lng":2.1197,"lat":47.7775},"population":1965},{"code":"46006","name":"Anglars-Nozac","department":"46","center":{"lng":1.405,"lat":44.7823},"population":397},{"code":"46028","name":"Bétaille","department":"46","center":{"lng":1.7424,"lat":44.9439},"population":1073},{"code":"46105","name":"Flaujac-Poujols","department":"46","center":{"lng":1.496,"lat":44.408},"population":805},{"code":"46127","name":"Gourdon","department":"46","center":{"lng":1.3714,"lat":44.7382},"population":4080},{"code":"46149","name":"Lamagdelaine","department":"46","center":{"lng":1.5011,"lat":44.4768},"population":716},{"code":"46204","name":"Montfaucon","department":"46","center":{"lng":1.5763,"lat":44.6876},"population":588},{"code":"46226","name":"Prendeignes","department":"46","center":{"lng":2.0732,"lat":44.6937},"population":232},{"code":"46303","name":"Sénaillac-Lauzès","department":"46","center":{"lng":1.646,"lat":44.5883},"population":145},{"code":"47018","name":"Auriac-sur-Dropt","department":"47","center":{"lng":0.241,"lat":44.6551},"population":174},{"code":"47117","name":"Hautefage-la-Tour","department":"47","center":{"lng":0.7766,"lat":44.3426},"population":1028},{"code":"47139","name":"Lasserre","department":"47","center":{"lng":0.3876,"lat":44.0755},"population":98},{"code":"47216","name":"Puymiclan","department":"47","center":{"lng":0.3127,"lat":44.5124},"population":707},{"code":"47238","name":"Sainte-Colombe-en-Bruilhois","department":"47","center":{"lng":0.5162,"lat":44.1874},"population":1552},{"code":"47315","name":"Trentels","department":"47","center":{"lng":0.8615,"lat":44.4438},"population":866},{"code":"48008","name":"Arzenc-de-Randon","department":"48","center":{"lng":3.608,"lat":44.6598},"population":189},{"code":"48107","name":"Palhers","department":"48","center":{"lng":3.3091,"lat":44.516},"population":192},{"code":"48129","name":"Rocles","department":"48","center":{"lng":3.7862,"lat":44.7053},"population":242},{"code":"49218","name":"Montrevault-sur-Èvre","department":"49","center":{"lng":-1.0204,"lat":47.2494},"population":15684},{"code":"49339","name":"Soulaire-et-Bourg","department":"49","center":{"lng":-0.5402,"lat":47.5761},"population":1477},{"code":"50021","name":"Audouville-la-Hubert","department":"50","center":{"lng":-1.2246,"lat":49.4183},"population":76},{"code":"50087","name":"Brix","department":"50","center":{"lng":-1.5783,"lat":49.5521},"population":2146},{"code":"50120","name":"Chanteloup","department":"50","center":{"lng":-1.4784,"lat":48.8918},"population":393},{"code":"50142","name":"Vicq-sur-Mer","department":"50","center":{"lng":-1.3685,"lat":49.6869},"population":1083},{"code":"50164","name":"Domjean","department":"50","center":{"lng":-1.0293,"lat":48.9937},"population":998},{"code":"50186","name":"Flottemanville","department":"50","center":{"lng":-1.4516,"lat":49.4755},"population":227},{"code":"50241","name":"Hémevez","department":"50","center":{"lng":-1.4373,"lat":49.4624},"population":186},{"code":"50263","name":"Lapenty","department":"50","center":{"lng":-1.0271,"lat":48.5673},"population":382},{"code":"50285","name":"Magneville","department":"50","center":{"lng":-1.5535,"lat":49.4538},"population":311},{"code":"50340","name":"Montcuit","department":"50","center":{"lng":-1.3478,"lat":49.1171},"population":185},{"code":"50362","name":"Moulines","department":"50","center":{"lng":-1.0466,"lat":48.5489},"population":281},{"code":"50384","name":"Octeville-l'Avenel","department":"50","center":{"lng":-1.367,"lat":49.5473},"population":233},{"code":"50461","name":"Saint-Cyr","department":"50","center":{"lng":-1.4155,"lat":49.4848},"population":211},{"code":"50483","name":"Saint-Gilles","department":"50","center":{"lng":-1.1615,"lat":49.0953},"population":987},{"code":"50582","name":"Sourdeval","department":"50","center":{"lng":-0.8965,"lat":48.7333},"population":3040},{"code":"51033","name":"Le Baizil","department":"51","center":{"lng":3.7947,"lat":48.9749},"population":271},{"code":"51055","name":"Bétheny","department":"51","center":{"lng":4.0623,"lat":49.2979},"population":7030},{"code":"51077","name":"Bouvancourt","department":"51","center":{"lng":3.8575,"lat":49.346},"population":175},{"code":"51099","name":"Bussy-Lettrée","department":"51","center":{"lng":4.2445,"lat":48.8079},"population":315},{"code":"51110","name":"Chaltrait","department":"51","center":{"lng":3.8925,"lat":48.935},"population":60},{"code":"51132","name":"Les Charmontois","department":"51","center":{"lng":4.9894,"lat":48.9645},"population":119},{"code":"51154","name":"Clamanges","department":"51","center":{"lng":4.0867,"lat":48.8315},"population":225},{"code":"51176","name":"Corroy","department":"51","center":{"lng":3.9552,"lat":48.7003},"population":149},{"code":"51198","name":"Crugny","department":"51","center":{"lng":3.7375,"lat":49.2515},"population":675},{"code":"51231","name":"L'Épine","department":"51","center":{"lng":4.4451,"lat":48.9943},"population":676},{"code":"51253","name":"Florent-en-Argonne","department":"51","center":{"lng":4.9525,"lat":49.1422},"population":217},{"code":"51275","name":"Glannes","department":"51","center":{"lng":4.5005,"lat":48.7018},"population":184},{"code":"51352","name":"Marolles","department":"51","center":{"lng":4.6215,"lat":48.7199},"population":803},{"code":"51374","name":"Mondement-Montgivroux","department":"51","center":{"lng":3.7621,"lat":48.7903},"population":28},{"code":"51396","name":"Nesle-le-Repons","department":"51","center":{"lng":3.7155,"lat":49.0444},"population":138},{"code":"51451","name":"Queudes","department":"51","center":{"lng":3.7598,"lat":48.6582},"population":82},{"code":"51473","name":"Saint-Bon","department":"51","center":{"lng":3.4717,"lat":48.6824},"population":94},{"code":"51495","name":"Saint-Loup","department":"51","center":{"lng":3.8183,"lat":48.7341},"population":75},{"code":"51550","name":"Sompuis","department":"51","center":{"lng":4.3819,"lat":48.6794},"population":264},{"code":"51572","name":"Tilloy-et-Bellay","department":"51","center":{"lng":4.6279,"lat":49.0297},"population":234},{"code":"51594","name":"Vassimont-et-Chapelaine","department":"51","center":{"lng":4.1439,"lat":48.7605},"population":62},{"code":"52001","name":"Ageville","department":"52","center":{"lng":5.3376,"lat":48.1102},"population":302},{"code":"52023","name":"Auberive","department":"52","center":{"lng":5.0948,"lat":47.7843},"population":156},{"code":"52045","name":"Bettancourt-la-Ferrée","department":"52","center":{"lng":4.9709,"lat":48.6579},"population":1797},{"code":"52067","name":"Brainville-sur-Meuse","department":"52","center":{"lng":5.5926,"lat":48.1754},"population":69},{"code":"52089","name":"Celles-en-Bassigny","department":"52","center":{"lng":5.5544,"lat":47.9134},"population":72},{"code":"52122","name":"Chaumont-la-Ville","department":"52","center":{"lng":5.6387,"lat":48.1436},"population":114},{"code":"52221","name":"Gillancourt","department":"52","center":{"lng":4.9957,"lat":48.1534},"population":126},{"code":"52243","name":"Huilliécourt","department":"52","center":{"lng":5.5319,"lat":48.1594},"population":115},{"code":"52265","name":"Bayard-sur-Marne","department":"52","center":{"lng":5.065,"lat":48.5479},"population":1269},{"code":"52287","name":"Levécourt","department":"52","center":{"lng":5.5589,"lat":48.1347},"population":91},{"code":"52320","name":"Merrey","department":"52","center":{"lng":5.5947,"lat":48.0527},"population":92},{"code":"52342","name":"Morionvilliers","department":"52","center":{"lng":5.4112,"lat":48.3762},"population":25},{"code":"52364","name":"Orcevaux","department":"52","center":{"lng":5.2683,"lat":47.7757},"population":96},{"code":"52386","name":"Perthes","department":"52","center":{"lng":4.815,"lat":48.665},"population":517},{"code":"52463","name":"Saudron","department":"52","center":{"lng":5.3228,"lat":48.4952},"population":42},{"code":"52540","name":"Vitry-en-Montagne","department":"52","center":{"lng":5.0919,"lat":47.8211},"population":29},{"code":"53013","name":"Averton","department":"53","center":{"lng":-0.2035,"lat":48.3575},"population":555},{"code":"53035","name":"Bouchamps-lès-Craon","department":"53","center":{"lng":-0.9851,"lat":47.8075},"population":611},{"code":"53057","name":"La Chapelle-au-Riboul","department":"53","center":{"lng":-0.4308,"lat":48.3191},"population":503},{"code":"53079","name":"Couesmes-Vaucé","department":"53","center":{"lng":-0.7093,"lat":48.4479},"population":377},{"code":"53112","name":"Le Ham","department":"53","center":{"lng":-0.3525,"lat":48.3767},"population":343},{"code":"53134","name":"Livet","department":"53","center":{"lng":-0.4613,"lat":48.1126},"population":187},{"code":"53156","name":"Montflours","department":"53","center":{"lng":-0.7233,"lat":48.1714},"population":250},{"code":"53178","name":"Peuton","department":"53","center":{"lng":-0.8084,"lat":47.8905},"population":228},{"code":"53211","name":"Saint-Denis-de-Gastines","department":"53","center":{"lng":-0.8738,"lat":48.3449},"population":1440},{"code":"53233","name":"Saint-Loup-du-Dorat","department":"53","center":{"lng":-0.4225,"lat":47.8823},"population":335},{"code":"53255","name":"Sainte-Suzanne-et-Chammes","department":"53","center":{"lng":-0.3821,"lat":48.0917},"population":1197},{"code":"54003","name":"Aboncourt","department":"54","center":{"lng":5.9875,"lat":48.3605},"population":90},{"code":"54025","name":"Art-sur-Meurthe","department":"54","center":{"lng":6.2585,"lat":48.6604},"population":1696},{"code":"54047","name":"Barisey-la-Côte","department":"54","center":{"lng":5.8467,"lat":48.5458},"population":270},{"code":"54069","name":"Beuvillers","department":"54","center":{"lng":5.9174,"lat":49.388},"population":528},{"code":"54102","name":"Bruley","department":"54","center":{"lng":5.8494,"lat":48.7147},"population":616},{"code":"54124","name":"Chazelles-sur-Albe","department":"54","center":{"lng":6.7696,"lat":48.5869},"population":49},{"code":"54146","name":"Crézilles","department":"54","center":{"lng":5.8902,"lat":48.5817},"population":301},{"code":"54168","name":"Dommartin-sous-Amance","department":"54","center":{"lng":6.2479,"lat":48.7336},"population":311},{"code":"54201","name":"Fontenoy-la-Joûte","department":"54","center":{"lng":6.657,"lat":48.449},"population":311},{"code":"54223","name":"Germiny","department":"54","center":{"lng":6.0027,"lat":48.5475},"population":188},{"code":"54245","name":"Haigneville","department":"54","center":{"lng":6.3419,"lat":48.4851},"population":59},{"code":"54289","name":"Laître-sous-Amance","department":"54","center":{"lng":6.2749,"lat":48.7368},"population":353},{"code":"54300","name":"Laneuveville-devant-Nancy","department":"54","center":{"lng":6.2471,"lat":48.6503},"population":6595},{"code":"54322","name":"Longuyon","department":"54","center":{"lng":5.5887,"lat":49.4625},"population":5141},{"code":"54344","name":"Mangonville","department":"54","center":{"lng":6.2902,"lat":48.451},"population":209},{"code":"54366","name":"Messein","department":"54","center":{"lng":6.1463,"lat":48.6124},"population":1994},{"code":"54388","name":"Mouacourt","department":"54","center":{"lng":6.6388,"lat":48.6688},"population":75},{"code":"54421","name":"Petitmont","department":"54","center":{"lng":6.9885,"lat":48.5468},"population":307},{"code":"54443","name":"Raon-lès-Leau","department":"54","center":{"lng":7.1014,"lat":48.5137},"population":39},{"code":"54465","name":"Roville-devant-Bayon","department":"54","center":{"lng":6.2925,"lat":48.4682},"population":746},{"code":"54487","name":"Saint-Rémy-aux-Bois","department":"54","center":{"lng":6.3921,"lat":48.4157},"population":65},{"code":"54520","name":"Thiébauménil","department":"54","center":{"lng":6.6272,"lat":48.5808},"population":383},{"code":"54542","name":"Valleroy","department":"54","center":{"lng":5.9096,"lat":49.2151},"population":2355},{"code":"54564","name":"Viéville-en-Haye","department":"54","center":{"lng":5.9133,"lat":48.941},"population":140},{"code":"54586","name":"Viterne","department":"54","center":{"lng":6.0133,"lat":48.5835},"population":740},{"code":"55015","name":"Aulnois-en-Perthois","department":"55","center":{"lng":5.1227,"lat":48.6362},"population":470},{"code":"55037","name":"Beaufort-en-Argonne","department":"55","center":{"lng":5.1106,"lat":49.48},"population":127},{"code":"55059","name":"Bonnet","department":"55","center":{"lng":5.4219,"lat":48.5243},"population":181},{"code":"55114","name":"Chonville-Malaumont","department":"55","center":{"lng":5.4868,"lat":48.7592},"population":204},{"code":"55158","name":"Dommary-Baroncourt","department":"55","center":{"lng":5.7186,"lat":49.2803},"population":745},{"code":"55257","name":"Jouy-en-Argonne","department":"55","center":{"lng":5.2218,"lat":49.1377},"population":55},{"code":"55279","name":"Laneuville-sur-Meuse","department":"55","center":{"lng":5.1188,"lat":49.4966},"population":446},{"code":"55312","name":"Maizey","department":"55","center":{"lng":5.5418,"lat":48.924},"population":159},{"code":"55334","name":"Ménil-la-Horgne","department":"55","center":{"lng":5.5397,"lat":48.7035},"population":175},{"code":"55356","name":"Moranville","department":"55","center":{"lng":5.5415,"lat":49.1779},"population":103},{"code":"55378","name":"Nettancourt","department":"55","center":{"lng":4.936,"lat":48.874},"population":242},{"code":"55411","name":"Rambluzin-et-Benoite-Vaux","department":"55","center":{"lng":5.338,"lat":48.9865},"population":86},{"code":"55433","name":"Rigny-la-Salle","department":"55","center":{"lng":5.721,"lat":48.6254},"population":370},{"code":"55477","name":"Savonnières-en-Perthois","department":"55","center":{"lng":5.1429,"lat":48.6023},"population":400},{"code":"55510","name":"Thonne-les-Près","department":"55","center":{"lng":5.3418,"lat":49.5331},"population":125},{"code":"55532","name":"Vaubecourt","department":"55","center":{"lng":5.1063,"lat":48.9446},"population":314},{"code":"55554","name":"Villécloye","department":"55","center":{"lng":5.405,"lat":49.5082},"population":250},{"code":"56005","name":"Arzon","department":"56","center":{"lng":-2.9031,"lat":47.5499},"population":2272},{"code":"56027","name":"Buléon","department":"56","center":{"lng":-2.6757,"lat":47.9216},"population":546},{"code":"56104","name":"Lanvaudan","department":"56","center":{"lng":-3.2479,"lat":47.8903},"population":809},{"code":"56126","name":"Marzan","department":"56","center":{"lng":-2.3599,"lat":47.5441},"population":2611},{"code":"56148","name":"Nostang","department":"56","center":{"lng":-3.1755,"lat":47.7509},"population":1650},{"code":"56203","name":"Saint-Aignan","department":"56","center":{"lng":-3.0493,"lat":48.1801},"population":632},{"code":"56225","name":"Saint-Léry","department":"56","center":{"lng":-2.2636,"lat":48.0905},"population":205},{"code":"56247","name":"Sulniac","department":"56","center":{"lng":-2.5538,"lat":47.6539},"population":3847},{"code":"57017","name":"Amanvillers","department":"57","center":{"lng":6.0429,"lat":49.1615},"population":2154},{"code":"57039","name":"Augny","department":"57","center":{"lng":6.1097,"lat":49.0538},"population":2127},{"code":"57116","name":"Buchy","department":"57","center":{"lng":6.2873,"lat":48.9794},"population":98},{"code":"57138","name":"Chenois","department":"57","center":{"lng":6.4912,"lat":48.958},"population":80},{"code":"57215","name":"Flastroff","department":"57","center":{"lng":6.5309,"lat":49.3743},"population":371},{"code":"57237","name":"Frémestroff","department":"57","center":{"lng":6.7809,"lat":49.0161},"population":304},{"code":"57259","name":"Grindorff-Bizing","department":"57","center":{"lng":6.5128,"lat":49.383},"population":311},{"code":"57314","name":"Héming","department":"57","center":{"lng":6.9721,"lat":48.6984},"population":495},{"code":"57336","name":"L'Hôpital","department":"57","center":{"lng":6.732,"lat":49.1548},"population":5179},{"code":"57358","name":"Kédange-sur-Canner","department":"57","center":{"lng":6.3454,"lat":49.3104},"population":1060},{"code":"57413","name":"Longeville-lès-Saint-Avold","department":"57","center":{"lng":6.6509,"lat":49.119},"population":3592},{"code":"57457","name":"Menskirch","department":"57","center":{"lng":6.4302,"lat":49.3193},"population":140},{"code":"57479","name":"Montenach","department":"57","center":{"lng":6.3869,"lat":49.4137},"population":487},{"code":"57512","name":"Nouilly","department":"57","center":{"lng":6.2569,"lat":49.1335},"population":718},{"code":"57534","name":"Peltre","department":"57","center":{"lng":6.2236,"lat":49.0731},"population":1803},{"code":"57556","name":"Puttelange-aux-Lacs","department":"57","center":{"lng":6.9178,"lat":49.0537},"population":3058},{"code":"57578","name":"Rezonville-Vionville","department":"57","center":{"lng":5.9684,"lat":49.0877},"population":506},{"code":"57611","name":"Saint-Georges","department":"57","center":{"lng":6.9247,"lat":48.6566},"population":192},{"code":"57633","name":"Sarreinsming","department":"57","center":{"lng":7.1193,"lat":49.0911},"population":1206},{"code":"57655","name":"Solgne","department":"57","center":{"lng":6.297,"lat":48.9706},"population":1138},{"code":"57677","name":"Trémery","department":"57","center":{"lng":6.248,"lat":49.2538},"population":979},{"code":"57732","name":"Volmunster","department":"57","center":{"lng":7.369,"lat":49.1151},"population":774},{"code":"57754","name":"Xanrey","department":"57","center":{"lng":6.5858,"lat":48.7497},"population":110},{"code":"58007","name":"Annay","department":"58","center":{"lng":2.9415,"lat":47.5297},"population":345},{"code":"58029","name":"Beuvron","department":"58","center":{"lng":3.4997,"lat":47.351},"population":86},{"code":"58106","name":"Dun-les-Places","department":"58","center":{"lng":4.0174,"lat":47.2868},"population":362},{"code":"58128","name":"Glux-en-Glenne","department":"58","center":{"lng":4.019,"lat":46.9541},"population":87},{"code":"58205","name":"Ouroux-en-Morvan","department":"58","center":{"lng":3.9483,"lat":47.1917},"population":596},{"code":"58227","name":"Saint-Amand-en-Puisaye","department":"58","center":{"lng":3.0774,"lat":47.5479},"population":1211},{"code":"58249","name":"Saint-Léger-de-Fougeret","department":"58","center":{"lng":3.9077,"lat":47.0079},"population":348},{"code":"58304","name":"Varzy","department":"58","center":{"lng":3.3895,"lat":47.3543},"population":1066},{"code":"59019","name":"Artres","department":"59","center":{"lng":3.5385,"lat":50.2961},"population":1073},{"code":"59118","name":"Busigny","department":"59","center":{"lng":3.4677,"lat":50.0417},"population":2437},{"code":"59217","name":"Eth","department":"59","center":{"lng":3.6682,"lat":50.3245},"population":334},{"code":"59239","name":"Flines-lez-Raches","department":"59","center":{"lng":3.1833,"lat":50.4158},"population":5677},{"code":"59316","name":"Houplin-Ancoisne","department":"59","center":{"lng":2.9943,"lat":50.5686},"population":3301},{"code":"59338","name":"Ledringhem","department":"59","center":{"lng":2.4456,"lat":50.8609},"population":618},{"code":"59415","name":"Montrécourt","department":"59","center":{"lng":3.4483,"lat":50.2267},"population":227},{"code":"59437","name":"Noyelles-lès-Seclin","department":"59","center":{"lng":3.0144,"lat":50.5717},"population":839},{"code":"59459","name":"Petite-Forêt","department":"59","center":{"lng":3.4773,"lat":50.3761},"population":5058},{"code":"59514","name":"Rousies","department":"59","center":{"lng":3.999,"lat":50.2717},"population":4016},{"code":"59536","name":"Sainte-Marie-Cappel","department":"59","center":{"lng":2.5201,"lat":50.7812},"population":835},{"code":"59558","name":"Saulzoir","department":"59","center":{"lng":3.4422,"lat":50.2406},"population":1685},{"code":"59613","name":"Vicq","department":"59","center":{"lng":3.606,"lat":50.4149},"population":1472},{"code":"59635","name":"Wambaix","department":"59","center":{"lng":3.3113,"lat":50.1296},"population":368},{"code":"59657","name":"West-Cappel","department":"59","center":{"lng":2.5122,"lat":50.9276},"population":640},{"code":"60020","name":"Antilly","department":"60","center":{"lng":2.9887,"lat":49.1555},"population":271},{"code":"60042","name":"Bailleval","department":"60","center":{"lng":2.4692,"lat":49.3485},"population":1477},{"code":"60064","name":"Berneuil-sur-Aisne","department":"60","center":{"lng":2.9934,"lat":49.4263},"population":937},{"code":"60086","name":"Boran-sur-Oise","department":"60","center":{"lng":2.3471,"lat":49.1728},"population":2135},{"code":"60141","name":"Chantilly","department":"60","center":{"lng":2.4876,"lat":49.18},"population":10740},{"code":"60163","name":"Cormeilles","department":"60","center":{"lng":2.1984,"lat":49.643},"population":393},{"code":"60185","name":"Crouy-en-Thelle","department":"60","center":{"lng":2.3213,"lat":49.2075},"population":1100},{"code":"60240","name":"Fontaine-Bonneleau","department":"60","center":{"lng":2.1419,"lat":49.6605},"population":235},{"code":"60262","name":"Le Frestoy-Vaux","department":"60","center":{"lng":2.6073,"lat":49.595},"population":231},{"code":"60284","name":"Grandfresnoy","department":"60","center":{"lng":2.66,"lat":49.3798},"population":1826},{"code":"60361","name":"Liancourt-Saint-Pierre","department":"60","center":{"lng":1.9054,"lat":49.2347},"population":577},{"code":"60383","name":"Margny-sur-Matz","department":"60","center":{"lng":2.7802,"lat":49.5316},"population":533},{"code":"60460","name":"La Neuville-Vault","department":"60","center":{"lng":1.964,"lat":49.49},"population":208},{"code":"60482","name":"Orry-la-Ville","department":"60","center":{"lng":2.5087,"lat":49.1414},"population":3519},{"code":"60581","name":"Saint-Just-en-Chaussée","department":"60","center":{"lng":2.4145,"lat":49.5132},"population":5940},{"code":"60680","name":"Villeneuve-sur-Verberie","department":"60","center":{"lng":2.6784,"lat":49.2758},"population":718},{"code":"61010","name":"Aubry-le-Panthou","department":"61","center":{"lng":0.2219,"lat":48.8531},"population":130},{"code":"61032","name":"Beaufai","department":"61","center":{"lng":0.5125,"lat":48.758},"population":327},{"code":"61054","name":"Le Bosc-Renoult","department":"61","center":{"lng":0.3128,"lat":48.9149},"population":259},{"code":"61076","name":"Le Cercueil","department":"61","center":{"lng":0.0087,"lat":48.5962},"population":145},{"code":"61098","name":"La Chapelle-près-Sées","department":"61","center":{"lng":0.1493,"lat":48.5692},"population":488},{"code":"61153","name":"Écouché-les-Vallées","department":"61","center":{"lng":-0.1316,"lat":48.7232},"population":2193},{"code":"61197","name":"Guêprei","department":"61","center":{"lng":-0.0188,"lat":48.8361},"population":146},{"code":"61230","name":"Longny les Villages","department":"61","center":{"lng":0.8033,"lat":48.5419},"population":2826},{"code":"61252","name":"Mardilly","department":"61","center":{"lng":0.2651,"lat":48.8283},"population":133},{"code":"61274","name":"Les Menus","department":"61","center":{"lng":0.9289,"lat":48.5165},"population":241},{"code":"61351","name":"Roiville","department":"61","center":{"lng":0.2361,"lat":48.8797},"population":133},{"code":"61373","name":"Sainte-Céronne-lès-Mortagne","department":"61","center":{"lng":0.5241,"lat":48.5911},"population":249},{"code":"61395","name":"Saint-Germain-des-Grois","department":"61","center":{"lng":0.8154,"lat":48.4066},"population":204},{"code":"61450","name":"Saint-Quentin-de-Blavou","department":"61","center":{"lng":0.419,"lat":48.4799},"population":77},{"code":"61472","name":"Sévigny","department":"61","center":{"lng":-0.0198,"lat":48.7726},"population":309},{"code":"61494","name":"Trun","department":"61","center":{"lng":0.0438,"lat":48.8504},"population":1183},{"code":"62022","name":"Alincthun","department":"62","center":{"lng":1.8119,"lat":50.7255},"population":296},{"code":"62044","name":"Attin","department":"62","center":{"lng":1.7533,"lat":50.4926},"population":864},{"code":"62066","name":"Avondance","department":"62","center":{"lng":2.1002,"lat":50.4787},"population":33},{"code":"62088","name":"Bayenghem-lès-Seninghem","department":"62","center":{"lng":2.0785,"lat":50.7052},"population":345},{"code":"62121","name":"Beugnâtre","department":"62","center":{"lng":2.8757,"lat":50.1313},"population":181},{"code":"62143","name":"Boffles","department":"62","center":{"lng":2.2011,"lat":50.2561},"population":47},{"code":"62165","name":"Bournonville","department":"62","center":{"lng":1.8415,"lat":50.6971},"population":226},{"code":"62187","name":"Buneville","department":"62","center":{"lng":2.3503,"lat":50.324},"population":177},{"code":"62220","name":"Cavron-Saint-Martin","department":"62","center":{"lng":2.0145,"lat":50.4235},"population":432},{"code":"62242","name":"Couin","department":"62","center":{"lng":2.5334,"lat":50.1309},"population":79},{"code":"62264","name":"Dannes","department":"62","center":{"lng":1.6101,"lat":50.5939},"population":1317},{"code":"62286","name":"Ecquedecques","department":"62","center":{"lng":2.4414,"lat":50.5595},"population":510},{"code":"62341","name":"Foncquevillers","department":"62","center":{"lng":2.6219,"lat":50.1448},"population":393},{"code":"62363","name":"Frévin-Capelle","department":"62","center":{"lng":2.6361,"lat":50.3505},"population":393},{"code":"62385","name":"Grand-Rullecourt","department":"62","center":{"lng":2.4797,"lat":50.2536},"population":380},{"code":"62440","name":"Hermies","department":"62","center":{"lng":3.035,"lat":50.1087},"population":1076},{"code":"62462","name":"Huclier","department":"62","center":{"lng":2.356,"lat":50.4359},"population":155},{"code":"62484","name":"Lagnicourt-Marcel","department":"62","center":{"lng":2.9592,"lat":50.1569},"population":309},{"code":"62561","name":"Martinpuich","department":"62","center":{"lng":2.769,"lat":50.0513},"population":179},{"code":"62583","name":"Mondicourt","department":"62","center":{"lng":2.467,"lat":50.1742},"population":579},{"code":"62660","name":"Plouvain","department":"62","center":{"lng":2.9159,"lat":50.306},"population":454},{"code":"62682","name":"Quilen","department":"62","center":{"lng":1.9344,"lat":50.5287},"population":65},{"code":"62781","name":"Sauchy-Lestrée","department":"62","center":{"lng":3.1144,"lat":50.2186},"population":445},{"code":"62880","name":"Le Wast","department":"62","center":{"lng":1.7979,"lat":50.7503},"population":203},{"code":"63012","name":"Artonne","department":"63","center":{"lng":3.1489,"lat":46.0061},"population":923},{"code":"63034","name":"Beauregard-l'Évêque","department":"63","center":{"lng":3.2969,"lat":45.8167},"population":1584},{"code":"63056","name":"Brousse","department":"63","center":{"lng":3.4641,"lat":45.6052},"population":358},{"code":"63111","name":"Clémensat","department":"63","center":{"lng":3.1045,"lat":45.5643},"population":121},{"code":"63155","name":"Estandeuil","department":"63","center":{"lng":3.4457,"lat":45.6807},"population":508},{"code":"63177","name":"Isserteaux","department":"63","center":{"lng":3.3802,"lat":45.6505},"population":422},{"code":"63199","name":"Ludesse","department":"63","center":{"lng":3.0997,"lat":45.6137},"population":495},{"code":"63210","name":"Maringues","department":"63","center":{"lng":3.3435,"lat":45.922},"population":3140},{"code":"63232","name":"Mons","department":"63","center":{"lng":3.435,"lat":46.0026},"population":559},{"code":"63254","name":"Nohanent","department":"63","center":{"lng":3.0588,"lat":45.8117},"population":2246},{"code":"63276","name":"Peschadoires","department":"63","center":{"lng":3.4842,"lat":45.827},"population":2103},{"code":"63298","name":"La Renaudie","department":"63","center":{"lng":3.7099,"lat":45.7427},"population":131},{"code":"63331","name":"Saint-Clément-de-Valorgue","department":"63","center":{"lng":3.9335,"lat":45.498},"population":237},{"code":"63353","name":"Saint-Germain-l'Herm","department":"63","center":{"lng":3.5403,"lat":45.4617},"population":488},{"code":"63375","name":"Saint-Martin-des-Plains","department":"63","center":{"lng":3.3092,"lat":45.4966},"population":178},{"code":"63397","name":"Saint-Sauves-d'Auvergne","department":"63","center":{"lng":2.6968,"lat":45.6104},"population":1128},{"code":"63430","name":"Thiers","department":"63","center":{"lng":3.538,"lat":45.8653},"population":11686},{"code":"63452","name":"Verrières","department":"63","center":{"lng":3.0352,"lat":45.5682},"population":74},{"code":"64002","name":"Abère","department":"64","center":{"lng":-0.174,"lat":43.3886},"population":159},{"code":"64024","name":"Anglet","department":"64","center":{"lng":-1.5193,"lat":43.4893},"population":42288},{"code":"64046","name":"Armendarits","department":"64","center":{"lng":-1.1651,"lat":43.2963},"population":392},{"code":"64068","name":"Asson","department":"64","center":{"lng":-0.2432,"lat":43.1035},"population":1997},{"code":"64101","name":"Baudreix","department":"64","center":{"lng":-0.2587,"lat":43.2057},"population":585},{"code":"64123","name":"Bidache","department":"64","center":{"lng":-1.1359,"lat":43.4676},"population":1347},{"code":"64145","name":"Bourdettes","department":"64","center":{"lng":-0.2706,"lat":43.1942},"population":506},{"code":"64167","name":"Carrère","department":"64","center":{"lng":-0.2784,"lat":43.4791},"population":217},{"code":"64189","name":"Ciboure","department":"64","center":{"lng":-1.6661,"lat":43.3764},"population":5957},{"code":"64200","name":"Doazon","department":"64","center":{"lng":-0.5544,"lat":43.455},"population":184},{"code":"64222","name":"Etchebar","department":"64","center":{"lng":-0.9057,"lat":43.0674},"population":74},{"code":"64244","name":"Geüs-d'Oloron","department":"64","center":{"lng":-0.7283,"lat":43.238},"population":262},{"code":"64266","name":"Hours","department":"64","center":{"lng":-0.1708,"lat":43.2234},"population":230},{"code":"64288","name":"Labastide-Cézéracq","department":"64","center":{"lng":-0.5419,"lat":43.3755},"population":582},{"code":"64321","name":"Lasclaveries","department":"64","center":{"lng":-0.2915,"lat":43.4352},"population":248},{"code":"64343","name":"Limendous","department":"64","center":{"lng":-0.1829,"lat":43.2786},"population":706},{"code":"64365","name":"Malaussanne","department":"64","center":{"lng":-0.4703,"lat":43.5699},"population":444},{"code":"64387","name":"Momas","department":"64","center":{"lng":-0.4361,"lat":43.4409},"population":612},{"code":"64420","name":"Ogenne-Camptort","department":"64","center":{"lng":-0.6987,"lat":43.3181},"population":242},{"code":"64442","name":"Parbayse","department":"64","center":{"lng":-0.55,"lat":43.3335},"population":321},{"code":"64464","name":"Ribarrouy","department":"64","center":{"lng":-0.2775,"lat":43.5196},"population":81},{"code":"64486","name":"Saint-Jean-Poudge","department":"64","center":{"lng":-0.1847,"lat":43.5287},"population":74},{"code":"65014","name":"Antichan","department":"65","center":{"lng":0.5831,"lat":42.9918},"population":40},{"code":"65036","name":"Artalens-Souin","department":"65","center":{"lng":-0.0393,"lat":42.9785},"population":135},{"code":"65058","name":"Azet","department":"65","center":{"lng":0.3566,"lat":42.7823},"population":146},{"code":"65113","name":"Burg","department":"65","center":{"lng":0.3203,"lat":43.1882},"population":278},{"code":"65135","name":"Castillon","department":"65","center":{"lng":0.2219,"lat":43.0951},"population":76},{"code":"65157","name":"Ens","department":"65","center":{"lng":0.3366,"lat":42.7955},"population":25},{"code":"65179","name":"Fréchendets","department":"65","center":{"lng":0.2333,"lat":43.0602},"population":31},{"code":"65212","name":"Guchen","department":"65","center":{"lng":0.3238,"lat":42.8554},"population":313},{"code":"65234","name":"Jézeau","department":"65","center":{"lng":0.4096,"lat":42.9098},"population":104},{"code":"65256","name":"Lanespède","department":"65","center":{"lng":0.2744,"lat":43.1651},"population":144},{"code":"65278","name":"Lomné","department":"65","center":{"lng":0.3027,"lat":43.047},"population":36},{"code":"65311","name":"Mingot","department":"65","center":{"lng":0.1719,"lat":43.3757},"population":98},{"code":"65333","name":"Oléac-Dessus","department":"65","center":{"lng":0.1978,"lat":43.1593},"population":112},{"code":"65355","name":"Paréac","department":"65","center":{"lng":0.0202,"lat":43.1159},"population":76},{"code":"65377","name":"Réjaumont","department":"65","center":{"lng":0.4511,"lat":43.1634},"population":150},{"code":"65399","name":"Saligos","department":"65","center":{"lng":-0.0145,"lat":42.8975},"population":89},{"code":"65410","name":"Sarrouilles","department":"65","center":{"lng":0.1314,"lat":43.2316},"population":541},{"code":"65432","name":"Soublecause","department":"65","center":{"lng":-0.0281,"lat":43.5345},"population":174},{"code":"65454","name":"Trouley-Labarthe","department":"65","center":{"lng":0.2497,"lat":43.3198},"population":107},{"code":"65476","name":"Villenave-près-Béarn","department":"65","center":{"lng":-0.0927,"lat":43.366},"population":69},{"code":"66004","name":"Les Angles","department":"66","center":{"lng":2.049,"lat":42.5797},"population":584},{"code":"66026","name":"Brouilla","department":"66","center":{"lng":2.8927,"lat":42.5759},"population":1586},{"code":"66048","name":"Cerbère","department":"66","center":{"lng":3.1493,"lat":42.4471},"population":1213},{"code":"66103","name":"Marquixanes","department":"66","center":{"lng":2.4848,"lat":42.6344},"population":585},{"code":"66125","name":"Olette","department":"66","center":{"lng":2.2449,"lat":42.5938},"population":337},{"code":"66147","name":"Porté-Puymorens","department":"66","center":{"lng":1.8381,"lat":42.5546},"population":102},{"code":"66169","name":"Saint-Arnac","department":"66","center":{"lng":2.5343,"lat":42.7737},"population":101},{"code":"66202","name":"Targasonne","department":"66","center":{"lng":1.9877,"lat":42.5014},"population":194},{"code":"66224","name":"Villelongue-de-la-Salanque","department":"66","center":{"lng":2.977,"lat":42.7261},"population":3318},{"code":"67016","name":"Avolsheim","department":"67","center":{"lng":7.4921,"lat":48.561},"population":766},{"code":"67038","name":"Bietlenheim","department":"67","center":{"lng":7.7815,"lat":48.7216},"population":317},{"code":"67115","name":"Ebersheim","department":"67","center":{"lng":7.498,"lat":48.302},"population":2295},{"code":"67137","name":"Fegersheim","department":"67","center":{"lng":7.6864,"lat":48.4972},"population":5769},{"code":"67159","name":"Gœrlingen","department":"67","center":{"lng":7.0859,"lat":48.7998},"population":204},{"code":"67214","name":"Hurtigheim","department":"67","center":{"lng":7.6039,"lat":48.6171},"population":1002},{"code":"67236","name":"Kienheim","department":"67","center":{"lng":7.5854,"lat":48.6878},"population":540},{"code":"67258","name":"Landersheim","department":"67","center":{"lng":7.5034,"lat":48.6911},"population":191},{"code":"67313","name":"Mutzig","department":"67","center":{"lng":7.458,"lat":48.5374},"population":6101},{"code":"67335","name":"Nordheim","department":"67","center":{"lng":7.5012,"lat":48.6403},"population":947},{"code":"67379","name":"Preuschdorf","department":"67","center":{"lng":7.8032,"lat":48.9499},"population":891},{"code":"67412","name":"Rossfeld","department":"67","center":{"lng":7.6153,"lat":48.3342},"population":1030},{"code":"67434","name":"Sarre-Union","department":"67","center":{"lng":7.0862,"lat":48.9443},"population":2751},{"code":"67456","name":"Schopperten","department":"67","center":{"lng":7.0515,"lat":48.9471},"population":412},{"code":"67478","name":"Steinbourg","department":"67","center":{"lng":7.4119,"lat":48.7654},"population":1928},{"code":"67511","name":"Walbourg","department":"67","center":{"lng":7.783,"lat":48.8852},"population":926},{"code":"67555","name":"Zehnacker","department":"67","center":{"lng":7.4523,"lat":48.6694},"population":251},{"code":"68006","name":"Bernwiller","department":"68","center":{"lng":7.183,"lat":47.7025},"population":1209},{"code":"68028","name":"Bergheim","department":"68","center":{"lng":7.3672,"lat":48.2135},"population":2061},{"code":"68105","name":"Gildwiller","department":"68","center":{"lng":7.1373,"lat":47.6955},"population":259},{"code":"68127","name":"Heidwiller","department":"68","center":{"lng":7.2303,"lat":47.6588},"population":656},{"code":"68149","name":"Huningue","department":"68","center":{"lng":7.5798,"lat":47.5882},"population":7410},{"code":"68204","name":"Metzeral","department":"68","center":{"lng":7.0334,"lat":47.9924},"population":1051},{"code":"68226","name":"Munster","department":"68","center":{"lng":7.1328,"lat":48.0463},"population":4709},{"code":"68248","name":"Oltingue","department":"68","center":{"lng":7.4001,"lat":47.4898},"population":684},{"code":"68303","name":"Schwoben","department":"68","center":{"lng":7.3009,"lat":47.6074},"population":228},{"code":"68325","name":"Steinsoultz","department":"68","center":{"lng":7.346,"lat":47.559},"population":749},{"code":"68347","name":"Vieux-Ferrette","department":"68","center":{"lng":7.3054,"lat":47.5095},"population":643},{"code":"69018","name":"Beaujeu","department":"69","center":{"lng":4.5802,"lat":46.1585},"population":2103},{"code":"69117","name":"Lissieu","department":"69","center":{"lng":4.7496,"lat":45.8582},"population":3193},{"code":"69139","name":"Montrottier","department":"69","center":{"lng":4.4654,"lat":45.8014},"population":1393},{"code":"69216","name":"Saint-Julien-sur-Bibost","department":"69","center":{"lng":4.5087,"lat":45.7984},"population":605},{"code":"69238","name":"Saint-Symphorien-sur-Coise","department":"69","center":{"lng":4.4456,"lat":45.6314},"population":3749},{"code":"70041","name":"Autrey-lès-Gray","department":"70","center":{"lng":5.4808,"lat":47.4609},"population":386},{"code":"70063","name":"Belonchamp","department":"70","center":{"lng":6.6153,"lat":47.7724},"population":207},{"code":"70085","name":"Boult","department":"70","center":{"lng":6.0012,"lat":47.3829},"population":708},{"code":"70140","name":"Châteney","department":"70","center":{"lng":6.323,"lat":47.6967},"population":63},{"code":"70162","name":"Colombe-lès-Vesoul","department":"70","center":{"lng":6.2204,"lat":47.612},"population":480},{"code":"70184","name":"Couthenans","department":"70","center":{"lng":6.7272,"lat":47.5917},"population":714},{"code":"70261","name":"Frotey-lès-Vesoul","department":"70","center":{"lng":6.1974,"lat":47.6283},"population":1367},{"code":"70283","name":"Haut-du-Them-Château-Lambert","department":"70","center":{"lng":6.7443,"lat":47.8398},"population":448},{"code":"70360","name":"Montdoré","department":"70","center":{"lng":6.0763,"lat":47.9277},"population":70},{"code":"70481","name":"Savoyeux","department":"70","center":{"lng":5.7344,"lat":47.5483},"population":195},{"code":"70580","name":"Vy-le-Ferroux","department":"70","center":{"lng":5.9634,"lat":47.5868},"population":159},{"code":"71031","name":"Berzé-le-Châtel","department":"71","center":{"lng":4.6776,"lat":46.3936},"population":56},{"code":"71075","name":"Chalmoux","department":"71","center":{"lng":3.8476,"lat":46.5928},"population":636},{"code":"71097","name":"La Chapelle-Thècle","department":"71","center":{"lng":5.1035,"lat":46.5567},"population":497},{"code":"71130","name":"Chissey-lès-Mâcon","department":"71","center":{"lng":4.7447,"lat":46.5194},"population":230},{"code":"71152","name":"Cressy-sur-Somme","department":"71","center":{"lng":3.8687,"lat":46.6997},"population":174},{"code":"71174","name":"Dezize-lès-Maranges","department":"71","center":{"lng":4.6613,"lat":46.923},"population":164},{"code":"71196","name":"Le Fay","department":"71","center":{"lng":5.3351,"lat":46.6649},"population":621},{"code":"71251","name":"Laizy","department":"71","center":{"lng":4.1849,"lat":46.9135},"population":595},{"code":"71273","name":"Maltat","department":"71","center":{"lng":3.8112,"lat":46.6732},"population":280},{"code":"71295","name":"Mervans","department":"71","center":{"lng":5.1905,"lat":46.7884},"population":1488},{"code":"71350","name":"Pierreclos","department":"71","center":{"lng":4.6726,"lat":46.3345},"population":851},{"code":"71372","name":"Romanèche-Thorins","department":"71","center":{"lng":4.7478,"lat":46.192},"population":2002},{"code":"71394","name":"Saint-Bonnet-de-Joux","department":"71","center":{"lng":4.4371,"lat":46.4798},"population":797},{"code":"71471","name":"Saint-Privé","department":"71","center":{"lng":4.5793,"lat":46.6996},"population":99},{"code":"71493","name":"Saisy","department":"71","center":{"lng":4.5563,"lat":46.9622},"population":349},{"code":"71570","name":"Verjux","department":"71","center":{"lng":4.9753,"lat":46.8768},"population":508},{"code":"72021","name":"Avoise","department":"72","center":{"lng":-0.197,"lat":47.8575},"population":572},{"code":"72043","name":"Bourg-le-Roi","department":"72","center":{"lng":0.1338,"lat":48.3459},"population":335},{"code":"72065","name":"La Chapelle-Saint-Aubin","department":"72","center":{"lng":0.1568,"lat":48.0346},"population":2252},{"code":"72087","name":"Conflans-sur-Anille","department":"72","center":{"lng":0.7253,"lat":47.9715},"population":460},{"code":"72120","name":"Doucelles","department":"72","center":{"lng":0.1813,"lat":48.2561},"population":225},{"code":"72142","name":"Grandchamp","department":"72","center":{"lng":0.1808,"lat":48.3102},"population":141},{"code":"72164","name":"Livet-en-Saosnois","department":"72","center":{"lng":0.2107,"lat":48.356},"population":65},{"code":"72186","name":"Maresché","department":"72","center":{"lng":0.1492,"lat":48.2076},"population":879},{"code":"72241","name":"Montfort-le-Gesnois","department":"72","center":{"lng":0.3988,"lat":48.0574},"population":2928},{"code":"72340","name":"Souligné-sous-Ballon","department":"72","center":{"lng":0.2338,"lat":48.1336},"population":1237},{"code":"72362","name":"Le Tronchet","department":"72","center":{"lng":0.08,"lat":48.18},"population":169},{"code":"73011","name":"Albertville","department":"73","center":{"lng":6.41,"lat":45.6647},"population":19706},{"code":"73033","name":"La Bauche","department":"73","center":{"lng":5.7711,"lat":45.4813},"population":541},{"code":"73055","name":"Bozel","department":"73","center":{"lng":6.6537,"lat":45.4576},"population":2024},{"code":"73077","name":"Les Chapelles","department":"73","center":{"lng":6.7072,"lat":45.6199},"population":566},{"code":"73099","name":"Détrier","department":"73","center":{"lng":6.1001,"lat":45.4467},"population":431},{"code":"73110","name":"Esserts-Blay","department":"73","center":{"lng":6.4198,"lat":45.63},"population":758},{"code":"73132","name":"Hauteluce","department":"73","center":{"lng":6.6042,"lat":45.766},"population":741},{"code":"73154","name":"Mercury","department":"73","center":{"lng":6.3434,"lat":45.6929},"population":3471},{"code":"73176","name":"Montvalezan","department":"73","center":{"lng":6.8729,"lat":45.6337},"population":729},{"code":"73231","name":"Saint-Étienne-de-Cuines","department":"73","center":{"lng":6.2469,"lat":45.3471},"population":1193},{"code":"73253","name":"Saint-Marcel","department":"73","center":{"lng":6.567,"lat":45.5002},"population":615},{"code":"73275","name":"Saint-Pierre-de-Genebroz","department":"73","center":{"lng":5.7671,"lat":45.4618},"population":327},{"code":"73297","name":"Tournon","department":"73","center":{"lng":6.3281,"lat":45.6381},"population":577},{"code":"73330","name":"Yenne","department":"73","center":{"lng":5.7612,"lat":45.708},"population":3045},{"code":"74001","name":"Abondance","department":"74","center":{"lng":6.7334,"lat":46.2526},"population":1536},{"code":"74045","name":"Le Bouchet-Mont-Charvin","department":"74","center":{"lng":6.3847,"lat":45.8041},"population":249},{"code":"74067","name":"Chavanod","department":"74","center":{"lng":6.0517,"lat":45.8857},"population":3024},{"code":"74089","name":"Cordon","department":"74","center":{"lng":6.5677,"lat":45.9079},"population":984},{"code":"74100","name":"Desingy","department":"74","center":{"lng":5.887,"lat":46.0022},"population":759},{"code":"74122","name":"Faucigny","department":"74","center":{"lng":6.3689,"lat":46.115},"population":655},{"code":"74144","name":"Jonzier-Épagny","department":"74","center":{"lng":5.9902,"lat":46.0755},"population":889},{"code":"74166","name":"Marin","department":"74","center":{"lng":6.5256,"lat":46.3742},"population":1921},{"code":"74188","name":"Montriond","department":"74","center":{"lng":6.7448,"lat":46.2048},"population":956},{"code":"74221","name":"Le Reposoir","department":"74","center":{"lng":6.5183,"lat":45.9933},"population":559},{"code":"74243","name":"Saint-Julien-en-Genevois","department":"74","center":{"lng":6.0877,"lat":46.1375},"population":15925},{"code":"74265","name":"Serraval","department":"74","center":{"lng":6.3306,"lat":45.8064},"population":745},{"code":"74287","name":"Vailly","department":"74","center":{"lng":6.5455,"lat":46.2908},"population":907},{"code":"76025","name":"Argueil","department":"76","center":{"lng":1.5331,"lat":49.548},"population":348},{"code":"76047","name":"Auzouville-sur-Saâne","department":"76","center":{"lng":0.9314,"lat":49.7422},"population":146},{"code":"76069","name":"Belbeuf","department":"76","center":{"lng":1.1415,"lat":49.382},"population":2257},{"code":"76124","name":"Bosc-Hyons","department":"76","center":{"lng":1.6491,"lat":49.4516},"population":420},{"code":"76146","name":"Buchy","department":"76","center":{"lng":1.3394,"lat":49.5859},"population":2789},{"code":"76168","name":"Les Cent-Acres","department":"76","center":{"lng":1.1439,"lat":49.7704},"population":66},{"code":"76201","name":"Croisy-sur-Andelle","department":"76","center":{"lng":1.4085,"lat":49.46},"population":517},{"code":"76223","name":"Écalles-Alix","department":"76","center":{"lng":0.8102,"lat":49.6172},"population":547},{"code":"76245","name":"Eslettes","department":"76","center":{"lng":1.0481,"lat":49.5466},"population":1630},{"code":"76289","name":"Saint Martin de l'If","department":"76","center":{"lng":0.807,"lat":49.5641},"population":1734},{"code":"76300","name":"Gerville","department":"76","center":{"lng":0.3279,"lat":49.6982},"population":421},{"code":"76322","name":"Le Grand-Quevilly","department":"76","center":{"lng":1.0416,"lat":49.4118},"population":25954},{"code":"76344","name":"Haudricourt","department":"76","center":{"lng":1.6972,"lat":49.7314},"population":456},{"code":"76366","name":"Le Houlme","department":"76","center":{"lng":1.0352,"lat":49.5111},"population":4127},{"code":"76388","name":"Lintot","department":"76","center":{"lng":0.5651,"lat":49.5581},"population":479},{"code":"76421","name":"Mélamare","department":"76","center":{"lng":0.4401,"lat":49.5409},"population":932},{"code":"76443","name":"Mont-Cauvaire","department":"76","center":{"lng":1.1149,"lat":49.5706},"population":883},{"code":"76465","name":"Neuville-Ferrières","department":"76","center":{"lng":1.4572,"lat":49.7139},"population":534},{"code":"76487","name":"Osmoy-Saint-Valery","department":"76","center":{"lng":1.301,"lat":49.7963},"population":313},{"code":"76520","name":"Réalcamp","department":"76","center":{"lng":1.6182,"lat":49.8644},"population":594},{"code":"76542","name":"Routes","department":"76","center":{"lng":0.7505,"lat":49.7299},"population":286},{"code":"76564","name":"Saint-Aubin-sur-Mer","department":"76","center":{"lng":0.8759,"lat":49.8881},"population":175},{"code":"76586","name":"Saint-Gilles-de-la-Neuville","department":"76","center":{"lng":0.3716,"lat":49.5722},"population":659},{"code":"76641","name":"Saint-Pierre-le-Vieux","department":"76","center":{"lng":0.8843,"lat":49.8483},"population":188},{"code":"76663","name":"Sassetot-le-Mauconduit","department":"76","center":{"lng":0.5316,"lat":49.8024},"population":1003},{"code":"76685","name":"Thérouldeville","department":"76","center":{"lng":0.5238,"lat":49.7574},"population":672},{"code":"76740","name":"La Vieux-Rue","department":"76","center":{"lng":1.2425,"lat":49.4941},"population":576},{"code":"77015","name":"Baby","department":"77","center":{"lng":3.3462,"lat":48.3925},"population":112},{"code":"77037","name":"Bois-le-Roi","department":"77","center":{"lng":2.7091,"lat":48.4735},"population":6026},{"code":"77059","name":"Bussy-Saint-Martin","department":"77","center":{"lng":2.6783,"lat":48.8463},"population":728},{"code":"77114","name":"Chevry-Cossigny","department":"77","center":{"lng":2.6747,"lat":48.7209},"population":4019},{"code":"77136","name":"Courquetaine","department":"77","center":{"lng":2.7477,"lat":48.6796},"population":187},{"code":"77158","name":"Diant","department":"77","center":{"lng":3.0055,"lat":48.2914},"population":196},{"code":"77235","name":"Jaignes","department":"77","center":{"lng":3.0799,"lat":48.983},"population":320},{"code":"77257","name":"Lizy-sur-Ourcq","department":"77","center":{"lng":3.0189,"lat":49.0344},"population":3575},{"code":"77279","name":"Marolles-sur-Seine","department":"77","center":{"lng":3.0295,"lat":48.3813},"population":1793},{"code":"77312","name":"Montigny-sur-Loing","department":"77","center":{"lng":2.7572,"lat":48.3381},"population":2634},{"code":"77356","name":"Passy-sur-Seine","department":"77","center":{"lng":3.3455,"lat":48.4282},"population":46},{"code":"77378","name":"Pringy","department":"77","center":{"lng":2.5498,"lat":48.5175},"population":3861},{"code":"77411","name":"Saint-Germain-sous-Doue","department":"77","center":{"lng":3.1415,"lat":48.8517},"population":553},{"code":"77433","name":"Beautheil-Saints","department":"77","center":{"lng":3.0728,"lat":48.7617},"population":2064},{"code":"77455","name":"Soignolles-en-Brie","department":"77","center":{"lng":2.7108,"lat":48.6465},"population":2024},{"code":"77477","name":"Ury","department":"77","center":{"lng":2.6016,"lat":48.341},"population":883},{"code":"77510","name":"Villeneuve-Saint-Denis","department":"77","center":{"lng":2.7929,"lat":48.8126},"population":1383},{"code":"77532","name":"Vulaines-lès-Provins","department":"77","center":{"lng":3.2208,"lat":48.5637},"population":75},{"code":"78005","name":"Achères","department":"78","center":{"lng":2.1095,"lat":48.9817},"population":21663},{"code":"78049","name":"Bazemont","department":"78","center":{"lng":1.8761,"lat":48.9321},"population":1712},{"code":"78104","name":"Breuil-Bois-Robert","department":"78","center":{"lng":1.7129,"lat":48.9447},"population":764},{"code":"78126","name":"La Celle-Saint-Cloud","department":"78","center":{"lng":2.1342,"lat":48.8498},"population":20440},{"code":"78269","name":"Gazeran","department":"78","center":{"lng":1.7785,"lat":48.6375},"population":1337},{"code":"78302","name":"La Hauteville","department":"78","center":{"lng":1.6257,"lat":48.7049},"population":165},{"code":"78324","name":"Jouy-Mauvoisin","department":"78","center":{"lng":1.6461,"lat":48.9746},"population":564},{"code":"78346","name":"Longnes","department":"78","center":{"lng":1.5753,"lat":48.9201},"population":1582},{"code":"78368","name":"Mareil-sur-Mauldre","department":"78","center":{"lng":1.8747,"lat":48.8893},"population":1743},{"code":"78401","name":"Meulan-en-Yvelines","department":"78","center":{"lng":1.909,"lat":49.0051},"population":8996},{"code":"78423","name":"Montigny-le-Bretonneux","department":"78","center":{"lng":2.0252,"lat":48.7776},"population":32150},{"code":"78522","name":"Rochefort-en-Yvelines","department":"78","center":{"lng":1.9819,"lat":48.593},"population":897},{"code":"78588","name":"Saulx-Marchais","department":"78","center":{"lng":1.8361,"lat":48.8434},"population":956},{"code":"78621","name":"Trappes","department":"78","center":{"lng":1.9964,"lat":48.7738},"population":34276},{"code":"78643","name":"Vernouillet","department":"78","center":{"lng":1.9748,"lat":48.9649},"population":9953},{"code":"79116","name":"Faye-l'Abbesse","department":"79","center":{"lng":-0.3354,"lat":46.8301},"population":1126},{"code":"79215","name":"Pougne-Hérisson","department":"79","center":{"lng":-0.4169,"lat":46.6615},"population":360},{"code":"79259","name":"Saint-Jean-de-Thouars","department":"79","center":{"lng":-0.221,"lat":46.9562},"population":1322},{"code":"79336","name":"Vançais","department":"79","center":{"lng":0.0417,"lat":46.3025},