[{"code":"01081","name":"Champfromier","department":"01","center":{"lng":5.8216,"lat":46.2264},"population":709},{"code":"01180","name":"Grilly","department":"01","center":{"lng":6.1139,"lat":46.3318},"population":873},{"code":"02071","name":"Berny-Rivière","department":"02","center":{"lng":3.152,"lat":49.4118},"population":633},{"code":"02093","name":"Blérancourt","department":"02","center":{"lng":3.149,"lat":49.51},"population":1212},{"code":"02170","name":"Châtillon-sur-Oise","department":"02","center":{"lng":3.4173,"lat":49.7951},"population":125},{"code":"02192","name":"Chouy","department":"02","center":{"lng":3.2433,"lat":49.2154},"population":371},{"code":"02291","name":"Estrées","department":"02","center":{"lng":3.2802,"lat":49.9686},"population":408},{"code":"02390","name":"Jeancourt","department":"02","center":{"lng":3.1459,"lat":49.9308},"population":253},{"code":"03061","name":"Charmes","department":"03","center":{"lng":3.2464,"lat":46.0828},"population":374},{"code":"03083","name":"Contigny","department":"03","center":{"lng":3.3145,"lat":46.3461},"population":575},{"code":"03160","name":"Marcenat","department":"03","center":{"lng":3.396,"lat":46.2401},"population":376},{"code":"03182","name":"Monteignet-sur-l'Andelot","department":"03","center":{"lng":3.2511,"lat":46.1147},"population":267},{"code":"03281","name":"Le Theil","department":"03","center":{"lng":3.1237,"lat":46.3538},"population":388},{"code":"04051","name":"Châteauneuf-Miravail","department":"04","center":{"lng":5.7142,"lat":44.1521},"population":75},{"code":"04073","name":"Enchastrayes","department":"04","center":{"lng":6.7129,"lat":44.3684},"population":397},{"code":"04095","name":"L'Hospitalet","department":"04","center":{"lng":5.7078,"lat":44.1068},"population":96},{"code":"04150","name":"Piégut","department":"04","center":{"lng":6.1321,"lat":44.4546},"population":208},{"code":"04172","name":"Roumoules","department":"04","center":{"lng":6.1526,"lat":43.8196},"population":732},{"code":"04194","name":"Saint-Pierre","department":"04","center":{"lng":6.922,"lat":43.9114},"population":97},{"code":"05063","name":"La Grave","department":"05","center":{"lng":6.2886,"lat":45.061},"population":479},{"code":"05085","name":"Montgenèvre","department":"05","center":{"lng":6.7216,"lat":44.9403},"population":459},{"code":"05140","name":"Saint-Étienne-le-Laus","department":"05","center":{"lng":6.1616,"lat":44.5075},"population":335},{"code":"05162","name":"La Saulce","department":"05","center":{"lng":6.0108,"lat":44.4318},"population":1375},{"code":"05184","name":"Vitrolles","department":"05","center":{"lng":5.9485,"lat":44.4296},"population":217},{"code":"06031","name":"Cantaron","department":"06","center":{"lng":7.3147,"lat":43.7694},"population":1276},{"code":"06053","name":"Daluis","department":"06","center":{"lng":6.8045,"lat":44.0426},"population":145},{"code":"06075","name":"Levens","department":"06","center":{"lng":7.2358,"lat":43.8501},"population":5366},{"code":"06097","name":"Pierrefeu","department":"06","center":{"lng":7.0743,"lat":43.8883},"population":339},{"code":"06130","name":"Saint-Vallier-de-Thiey","department":"06","center":{"lng":6.8516,"lat":43.6994},"population":3662},{"code":"06152","name":"Valbonne","department":"06","center":{"lng":7.0291,"lat":43.6267},"population":12389},{"code":"07065","name":"Chirols","department":"07","center":{"lng":4.2917,"lat":44.6879},"population":270},{"code":"07087","name":"Fabras","department":"07","center":{"lng":4.2807,"lat":44.6501},"population":458},{"code":"07120","name":"Lachamp-Raphaël","department":"07","center":{"lng":4.286,"lat":44.7969},"population":66},{"code":"07142","name":"Lespéron","department":"07","center":{"lng":3.9001,"lat":44.731},"population":321},{"code":"07186","name":"Privas","department":"07","center":{"lng":4.5949,"lat":44.7214},"population":8552},{"code":"07241","name":"Saint-Germain","department":"07","center":{"lng":4.448,"lat":44.5549},"population":704},{"code":"07263","name":"Saint-Laurent-sous-Coiron","department":"07","center":{"lng":4.4838,"lat":44.6726},"population":120},{"code":"07285","name":"Saint-Pierre-sur-Doux","department":"07","center":{"lng":4.4848,"lat":45.126},"population":110},{"code":"07340","name":"Veyras","department":"07","center":{"lng":4.5541,"lat":44.7346},"population":1504},{"code":"08011","name":"Anchamps","department":"08","center":{"lng":4.6618,"lat":49.9255},"population":215},{"code":"08033","name":"Authe","department":"08","center":{"lng":4.8789,"lat":49.4615},"population":93},{"code":"08055","name":"Beaumont-en-Argonne","department":"08","center":{"lng":5.0276,"lat":49.5308},"population":422},{"code":"08077","name":"Bourcq","department":"08","center":{"lng":4.617,"lat":49.3852},"population":51},{"code":"08099","name":"Champigneul-sur-Vence","department":"08","center":{"lng":4.6683,"lat":49.7027},"population":121},{"code":"08110","name":"Le Châtelet-sur-Sormonne","department":"08","center":{"lng":4.5175,"lat":49.84},"population":172},{"code":"08132","name":"Corny-Machéroménil","department":"08","center":{"lng":4.4482,"lat":49.5828},"population":193},{"code":"08154","name":"Estrebay","department":"08","center":{"lng":4.3459,"lat":49.8264},"population":86},{"code":"08176","name":"Fossé","department":"08","center":{"lng":5.0048,"lat":49.4481},"population":61},{"code":"08198","name":"Grandpré","department":"08","center":{"lng":4.8568,"lat":49.3532},"population":506},{"code":"08275","name":"Margny","department":"08","center":{"lng":5.3583,"lat":49.6187},"population":210},{"code":"08297","name":"Montcornet","department":"08","center":{"lng":4.655,"lat":49.836},"population":299},{"code":"08330","name":"Novy-Chevrières","department":"08","center":{"lng":4.4406,"lat":49.5443},"population":744},{"code":"08352","name":"Raillicourt","department":"08","center":{"lng":4.5909,"lat":49.6511},"population":226},{"code":"08374","name":"La Sabotterie","department":"08","center":{"lng":4.6718,"lat":49.5451},"population":128},{"code":"08396","name":"Saint-Quentin-le-Petit","department":"08","center":{"lng":4.0817,"lat":49.5868},"population":124},{"code":"08451","name":"Le Thour","department":"08","center":{"lng":4.0905,"lat":49.5458},"population":363},{"code":"08473","name":"Vieux-lès-Asfeld","department":"08","center":{"lng":4.1102,"lat":49.4539},"population":298},{"code":"09001","name":"Aigues-Juntes","department":"09","center":{"lng":1.471,"lat":43.0502},"population":59},{"code":"09023","name":"Ascou","department":"09","center":{"lng":1.9238,"lat":42.719},"population":115},{"code":"09045","name":"Bédeilhac-et-Aynat","department":"09","center":{"lng":1.5664,"lat":42.8814},"population":195},{"code":"09067","name":"Brie","department":"09","center":{"lng":1.5183,"lat":43.2102},"population":206},{"code":"09089","name":"Cazals-des-Baylès","department":"09","center":{"lng":1.9366,"lat":43.0916},"population":56},{"code":"09100","name":"Couflens","department":"09","center":{"lng":1.1796,"lat":42.7698},"population":103},{"code":"09122","name":"Foix","department":"09","center":{"lng":1.609,"lat":42.9701},"population":9731},{"code":"09166","name":"Leychert","department":"09","center":{"lng":1.7224,"lat":42.9413},"population":112},{"code":"09188","name":"Mercus-Garrabet","department":"09","center":{"lng":1.6502,"lat":42.8838},"population":1226},{"code":"09221","name":"Ornolac-Ussat-les-Bains","department":"09","center":{"lng":1.6463,"lat":42.8236},"population":248},{"code":"09243","name":"Régat","department":"09","center":{"lng":1.8856,"lat":42.9887},"population":94},{"code":"09265","name":"Saint-Jean-du-Falga","department":"09","center":{"lng":1.6229,"lat":43.0848},"population":2864},{"code":"09320","name":"Urs","department":"09","center":{"lng":1.736,"lat":42.7784},"population":27},{"code":"09342","name":"Sainte-Suzanne","department":"09","center":{"lng":1.3735,"lat":43.2052},"population":249},{"code":"10090","name":"Chauchigny","department":"10","center":{"lng":3.977,"lat":48.4271},"population":222},{"code":"11080","name":"Val de Lambronne","department":"11","center":{"lng":1.9899,"lat":43.0747},"population":171},{"code":"12070","name":"Compeyre","department":"12","center":{"lng":3.1026,"lat":44.1771},"population":526},{"code":"12092","name":"Durenque","department":"12","center":{"lng":2.6206,"lat":44.0999},"population":524},{"code":"12191","name":"Privezac","department":"12","center":{"lng":2.1976,"lat":44.4103},"population":342},{"code":"12290","name":"Vaureilles","department":"12","center":{"lng":2.1874,"lat":44.4559},"population":489},{"code":"13060","name":"Meyreuil","department":"13","center":{"lng":5.5002,"lat":43.488},"population":6341},{"code":"13082","name":"Rognes","department":"13","center":{"lng":5.3546,"lat":43.6672},"population":4640},{"code":"14050","name":"La Bazoque","department":"14","center":{"lng":-0.8797,"lat":49.1554},"population":195},{"code":"14171","name":"Combray","department":"14","center":{"lng":-0.4445,"lat":48.9475},"population":143},{"code":"14193","name":"Courtonne-la-Meurdrac","department":"14","center":{"lng":0.3306,"lat":49.1209},"population":684},{"code":"14270","name":"Firfol","department":"14","center":{"lng":0.3188,"lat":49.1536},"population":367},{"code":"14391","name":"Maisons","department":"14","center":{"lng":-0.7525,"lat":49.315},"population":430},{"code":"15040","name":"Chanterelle","department":"15","center":{"lng":2.8308,"lat":45.3761},"population":99},{"code":"15084","name":"Labesserette","department":"15","center":{"lng":2.4803,"lat":44.7437},"population":297},{"code":"15161","name":"Rézentières","department":"15","center":{"lng":3.1066,"lat":45.1333},"population":110},{"code":"15183","name":"Saint-Étienne-de-Carlat","department":"15","center":{"lng":2.5848,"lat":44.9126},"population":124},{"code":"15260","name":"Vieillevie","department":"15","center":{"lng":2.4341,"lat":44.6518},"population":104},{"code":"16030","name":"Barret","department":"16","center":{"lng":-0.2043,"lat":45.4897},"population":1092},{"code":"16052","name":"Bors (Canton de Tude-et-Lavalette)","department":"16","center":{"lng":0.1476,"lat":45.3421},"population":227},{"code":"16074","name":"Challignac","department":"16","center":{"lng":-0.0811,"lat":45.4263},"population":340},{"code":"16096","name":"Cherves-Châtelars","department":"16","center":{"lng":0.5502,"lat":45.8073},"population":416},{"code":"16151","name":"Genté","department":"16","center":{"lng":-0.3051,"lat":45.6369},"population":929},{"code":"16173","name":"Juillé","department":"16","center":{"lng":0.1432,"lat":45.9267},"population":176},{"code":"16195","name":"Lussac","department":"16","center":{"lng":0.4629,"lat":45.8566},"population":293},{"code":"16250","name":"Orgedeuil","department":"16","center":{"lng":0.4867,"lat":45.7016},"population":208},{"code":"16272","name":"Puyréaux","department":"16","center":{"lng":0.2121,"lat":45.8636},"population":571},{"code":"16393","name":"La Boixe","department":"16","center":{"lng":0.134,"lat":45.7649},"population":2163},{"code":"17020","name":"Arthenac","department":"17","center":{"lng":-0.3285,"lat":45.5058},"population":339},{"code":"17042","name":"Bercloux","department":"17","center":{"lng":-0.4596,"lat":45.8401},"population":447},{"code":"17064","name":"Breuillet","department":"17","center":{"lng":-1.054,"lat":45.7005},"population":3060},{"code":"17086","name":"Chaniers","department":"17","center":{"lng":-0.5566,"lat":45.734},"population":3634},{"code":"17141","name":"Dompierre-sur-Charente","department":"17","center":{"lng":-0.4978,"lat":45.7083},"population":483},{"code":"17163","name":"Fontaines-d'Ozillac","department":"17","center":{"lng":-0.3874,"lat":45.3796},"population":511},{"code":"17185","name":"Le Gua","department":"17","center":{"lng":-0.9673,"lat":45.7236},"population":2115},{"code":"17240","name":"Montendre","department":"17","center":{"lng":-0.3862,"lat":45.2859},"population":3226},{"code":"17262","name":"Nieul-lès-Saintes","department":"17","center":{"lng":-0.7428,"lat":45.7535},"population":1213},{"code":"17284","name":"Pont-l'Abbé-d'Arnoult","department":"17","center":{"lng":-0.867,"lat":45.8255},"population":1793},{"code":"17361","name":"Saint-Martial","department":"17","center":{"lng":-0.4555,"lat":46.044},"population":110},{"code":"17383","name":"Saint-Pierre-de-Juillers","department":"17","center":{"lng":-0.3853,"lat":45.9463},"population":347},{"code":"17460","name":"Varzay","department":"17","center":{"lng":-0.744,"lat":45.7012},"population":847},{"code":"17482","name":"Vouhé","department":"17","center":{"lng":-0.7994,"lat":46.1493},"population":657},{"code":"18010","name":"Ardenais","department":"18","center":{"lng":2.3487,"lat":46.6471},"population":203},{"code":"18032","name":"Boulleret","department":"18","center":{"lng":2.8825,"lat":47.4309},"population":1389},{"code":"18054","name":"Charly","department":"18","center":{"lng":2.7581,"lat":46.9049},"population":235},{"code":"18076","name":"Coust","department":"18","center":{"lng":2.5956,"lat":46.685},"population":430},{"code":"18098","name":"Gardefort","department":"18","center":{"lng":2.8205,"lat":47.2585},"population":126},{"code":"18153","name":"Morlac","department":"18","center":{"lng":2.3218,"lat":46.7228},"population":274},{"code":"18175","name":"Ourouer-les-Bourdelins","department":"18","center":{"lng":2.7915,"lat":46.9175},"population":605},{"code":"18197","name":"Saint-Amand-Montrond","department":"18","center":{"lng":2.5167,"lat":46.7236},"population":9690},{"code":"18230","name":"Saint-Pierre-les-Bois","department":"18","center":{"lng":2.2822,"lat":46.672},"population":272},{"code":"18252","name":"Sidiailles","department":"18","center":{"lng":2.3223,"lat":46.5093},"population":295},{"code":"18274","name":"Verdigny","department":"18","center":{"lng":2.8089,"lat":47.3493},"population":318},{"code":"19022","name":"Benayes","department":"19","center":{"lng":1.4687,"lat":45.5238},"population":222},{"code":"19044","name":"La Chapelle-aux-Saints","department":"19","center":{"lng":1.7205,"lat":44.9818},"population":260},{"code":"19066","name":"Cublac","department":"19","center":{"lng":1.3107,"lat":45.1593},"population":1730},{"code":"19088","name":"Grandsaigne","department":"19","center":{"lng":1.93,"lat":45.4864},"population":48},{"code":"19121","name":"Lubersac","department":"19","center":{"lng":1.3981,"lat":45.45},"population":2253},{"code":"19143","name":"Montaignac-sur-Doustre","department":"19","center":{"lng":2.0271,"lat":45.3364},"population":634},{"code":"19165","name":"Peyrissac","department":"19","center":{"lng":1.6932,"lat":45.5035},"population":127},{"code":"19187","name":"Saint-Bonnet-la-Rivière","department":"19","center":{"lng":1.3582,"lat":45.2953},"population":404},{"code":"19220","name":"Saint-Martial-de-Gimel","department":"19","center":{"lng":1.8895,"lat":45.2705},"population":485},{"code":"19242","name":"Saint-Solve","department":"19","center":{"lng":1.4014,"lat":45.3074},"population":451},{"code":"19264","name":"Soursac","department":"19","center":{"lng":2.2008,"lat":45.2657},"population":520},{"code":"19286","name":"Vignols","department":"19","center":{"lng":1.4047,"lat":45.3252},"population":529},{"code":"22091","name":"Kermoroc'h","department":"22","center":{"lng":-3.2029,"lat":48.6141},"population":429},{"code":"22190","name":"Pleslin-Trigavou","department":"22","center":{"lng":-2.0706,"lat":48.5285},"population":4043},{"code":"23081","name":"Flayat","department":"23","center":{"lng":2.3826,"lat":45.7784},"population":300},{"code":"23180","name":"Saint-Amand","department":"23","center":{"lng":2.2056,"lat":45.975},"population":453},{"code":"24071","name":"Bussière-Badil","department":"24","center":{"lng":0.5984,"lat":45.6415},"population":372},{"code":"24192","name":"Gabillou","department":"24","center":{"lng":1.0315,"lat":45.2048},"population":97},{"code":"24291","name":"Montignac-Lascaux","department":"24","center":{"lng":1.1589,"lat":45.0644},"population":2760},{"code":"24390","name":"Saint-Crépin-d'Auberoche","department":"24","center":{"lng":0.8968,"lat":45.1188},"population":336},{"code":"25061","name":"Bief","department":"25","center":{"lng":6.7752,"lat":47.3235},"population":111},{"code":"25083","name":"Bournois","department":"25","center":{"lng":6.4975,"lat":47.4914},"population":189},{"code":"25160","name":"Les Combes","department":"25","center":{"lng":6.5349,"lat":47.0462},"population":770},{"code":"25182","name":"Cubry","department":"25","center":{"lng":6.4271,"lat":47.5008},"population":102},{"code":"25281","name":"Goux-lès-Dambelin","department":"25","center":{"lng":6.6814,"lat":47.3981},"population":272},{"code":"25380","name":"Métabief","department":"25","center":{"lng":6.3512,"lat":46.7619},"population":1395},{"code":"26051","name":"Bézaudun-sur-Bîne","department":"26","center":{"lng":5.1778,"lat":44.6111},"population":71},{"code":"26073","name":"Chantemerle-lès-Grignan","department":"26","center":{"lng":4.8341,"lat":44.4048},"population":244},{"code":"26095","name":"Cléon-d'Andran","department":"26","center":{"lng":4.9303,"lat":44.6108},"population":989},{"code":"26150","name":"Izon-la-Bruisse","department":"26","center":{"lng":5.6003,"lat":44.2676},"population":12},{"code":"26172","name":"Manthes","department":"26","center":{"lng":5.0024,"lat":45.3012},"population":678},{"code":"26194","name":"Montchenu","department":"26","center":{"lng":5.0419,"lat":45.1908},"population":600},{"code":"26271","name":"La Roche-de-Glun","department":"26","center":{"lng":4.8593,"lat":45.0114},"population":3579},{"code":"26293","name":"Saint-Avit","department":"26","center":{"lng":4.9683,"lat":45.1987},"population":320},{"code":"26370","name":"Vercoiran","department":"26","center":{"lng":5.353,"lat":44.2916},"population":134},{"code":"27063","name":"Berville-la-Campagne","department":"27","center":{"lng":0.8898,"lat":49.025},"population":265},{"code":"27085","name":"Flancourt-Crescy-en-Roumois","department":"27","center":{"lng":0.7774,"lat":49.3251},"population":1586},{"code":"27140","name":"Chambray","department":"27","center":{"lng":1.317,"lat":49.0784},"population":396},{"code":"27162","name":"Collandres-Quincarnon","department":"27","center":{"lng":0.8617,"lat":48.9951},"population":254},{"code":"27184","name":"Crasville","department":"27","center":{"lng":1.0721,"lat":49.2056},"population":121},{"code":"27261","name":"Fouqueville","department":"27","center":{"lng":0.9662,"lat":49.2218},"population":443},{"code":"27360","name":"Jumelles","department":"27","center":{"lng":1.2102,"lat":48.9194},"population":327},{"code":"27382","name":"Mandeville","department":"27","center":{"lng":1.0131,"lat":49.2146},"population":343},{"code":"27481","name":"Pullay","department":"27","center":{"lng":0.8692,"lat":48.7258},"population":387},{"code":"27580","name":"Saint-Ouen-de-Thouberville","department":"27","center":{"lng":0.8971,"lat":49.3497},"population":2426},{"code":"28031","name":"Beaumont-les-Autels","department":"28","center":{"lng":0.9613,"lat":48.2416},"population":430},{"code":"28053","name":"Le Boullay-les-Deux-Églises","department":"28","center":{"lng":1.3275,"lat":48.6302},"population":250},{"code":"28075","name":"La Chapelle-du-Noyer","department":"28","center":{"lng":1.3147,"lat":48.0402},"population":1014},{"code":"28130","name":"Digny","department":"28","center":{"lng":1.1378,"lat":48.5338},"population":1002},{"code":"28196","name":"Illiers-Combray","department":"28","center":{"lng":1.2132,"lat":48.3018},"population":3228},{"code":"28251","name":"Mézières-en-Drouais","department":"28","center":{"lng":1.4419,"lat":48.7257},"population":1057},{"code":"28273","name":"Moulhard","department":"28","center":{"lng":1.0077,"lat":48.2108},"population":139},{"code":"28350","name":"Saint-Luperce","department":"28","center":{"lng":1.3079,"lat":48.4403},"population":994},{"code":"28372","name":"Senantes","department":"28","center":{"lng":1.5818,"lat":48.6568},"population":537},{"code":"28394","name":"Tréon","department":"28","center":{"lng":1.3213,"lat":48.6714},"population":1448},{"code":"29021","name":"Plounéour-Brignogan-plages","department":"29","center":{"lng":-4.3246,"lat":48.6519},"population":1955},{"code":"29043","name":"Daoulas","department":"29","center":{"lng":-4.269,"lat":48.358},"population":1835},{"code":"29065","name":"Gourlizon","department":"29","center":{"lng":-4.267,"lat":48.0272},"population":950},{"code":"29087","name":"Le Juch","department":"29","center":{"lng":-4.2646,"lat":48.0562},"population":753},{"code":"29120","name":"Lanvéoc","department":"29","center":{"lng":-4.4434,"lat":48.2764},"population":1951},{"code":"29142","name":"Lothey","department":"29","center":{"lng":-4.0277,"lat":48.1874},"population":444},{"code":"29186","name":"Plouezoc'h","department":"29","center":{"lng":-3.8251,"lat":48.6442},"population":1640},{"code":"29241","name":"Rosporden","department":"29","center":{"lng":-3.8226,"lat":47.9504},"population":7580},{"code":"29263","name":"Saint-Ségal","department":"29","center":{"lng":-4.0734,"lat":48.2349},"population":1183},{"code":"29285","name":"Tréflaouénan","department":"29","center":{"lng":-4.1014,"lat":48.6239},"population":523},{"code":"2A128","name":"Granace","department":"2A","center":{"lng":9.0123,"lat":41.6399},"population":92},{"code":"2A249","name":"Propriano","department":"2A","center":{"lng":8.89,"lat":41.651},"population":3864},{"code":"2A326","name":"Tolla","department":"2A","center":{"lng":8.9674,"lat":41.9678},"population":121},{"code":"2A348","name":"Vico","department":"2A","center":{"lng":8.736,"lat":42.1462},"population":1007},{"code":"2B217","name":"Piazzole","department":"2B","center":{"lng":9.4058,"lat":42.3946},"population":50},{"code":"2B239","name":"Poggio-d'Oletta","department":"2B","center":{"lng":9.3566,"lat":42.6558},"population":216},{"code":"2B316","name":"Santa-Reparata-di-Balagna","department":"2B","center":{"lng":8.9332,"lat":42.6038},"population":999},{"code":"2B338","name":"Valle-d'Orezza","department":"2B","center":{"lng":9.4058,"lat":42.3636},"population":26},{"code":"32090","name":"Castillon-Savès","department":"32","center":{"lng":0.9848,"lat":43.5642},"population":335},{"code":"33080","name":"Cadaujac","department":"33","center":{"lng":-0.5316,"lat":44.7468},"population":6784},{"code":"34070","name":"Cébazan","department":"34","center":{"lng":2.9922,"lat":43.4063},"population":637},{"code":"34092","name":"Cruzy","department":"34","center":{"lng":2.9244,"lat":43.3528},"population":954},{"code":"34191","name":"Pailhès","department":"34","center":{"lng":3.1854,"lat":43.4386},"population":608},{"code":"34290","name":"Saint-Vincent-de-Barbeyrargues","department":"34","center":{"lng":3.8765,"lat":43.712},"population":760},{"code":"35060","name":"La Chapelle du Lou du Lac","department":"35","center":{"lng":-1.9932,"lat":48.2124},"population":1037},{"code":"35082","name":"Coësmes","department":"35","center":{"lng":-1.4194,"lat":47.8703},"population":1435},{"code":"35181","name":"Le Minihic-sur-Rance","department":"35","center":{"lng":-2.011,"lat":48.5737},"population":1499},{"code":"35280","name":"Saint-Hilaire-des-Landes","department":"35","center":{"lng":-1.371,"lat":48.3378},"population":1032},{"code":"36050","name":"Chezelles","department":"36","center":{"lng":1.5665,"lat":46.8984},"population":451},{"code":"36094","name":"Lignac","department":"36","center":{"lng":1.204,"lat":46.4763},"population":459},{"code":"36171","name":"Reuilly","department":"36","center":{"lng":2.0012,"lat":47.0859},"population":2009},{"code":"36193","name":"Sainte-Gemme","department":"36","center":{"lng":1.3328,"lat":46.8586},"population":257},{"code":"37040","name":"Brizay","department":"37","center":{"lng":0.3881,"lat":47.0942},"population":253},{"code":"37062","name":"Château-la-Vallière","department":"37","center":{"lng":0.3214,"lat":47.5293},"population":1734},{"code":"37084","name":"Couesmes","department":"37","center":{"lng":0.3607,"lat":47.552},"population":556},{"code":"37161","name":"Mosnes","department":"37","center":{"lng":1.0987,"lat":47.4469},"population":815},{"code":"37183","name":"Perrusson","department":"37","center":{"lng":1.0144,"lat":47.0881},"population":1417},{"code":"37260","name":"La Tour-Saint-Gelin","department":"37","center":{"lng":0.3933,"lat":47.0636},"population":502},{"code":"37282","name":"Yzeures-sur-Creuse","department":"37","center":{"lng":0.8772,"lat":46.7873},"population":1345},{"code":"38030","name":"Beaucroissant","department":"38","center":{"lng":5.4694,"lat":45.3437},"population":1843},{"code":"38052","name":"Le Bourg-d'Oisans","department":"38","center":{"lng":6.0275,"lat":45.0367},"population":2840},{"code":"38074","name":"Chantesse","department":"38","center":{"lng":5.4489,"lat":45.2448},"population":393},{"code":"38151","name":"Échirolles","department":"38","center":{"lng":5.7148,"lat":45.1441},"population":36708},{"code":"38173","name":"Le Freney-d'Oisans","department":"38","center":{"lng":6.1181,"lat":45.0867},"population":255},{"code":"38195","name":"Izeron","department":"38","center":{"lng":5.4009,"lat":45.1438},"population":781},{"code":"38250","name":"Montcarra","department":"38","center":{"lng":5.4017,"lat":45.6091},"population":606},{"code":"38272","name":"Murinais","department":"38","center":{"lng":5.3219,"lat":45.2146},"population":408},{"code":"38294","name":"Panossas","department":"38","center":{"lng":5.1902,"lat":45.6772},"population":682},{"code":"38393","name":"Saint-Hilaire-de-la-Côte","department":"38","center":{"lng":5.3333,"lat":45.3875},"population":1598},{"code":"38470","name":"La Salle-en-Beaumont","department":"38","center":{"lng":5.8639,"lat":44.8581},"population":347},{"code":"38492","name":"Sinard","department":"38","center":{"lng":5.6558,"lat":44.9438},"population":719},{"code":"39020","name":"Arsure-Arsurette","department":"39","center":{"lng":6.0827,"lat":46.7149},"population":100},{"code":"39042","name":"Baverans","department":"39","center":{"lng":5.5364,"lat":47.1065},"population":498},{"code":"39086","name":"Cernon","department":"39","center":{"lng":5.6447,"lat":46.4097},"population":234},{"code":"39141","name":"Chevigny","department":"39","center":{"lng":5.475,"lat":47.1779},"population":268},{"code":"39163","name":"Condes","department":"39","center":{"lng":5.616,"lat":46.3335},"population":117},{"code":"39185","name":"Cuisia","department":"39","center":{"lng":5.4061,"lat":46.549},"population":388},{"code":"39240","name":"Le Frasnois","department":"39","center":{"lng":5.8931,"lat":46.6347},"population":171},{"code":"39262","name":"Gredisans","department":"39","center":{"lng":5.5168,"lat":47.1635},"population":131},{"code":"39284","name":"Lavangeot","department":"39","center":{"lng":5.6071,"lat":47.1516},"population":141},{"code":"39361","name":"Montmirey-le-Château","department":"39","center":{"lng":5.5299,"lat":47.2267},"population":197},{"code":"39460","name":"La Rixouse","department":"39","center":{"lng":5.8711,"lat":46.4682},"population":187},{"code":"39581","name":"Vitreux","department":"39","center":{"lng":5.6708,"lat":47.2529},"population":255},{"code":"44091","name":"Marsac-sur-Don","department":"44","center":{"lng":-1.6967,"lat":47.5948},"population":1529},{"code":"44190","name":"Saint-Sébastien-sur-Loire","department":"44","center":{"lng":-1.5023,"lat":47.2065},"population":28373},{"code":"45081","name":"Charsonville","department":"45","center":{"lng":1.5776,"lat":47.9244},"population":611},{"code":"45180","name":"Langesse","department":"45","center":{"lng":2.6468,"lat":47.8184},"population":86},{"code":"46093","name":"Espagnac-Sainte-Eulalie","department":"46","center":{"lng":1.8603,"lat":44.5909},"population":92},{"code":"46170","name":"Leyme","department":"46","center":{"lng":1.9009,"lat":44.7829},"population":929},{"code":"46192","name":"Meyronne","department":"46","center":{"lng":1.5901,"lat":44.8668},"population":264},{"code":"47061","name":"Caumont-sur-Garonne","department":"47","center":{"lng":0.181,"lat":44.4217},"population":815},{"code":"47083","name":"Doudrac","department":"47","center":{"lng":0.6768,"lat":44.6632},"population":108},{"code":"47160","name":"Masquières","department":"47","center":{"lng":1.0397,"lat":44.408},"population":175},{"code":"47182","name":"Montastruc","department":"47","center":{"lng":0.517,"lat":44.4938},"population":233},{"code":"47281","name":"Saint-Urcisse","department":"47","center":{"lng":0.8311,"lat":44.1632},"population":245},{"code":"48051","name":"Le Collet-de-Dèze","department":"48","center":{"lng":3.9209,"lat":44.2585},"population":678},{"code":"48073","name":"Les Hermaux","department":"48","center":{"lng":3.1312,"lat":44.5182},"population":103},{"code":"48095","name":"Mende","department":"48","center":{"lng":3.4909,"lat":44.5349},"population":12322},{"code":"48150","name":"Saint-Flour-de-Mercoire","department":"48","center":{"lng":3.8313,"lat":44.6823},"population":185},{"code":"48194","name":"Vialas","department":"48","center":{"lng":3.893,"lat":44.3466},"population":447},{"code":"49041","name":"Brain-sur-Allonnes","department":"49","center":{"lng":0.0743,"lat":47.3041},"population":2078},{"code":"49063","name":"Chalonnes-sur-Loire","department":"49","center":{"lng":-0.7729,"lat":47.3496},"population":6541},{"code":"49140","name":"Fontevraud-l'Abbaye","department":"49","center":{"lng":0.0261,"lat":47.1819},"population":1477},{"code":"49261","name":"Gennes-Val-de-Loire","department":"49","center":{"lng":-0.2352,"lat":47.3424},"population":8452},{"code":"49283","name":"Saint-Georges-sur-Loire","department":"49","center":{"lng":-0.7537,"lat":47.4031},"population":3787},{"code":"54090","name":"Bouxières-aux-Dames","department":"54","center":{"lng":6.1624,"lat":48.7602},"population":4122},{"code":"55080","name":"Brixey-aux-Chanoines","department":"55","center":{"lng":5.7161,"lat":48.4754},"population":78},{"code":"56070","name":"Guégon","department":"56","center":{"lng":-2.5903,"lat":47.925},"population":2308},{"code":"56092","name":"Kerfourn","department":"56","center":{"lng":-2.8402,"lat":48.0466},"population":842},{"code":"56191","name":"Réminiac","department":"56","center":{"lng":-2.2466,"lat":47.8648},"population":431},{"code":"57060","name":"Bénestroff","department":"57","center":{"lng":6.7561,"lat":48.9084},"population":518},{"code":"57082","name":"Biding","department":"57","center":{"lng":6.7914,"lat":49.0629},"population":339},{"code":"57181","name":"Domnom-lès-Dieuze","department":"57","center":{"lng":6.823,"lat":48.8605},"population":97},{"code":"57280","name":"Guntzviller","department":"57","center":{"lng":7.165,"lat":48.7077},"population":356},{"code":"58050","name":"Challement","department":"58","center":{"lng":3.5974,"lat":47.3124},"population":45},{"code":"58072","name":"Chevenon","department":"58","center":{"lng":3.2288,"lat":46.9128},"population":632},{"code":"58094","name":"Dampierre-sous-Bouhy","department":"58","center":{"lng":3.1323,"lat":47.5061},"population":456},{"code":"58171","name":"Montapas","department":"58","center":{"lng":3.5852,"lat":47.0816},"population":275},{"code":"58193","name":"Neuvy-sur-Loire","department":"58","center":{"lng":2.8866,"lat":47.5294},"population":1428},{"code":"58270","name":"Saint-Vérain","department":"58","center":{"lng":3.0344,"lat":47.4863},"population":369},{"code":"58292","name":"Tintury","department":"58","center":{"lng":3.5862,"lat":47.0031},"population":161},{"code":"59062","name":"Beaurieux","department":"59","center":{"lng":4.1337,"lat":50.1799},"population":167},{"code":"59084","name":"Blaringhem","department":"59","center":{"lng":2.4138,"lat":50.6913},"population":2046},{"code":"59161","name":"Crèvecœur-sur-l'Escaut","department":"59","center":{"lng":3.2667,"lat":50.081},"population":717},{"code":"59183","name":"Dunkerque","department":"59","center":{"lng":2.3431,"lat":51.0183},"population":87013},{"code":"59260","name":"Ghyvelde","department":"59","center":{"lng":2.5213,"lat":51.0331},"population":4126},{"code":"59282","name":"Hardifort","department":"59","center":{"lng":2.483,"lat":50.8199},"population":389},{"code":"59381","name":"Maresches","department":"59","center":{"lng":3.5738,"lat":50.2925},"population":806},{"code":"59480","name":"Quérénaing","department":"59","center":{"lng":3.5064,"lat":50.2869},"population":863},{"code":"66091","name":"Lamanère","department":"66","center":{"lng":2.5191,"lat":42.3628},"population":54},{"code":"66190","name":"Salses-le-Château","department":"66","center":{"lng":2.9134,"lat":42.8359},"population":3888},{"code":"67081","name":"Dahlenheim","department":"67","center":{"lng":7.5134,"lat":48.5882},"population":787},{"code":"67180","name":"Haguenau","department":"67","center":{"lng":7.8213,"lat":48.8388},"population":36070},{"code":"68071","name":"Diefmatten","department":"68","center":{"lng":7.0994,"lat":47.7069},"population":301},{"code":"68093","name":"Flaxlanden","department":"68","center":{"lng":7.3232,"lat":47.691},"population":1368},{"code":"68170","name":"Kœtzingue","department":"68","center":{"lng":7.3909,"lat":47.6474},"population":583},{"code":"68192","name":"Valdieu-Lutran","department":"68","center":{"lng":7.0557,"lat":47.6275},"population":423},{"code":"68291","name":"Rumersheim-le-Haut","department":"68","center":{"lng":7.5166,"lat":47.8538},"population":1052},{"code":"69061","name":"Cogny","department":"69","center":{"lng":4.6012,"lat":45.9885},"population":1198},{"code":"69083","name":"Éveux","department":"69","center":{"lng":4.6223,"lat":45.8256},"population":1169},{"code":"69160","name":"Poule-les-Écharmeaux","department":"69","center":{"lng":4.4698,"lat":46.1458},"population":1027},{"code":"69182","name":"Saint-Bonnet-des-Bruyères","department":"69","center":{"lng":4.4721,"lat":46.2669},"population":372},{"code":"69281","name":"Marennes","department":"69","center":{"lng":4.9097,"lat":45.6248},"population":1979},{"code":"76090","name":"Beuzeville-la-Grenier","department":"76","center":{"lng":0.4203,"lat":49.5934},"population":1216},{"code":"77080","name":"Champcenest","department":"77","center":{"lng":3.2791,"lat":48.6695},"population":197},{"code":"78070","name":"Boinville-en-Mantois","department":"78","center":{"lng":1.7491,"lat":48.9272},"population":287},{"code":"78092","name":"Bougival","department":"78","center":{"lng":2.1394,"lat":48.8627},"population":9083},{"code":"78290","name":"Guernes","department":"78","center":{"lng":1.6435,"lat":49.0164},"population":1085},{"code":"79280","name":"Saint Maurice Étusson","department":"79","center":{"lng":-0.5281,"lat":47.0343},"population":888},{"code":"80709","name":"Saint-Maulvis","department":"80","center":{"lng":1.8275,"lat":49.9021},"population":280},{"code":"80808","name":"Vironchaux","department":"80","center":{"lng":1.8233,"lat":50.2984},"population":507},{"code":"88091","name":"Charmois-devant-Bruyères","department":"88","center":{"lng":6.5898,"lat":48.1712},"population":379},{"code":"88190","name":"Frizon","department":"88","center":{"lng":6.3517,"lat":48.2856},"population":484},{"code":"89081","name":"La Chapelle-Vaupelteigne","department":"89","center":{"lng":3.7725,"lat":47.8444},"population":92},{"code":"89180","name":"Fouchères","department":"89","center":{"lng":3.1464,"lat":48.1786},"population":460}]