[{"code":"01190","name":"Innimond","department":"01","center":{"lng":5.5723,"lat":45.7875},"population":92},{"code":"02081","name":"Béthancourt-en-Vaux","department":"02","center":{"lng":3.1376,"lat":49.6274},"population":425},{"code":"02180","name":"Chéry-lès-Pouilly","department":"02","center":{"lng":3.5886,"lat":49.6479},"population":737},{"code":"03071","name":"Chavroches","department":"03","center":{"lng":3.5984,"lat":46.354},"population":262},{"code":"03093","name":"Creuzier-le-Neuf","department":"03","center":{"lng":3.4635,"lat":46.1785},"population":1235},{"code":"03170","name":"Meillers","department":"03","center":{"lng":3.1095,"lat":46.5172},"population":128},{"code":"03192","name":"Nades","department":"03","center":{"lng":2.9704,"lat":46.1523},"population":158},{"code":"03291","name":"Trézelles","department":"03","center":{"lng":3.5988,"lat":46.3193},"population":393},{"code":"04061","name":"Colmars","department":"04","center":{"lng":6.6585,"lat":44.1602},"population":548},{"code":"04160","name":"Reillanne","department":"04","center":{"lng":5.6565,"lat":43.8884},"population":1730},{"code":"04182","name":"Saint-Julien-d'Asse","department":"04","center":{"lng":6.071,"lat":43.9386},"population":226},{"code":"05051","name":"Étoile-Saint-Cyrice","department":"05","center":{"lng":5.6426,"lat":44.3217},"population":24},{"code":"05073","name":"Lazer","department":"05","center":{"lng":5.851,"lat":44.3488},"population":336},{"code":"05095","name":"Le Noyer","department":"05","center":{"lng":5.9995,"lat":44.7002},"population":306},{"code":"05172","name":"Trescléoux","department":"05","center":{"lng":5.7249,"lat":44.3522},"population":301},{"code":"06041","name":"Cipières","department":"06","center":{"lng":6.9229,"lat":43.7665},"population":398},{"code":"06063","name":"Gars","department":"06","center":{"lng":6.8202,"lat":43.8612},"population":70},{"code":"06085","name":"Mougins","department":"06","center":{"lng":7.0046,"lat":43.5931},"population":19481},{"code":"06140","name":"Le Tignet","department":"06","center":{"lng":6.8538,"lat":43.6257},"population":3158},{"code":"06162","name":"La Brigue","department":"06","center":{"lng":7.6496,"lat":44.0897},"population":741},{"code":"07031","name":"Berrias-et-Casteljau","department":"07","center":{"lng":4.2056,"lat":44.3791},"population":779},{"code":"07053","name":"Chandolas","department":"07","center":{"lng":4.245,"lat":44.4151},"population":545},{"code":"07075","name":"Cros-de-Géorand","department":"07","center":{"lng":4.1226,"lat":44.8008},"population":151},{"code":"07097","name":"Glun","department":"07","center":{"lng":4.823,"lat":45.008},"population":686},{"code":"07130","name":"Lanarce","department":"07","center":{"lng":4.0027,"lat":44.731},"population":209},{"code":"07152","name":"Mauves","department":"07","center":{"lng":4.8182,"lat":45.0294},"population":1192},{"code":"07174","name":"Peyraud","department":"07","center":{"lng":4.7823,"lat":45.297},"population":517},{"code":"07196","name":"Rocles","department":"07","center":{"lng":4.2085,"lat":44.5709},"population":263},{"code":"07251","name":"Saint-Joseph-des-Bancs","department":"07","center":{"lng":4.4147,"lat":44.7515},"population":191},{"code":"07273","name":"Saint-Maurice-d'Ibie","department":"07","center":{"lng":4.4861,"lat":44.4782},"population":213},{"code":"07295","name":"Saint-Sauveur-de-Montagut","department":"07","center":{"lng":4.5772,"lat":44.8199},"population":1112},{"code":"08021","name":"Arnicourt","department":"08","center":{"lng":4.34,"lat":49.5543},"population":150},{"code":"08043","name":"Balan","department":"08","center":{"lng":4.9644,"lat":49.6887},"population":1596},{"code":"08065","name":"Bièvres","department":"08","center":{"lng":5.2823,"lat":49.5562},"population":46},{"code":"08087","name":"Brognon","department":"08","center":{"lng":4.2805,"lat":49.9336},"population":130},{"code":"08120","name":"Chevières","department":"08","center":{"lng":4.8926,"lat":49.3206},"population":46},{"code":"08142","name":"Donchery","department":"08","center":{"lng":4.8886,"lat":49.732},"population":1989},{"code":"08164","name":"Falaise","department":"08","center":{"lng":4.7441,"lat":49.3815},"population":342},{"code":"08186","name":"Germont","department":"08","center":{"lng":4.8778,"lat":49.4338},"population":51},{"code":"08263","name":"Lumes","department":"08","center":{"lng":4.7823,"lat":49.7338},"population":1103},{"code":"08340","name":"Poilcourt-Sydney","department":"08","center":{"lng":4.095,"lat":49.4206},"population":169},{"code":"08362","name":"Rethel","department":"08","center":{"lng":4.3814,"lat":49.5147},"population":7435},{"code":"08384","name":"Saint-Lambert-et-Mont-de-Jeux","department":"08","center":{"lng":4.6233,"lat":49.498},"population":130},{"code":"08461","name":"Vandy","department":"08","center":{"lng":4.7195,"lat":49.4428},"population":200},{"code":"08483","name":"Ville-sur-Lumes","department":"08","center":{"lng":4.7937,"lat":49.7549},"population":529},{"code":"09011","name":"Antras","department":"09","center":{"lng":0.9023,"lat":42.8713},"population":74},{"code":"09033","name":"Bagert","department":"09","center":{"lng":1.0703,"lat":43.0806},"population":41},{"code":"09055","name":"Bethmale","department":"09","center":{"lng":1.0781,"lat":42.8459},"population":100},{"code":"09077","name":"Capoulet-et-Junac","department":"09","center":{"lng":1.5746,"lat":42.7925},"population":191},{"code":"09099","name":"Cos","department":"09","center":{"lng":1.5712,"lat":42.9823},"population":358},{"code":"09110","name":"Encourtiech","department":"09","center":{"lng":1.1913,"lat":42.9644},"population":98},{"code":"09132","name":"Gaudiès","department":"09","center":{"lng":1.7392,"lat":43.1728},"population":235},{"code":"09154","name":"Larbont","department":"09","center":{"lng":1.4008,"lat":42.9927},"population":60},{"code":"09176","name":"Luzenac","department":"09","center":{"lng":1.7398,"lat":42.719},"population":514},{"code":"09198","name":"Montardit","department":"09","center":{"lng":1.186,"lat":43.0694},"population":223},{"code":"09231","name":"Le Port","department":"09","center":{"lng":1.3885,"lat":42.835},"population":167},{"code":"09253","name":"Sabarat","department":"09","center":{"lng":1.3994,"lat":43.0991},"population":377},{"code":"09275","name":"Saint-Quirc","department":"09","center":{"lng":1.5029,"lat":43.2782},"population":369},{"code":"09297","name":"Sor","department":"09","center":{"lng":1.0106,"lat":42.9199},"population":28},{"code":"09330","name":"Vernaux","department":"09","center":{"lng":1.7838,"lat":42.79},"population":34},{"code":"11090","name":"Cépie","department":"11","center":{"lng":2.2397,"lat":43.1074},"population":603},{"code":"12080","name":"Coupiac","department":"12","center":{"lng":2.5888,"lat":43.9367},"population":358},{"code":"13070","name":"La Penne-sur-Huveaune","department":"13","center":{"lng":5.5185,"lat":43.2778},"population":6618},{"code":"13092","name":"Saint-Chamas","department":"13","center":{"lng":5.072,"lat":43.5414},"population":8669},{"code":"14060","name":"Bénouville","department":"14","center":{"lng":-0.2896,"lat":49.2422},"population":2001},{"code":"14082","name":"La Boissière","department":"14","center":{"lng":0.1331,"lat":49.1302},"population":188},{"code":"14181","name":"Cormelles-le-Royal","department":"14","center":{"lng":-0.3262,"lat":49.1556},"population":5273},{"code":"14280","name":"Formentin","department":"14","center":{"lng":0.1381,"lat":49.2042},"population":268},{"code":"15050","name":"Le Claux","department":"15","center":{"lng":2.7038,"lat":45.1433},"population":161},{"code":"15072","name":"Freix-Anglards","department":"15","center":{"lng":2.3791,"lat":45.018},"population":216},{"code":"15094","name":"Laroquebrou","department":"15","center":{"lng":2.2017,"lat":44.9705},"population":791},{"code":"15171","name":"Sainte-Anastasie","department":"15","center":{"lng":2.9723,"lat":45.1794},"population":0},{"code":"16040","name":"Berneuil","department":"16","center":{"lng":-0.0714,"lat":45.3903},"population":321},{"code":"16062","name":"Brie-sous-Barbezieux","department":"16","center":{"lng":-0.0418,"lat":45.4242},"population":111},{"code":"16084","name":"Charras","department":"16","center":{"lng":0.4265,"lat":45.5449},"population":346},{"code":"16161","name":"Guizengeard","department":"16","center":{"lng":-0.1237,"lat":45.3106},"population":165},{"code":"16183","name":"Lésignac-Durand","department":"16","center":{"lng":0.6427,"lat":45.8159},"population":169},{"code":"16260","name":"Pillac","department":"16","center":{"lng":0.1773,"lat":45.326},"population":253},{"code":"16282","name":"La Rochette","department":"16","center":{"lng":0.3092,"lat":45.7987},"population":525},{"code":"16381","name":"Theil-Rabier","department":"16","center":{"lng":0.0418,"lat":46.056},"population":163},{"code":"17030","name":"Balanzac","department":"17","center":{"lng":-0.8438,"lat":45.7528},"population":614},{"code":"17052","name":"Boisredon","department":"17","center":{"lng":-0.5432,"lat":45.3189},"population":713},{"code":"17074","name":"Bussac-Forêt","department":"17","center":{"lng":-0.3774,"lat":45.1928},"population":1079},{"code":"17096","name":"Chaunac","department":"17","center":{"lng":-0.3605,"lat":45.3592},"population":70},{"code":"17151","name":"L'Éguille","department":"17","center":{"lng":-0.9837,"lat":45.6997},"population":909},{"code":"17173","name":"La Genétouze","department":"17","center":{"lng":-0.0527,"lat":45.2178},"population":220},{"code":"17195","name":"La Jarrie-Audouin","department":"17","center":{"lng":-0.4791,"lat":46.035},"population":272},{"code":"17250","name":"Mosnac","department":"17","center":{"lng":-0.539,"lat":45.5042},"population":489},{"code":"17294","name":"Puyrolland","department":"17","center":{"lng":-0.6527,"lat":46.034},"population":184},{"code":"17393","name":"Saint-Romain-de-Benet","department":"17","center":{"lng":-0.8567,"lat":45.6949},"population":1777},{"code":"17470","name":"Villars-les-Bois","department":"17","center":{"lng":-0.4365,"lat":45.7963},"population":240},{"code":"18020","name":"Bannay","department":"18","center":{"lng":2.8769,"lat":47.3816},"population":841},{"code":"18042","name":"La Celle","department":"18","center":{"lng":2.4577,"lat":46.7676},"population":329},{"code":"18064","name":"Chéry","department":"18","center":{"lng":2.0268,"lat":47.1159},"population":225},{"code":"18086","name":"Drevant","department":"18","center":{"lng":2.5242,"lat":46.6977},"population":551},{"code":"18141","name":"Mehun-sur-Yèvre","department":"18","center":{"lng":2.225,"lat":47.1316},"population":6394},{"code":"18163","name":"Neuvy-Deux-Clochers","department":"18","center":{"lng":2.6721,"lat":47.2813},"population":257},{"code":"18185","name":"Presly","department":"18","center":{"lng":2.3242,"lat":47.3882},"population":221},{"code":"18240","name":"Sancergues","department":"18","center":{"lng":2.9047,"lat":47.1624},"population":626},{"code":"18262","name":"Thauvenay","department":"18","center":{"lng":2.8785,"lat":47.2982},"population":319},{"code":"18284","name":"Villegenon","department":"18","center":{"lng":2.5971,"lat":47.4175},"population":215},{"code":"19010","name":"Argentat-sur-Dordogne","department":"19","center":{"lng":1.9319,"lat":45.1166},"population":2857},{"code":"19054","name":"Chenailler-Mascheix","department":"19","center":{"lng":1.8291,"lat":45.0642},"population":214},{"code":"19076","name":"Espartignac","department":"19","center":{"lng":1.5996,"lat":45.3965},"population":409},{"code":"19098","name":"Lagarde-Marc-la-Tour","department":"19","center":{"lng":1.8255,"lat":45.1904},"population":935},{"code":"19131","name":"Meilhards","department":"19","center":{"lng":1.6358,"lat":45.5489},"population":538},{"code":"19153","name":"Objat","department":"19","center":{"lng":1.4153,"lat":45.266},"population":3737},{"code":"19175","name":"Roche-le-Peyroux","department":"19","center":{"lng":2.3822,"lat":45.429},"population":98},{"code":"19252","name":"Sarroux - Saint Julien","department":"19","center":{"lng":2.4422,"lat":45.4357},"population":867},{"code":"19274","name":"Ussac","department":"19","center":{"lng":1.5119,"lat":45.1875},"population":4271},{"code":"23091","name":"Gioux","department":"23","center":{"lng":2.1088,"lat":45.7984},"population":179},{"code":"23190","name":"Saint-Domet","department":"23","center":{"lng":2.2977,"lat":46.0529},"population":162},{"code":"24081","name":"Carlux","department":"24","center":{"lng":1.3614,"lat":44.8867},"population":655},{"code":"24180","name":"Firbeix","department":"24","center":{"lng":0.9438,"lat":45.5915},"population":298},{"code":"25071","name":"Bondeval","department":"25","center":{"lng":6.8442,"lat":47.4345},"population":481},{"code":"25093","name":"Bretigney","department":"25","center":{"lng":6.6354,"lat":47.4867},"population":76},{"code":"25170","name":"Courcelles-lès-Montbéliard","department":"25","center":{"lng":6.7851,"lat":47.496},"population":1387},{"code":"25192","name":"Dampjoux","department":"25","center":{"lng":6.7454,"lat":47.3386},"population":164},{"code":"25390","name":"Pays-de-Montbenoît","department":"25","center":{"lng":6.4652,"lat":46.9985},"population":399},{"code":"26061","name":"Bren","department":"26","center":{"lng":4.9407,"lat":45.1424},"population":680},{"code":"26083","name":"Châteauneuf-de-Galaure","department":"26","center":{"lng":4.9637,"lat":45.2337},"population":1807},{"code":"26160","name":"Laveyron","department":"26","center":{"lng":4.8229,"lat":45.1998},"population":1253},{"code":"26182","name":"Mirabel-aux-Baronnies","department":"26","center":{"lng":5.1096,"lat":44.3134},"population":1514},{"code":"26281","name":"Romans-sur-Isère","department":"26","center":{"lng":5.0477,"lat":45.0611},"population":33139},{"code":"26380","name":"Gervans","department":"26","center":{"lng":4.831,"lat":45.1043},"population":545},{"code":"27051","name":"Beaumont-le-Roger","department":"27","center":{"lng":0.7515,"lat":49.0579},"population":2767},{"code":"27073","name":"Bois-le-Roi","department":"27","center":{"lng":1.3442,"lat":48.8605},"population":1234},{"code":"27095","name":"Bosrobert","department":"27","center":{"lng":0.7612,"lat":49.2243},"population":671},{"code":"27194","name":"Cuverville","department":"27","center":{"lng":1.37,"lat":49.2814},"population":248},{"code":"27271","name":"Fresney","department":"27","center":{"lng":1.3049,"lat":48.9495},"population":318},{"code":"27370","name":"Lisors","department":"27","center":{"lng":1.472,"lat":49.3571},"population":299},{"code":"27392","name":"Martagny","department":"27","center":{"lng":1.6591,"lat":49.3949},"population":136},{"code":"27590","name":"Saint-Pierre-de-Cernières","department":"27","center":{"lng":0.5216,"lat":48.9323},"population":235},{"code":"28041","name":"Blandainville","department":"28","center":{"lng":1.294,"lat":48.3119},"population":282},{"code":"28085","name":"Chartres","department":"28","center":{"lng":1.5046,"lat":48.4481},"population":37990},{"code":"28140","name":"Épernon","department":"28","center":{"lng":1.6859,"lat":48.5947},"population":5509},{"code":"28162","name":"Fresnay-le-Comte","department":"28","center":{"lng":1.4833,"lat":48.3046},"population":286},{"code":"28184","name":"Gouillons","department":"28","center":{"lng":1.8374,"lat":48.3435},"population":337},{"code":"28261","name":"Montigny-le-Chartif","department":"28","center":{"lng":1.1255,"lat":48.2903},"population":590},{"code":"28283","name":"Nottonville","department":"28","center":{"lng":1.5232,"lat":48.1262},"population":283},{"code":"28360","name":"Saint-Sauveur-Marville","department":"28","center":{"lng":1.2811,"lat":48.6077},"population":927},{"code":"28382","name":"Terminiers","department":"28","center":{"lng":1.7337,"lat":48.0923},"population":881},{"code":"29031","name":"Clohars-Carnoët","department":"29","center":{"lng":-3.5682,"lat":47.7981},"population":4701},{"code":"29053","name":"Le Faou","department":"29","center":{"lng":-4.1422,"lat":48.3028},"population":1882},{"code":"29075","name":"Guipavas","department":"29","center":{"lng":-4.3943,"lat":48.4305},"population":15401},{"code":"29097","name":"Lampaul-Guimiliau","department":"29","center":{"lng":-4.0431,"lat":48.4801},"population":2004},{"code":"29130","name":"Locmaria-Plouzané","department":"29","center":{"lng":-4.6533,"lat":48.3713},"population":5160},{"code":"29152","name":"Motreff","department":"29","center":{"lng":-3.5602,"lat":48.2215},"population":679},{"code":"29174","name":"Plonéour-Lanvern","department":"29","center":{"lng":-4.2678,"lat":47.9066},"population":6403},{"code":"29196","name":"Plouguin","department":"29","center":{"lng":-4.5931,"lat":48.5291},"population":2236},{"code":"29251","name":"Saint-Jean-du-Doigt","department":"29","center":{"lng":-3.7619,"lat":48.6683},"population":683},{"code":"29273","name":"Santec","department":"29","center":{"lng":-4.0377,"lat":48.7059},"population":2435},{"code":"29295","name":"Trémaouézan","department":"29","center":{"lng":-4.2549,"lat":48.5099},"population":492},{"code":"2A017","name":"Appietto","department":"2A","center":{"lng":8.731,"lat":41.9965},"population":1751},{"code":"2A215","name":"Pianottoli-Caldarello","department":"2A","center":{"lng":9.0457,"lat":41.5209},"population":800},{"code":"2A259","name":"Rezza","department":"2A","center":{"lng":8.9557,"lat":42.1255},"population":70},{"code":"2A336","name":"Valle-di-Mezzana","department":"2A","center":{"lng":8.8167,"lat":42.0253},"population":538},{"code":"2A358","name":"Zévaco","department":"2A","center":{"lng":9.0458,"lat":41.889},"population":51},{"code":"2B007","name":"Albertacce","department":"2B","center":{"lng":8.9277,"lat":42.3145},"population":199},{"code":"2B029","name":"Barbaggio","department":"2B","center":{"lng":9.3636,"lat":42.6826},"population":340},{"code":"2B106","name":"Érone","department":"2B","center":{"lng":9.2665,"lat":42.3755},"population":10},{"code":"2B205","name":"Patrimonio","department":"2B","center":{"lng":9.3647,"lat":42.7092},"population":877},{"code":"2B227","name":"Pietricaggio","department":"2B","center":{"lng":9.378,"lat":42.3283},"population":32},{"code":"2B304","name":"San-Lorenzo","department":"2B","center":{"lng":9.2916,"lat":42.3907},"population":139},{"code":"33090","name":"Canéjan","department":"33","center":{"lng":-0.659,"lat":44.7572},"population":5836},{"code":"34080","name":"Colombières-sur-Orb","department":"34","center":{"lng":3.0078,"lat":43.5858},"population":494},{"code":"35070","name":"Châteauneuf-d'Ille-et-Vilaine","department":"35","center":{"lng":-1.9287,"lat":48.5579},"population":1679},{"code":"35092","name":"Cuguen","department":"35","center":{"lng":-1.6581,"lat":48.435},"population":830},{"code":"35191","name":"Les Portes du Coglais","department":"35","center":{"lng":-1.3403,"lat":48.4523},"population":2235},{"code":"35290","name":"Saint-Malon-sur-Mel","department":"35","center":{"lng":-2.1096,"lat":48.0932},"population":613},{"code":"36060","name":"Crevant","department":"36","center":{"lng":1.9414,"lat":46.4719},"population":706},{"code":"36082","name":"Gehée","department":"36","center":{"lng":1.495,"lat":47.0381},"population":254},{"code":"36181","name":"Saint-Aubin","department":"36","center":{"lng":2.0356,"lat":46.8678},"population":151},{"code":"37050","name":"Chambray-lès-Tours","department":"37","center":{"lng":0.7205,"lat":47.3329},"population":11877},{"code":"37072","name":"Chinon","department":"37","center":{"lng":0.2433,"lat":47.1692},"population":8121},{"code":"37094","name":"Cussay","department":"37","center":{"lng":0.7696,"lat":47.019},"population":567},{"code":"37171","name":"Noizay","department":"37","center":{"lng":0.8987,"lat":47.4196},"population":1142},{"code":"37193","name":"Restigné","department":"37","center":{"lng":0.2383,"lat":47.2951},"population":1121},{"code":"37270","name":"Vernou-sur-Brenne","department":"37","center":{"lng":0.8407,"lat":47.4399},"population":2871},{"code":"38040","name":"Besse","department":"38","center":{"lng":6.2088,"lat":45.1106},"population":153},{"code":"38062","name":"La Buissière","department":"38","center":{"lng":5.9832,"lat":45.4101},"population":791},{"code":"38084","name":"Charnècles","department":"38","center":{"lng":5.5283,"lat":45.3411},"population":1462},{"code":"38161","name":"Faramans","department":"38","center":{"lng":5.1548,"lat":45.3865},"population":1148},{"code":"38183","name":"Granieu","department":"38","center":{"lng":5.5907,"lat":45.6},"population":516},{"code":"38260","name":"Moras","department":"38","center":{"lng":5.2626,"lat":45.6856},"population":523},{"code":"38282","name":"Optevoz","department":"38","center":{"lng":5.3406,"lat":45.752},"population":877},{"code":"38381","name":"Saint-Didier-de-la-Tour","department":"38","center":{"lng":5.4877,"lat":45.5446},"population":2125},{"code":"38480","name":"Septème","department":"38","center":{"lng":4.9881,"lat":45.5514},"population":2153},{"code":"39030","name":"Authume","department":"39","center":{"lng":5.5075,"lat":47.1242},"population":874},{"code":"39052","name":"Bief-des-Maisons","department":"39","center":{"lng":6.049,"lat":46.7014},"population":74},{"code":"39074","name":"Brans","department":"39","center":{"lng":5.574,"lat":47.2238},"population":199},{"code":"39096","name":"Champagney","department":"39","center":{"lng":5.5079,"lat":47.2601},"population":460},{"code":"39151","name":"Choux","department":"39","center":{"lng":5.7715,"lat":46.3029},"population":136},{"code":"39173","name":"Cousance","department":"39","center":{"lng":5.3795,"lat":46.5365},"population":1290},{"code":"39250","name":"Geruge","department":"39","center":{"lng":5.5296,"lat":46.6238},"population":189},{"code":"39272","name":"Ladoye-sur-Seille","department":"39","center":{"lng":5.6821,"lat":46.7672},"population":49},{"code":"39393","name":"Onglières","department":"39","center":{"lng":6.0037,"lat":46.8055},"population":64},{"code":"39470","name":"Les Rousses","department":"39","center":{"lng":6.0731,"lat":46.4911},"population":3702},{"code":"39492","name":"Saint-Maur","department":"39","center":{"lng":5.5969,"lat":46.6078},"population":214},{"code":"45091","name":"Chevannes","department":"45","center":{"lng":2.8532,"lat":48.1345},"population":319},{"code":"46081","name":"Crégols","department":"46","center":{"lng":1.6899,"lat":44.4304},"population":82},{"code":"46180","name":"Lunan","department":"46","center":{"lng":2.084,"lat":44.6088},"population":614},{"code":"47071","name":"Coulx","department":"47","center":{"lng":0.465,"lat":44.4702},"population":254},{"code":"47093","name":"Fargues-sur-Ourbise","department":"47","center":{"lng":0.1637,"lat":44.2274},"population":341},{"code":"47170","name":"Monbahus","department":"47","center":{"lng":0.5224,"lat":44.5352},"population":628},{"code":"47192","name":"Monviel","department":"47","center":{"lng":0.541,"lat":44.567},"population":77},{"code":"47291","name":"La Sauvetat-sur-Lède","department":"47","center":{"lng":0.7183,"lat":44.4824},"population":638},{"code":"48061","name":"Florac Trois Rivières","department":"48","center":{"lng":3.6268,"lat":44.3189},"population":2111},{"code":"48083","name":"Les Laubies","department":"48","center":{"lng":3.4461,"lat":44.7001},"population":151},{"code":"48160","name":"Saint-Jean-la-Fouillouse","department":"48","center":{"lng":3.6924,"lat":44.7053},"population":126},{"code":"48182","name":"Saint-Sauveur-de-Ginestoux","department":"48","center":{"lng":3.6076,"lat":44.71},"population":60},{"code":"49194","name":"Mazé-Milon","department":"49","center":{"lng":-0.2785,"lat":47.4713},"population":5770},{"code":"49271","name":"Saint-Clément-de-la-Place","department":"49","center":{"lng":-0.7328,"lat":47.5264},"population":2139},{"code":"49370","name":"Verrie","department":"49","center":{"lng":-0.19,"lat":47.2659},"population":459},{"code":"56080","name":"Guilliers","department":"56","center":{"lng":-2.4143,"lat":48.049},"population":1352},{"code":"57070","name":"Bettange","department":"57","center":{"lng":6.49,"lat":49.2397},"population":244},{"code":"57092","name":"Blies-Ébersing","department":"57","center":{"lng":7.1442,"lat":49.1136},"population":600},{"code":"57191","name":"Elzange","department":"57","center":{"lng":6.2985,"lat":49.3574},"population":672},{"code":"57290","name":"Hampont","department":"57","center":{"lng":6.5876,"lat":48.8283},"population":167},{"code":"58060","name":"Charrin","department":"58","center":{"lng":3.599,"lat":46.7993},"population":606},{"code":"58082","name":"Corancy","department":"58","center":{"lng":3.9638,"lat":47.1092},"population":281},{"code":"58181","name":"Moraches","department":"58","center":{"lng":3.5443,"lat":47.2854},"population":130},{"code":"58280","name":"Sougy-sur-Loire","department":"58","center":{"lng":3.4002,"lat":46.8653},"population":590},{"code":"59050","name":"Bas-Lieu","department":"59","center":{"lng":3.9544,"lat":50.1424},"population":344},{"code":"59072","name":"Bersillies","department":"59","center":{"lng":3.9946,"lat":50.3234},"population":243},{"code":"59094","name":"Bourbourg","department":"59","center":{"lng":2.2034,"lat":50.9422},"population":6958},{"code":"59171","name":"Dehéries","department":"59","center":{"lng":3.3435,"lat":50.0492},"population":42},{"code":"59193","name":"Emmerin","department":"59","center":{"lng":3.0062,"lat":50.5906},"population":3026},{"code":"59270","name":"Grand-Fayt","department":"59","center":{"lng":3.7977,"lat":50.1116},"population":471},{"code":"59292","name":"Haveluy","department":"59","center":{"lng":3.4016,"lat":50.356},"population":3224},{"code":"59391","name":"Mastaing","department":"59","center":{"lng":3.3012,"lat":50.3076},"population":900},{"code":"59490","name":"Rainsars","department":"59","center":{"lng":4.0006,"lat":50.0704},"population":194},{"code":"67091","name":"Diedendorf","department":"67","center":{"lng":7.0246,"lat":48.8849},"population":329},{"code":"67190","name":"Hengwiller","department":"67","center":{"lng":7.3278,"lat":48.668},"population":196},{"code":"68081","name":"Saint-Bernard","department":"68","center":{"lng":7.2061,"lat":47.6661},"population":597},{"code":"68180","name":"Leimbach","department":"68","center":{"lng":7.0959,"lat":47.7937},"population":928},{"code":"69071","name":"Curis-au-Mont-d'Or","department":"69","center":{"lng":4.8201,"lat":45.8682},"population":1186},{"code":"69093","name":"Grandris","department":"69","center":{"lng":4.4599,"lat":46.034},"population":1212},{"code":"69170","name":"Rontalon","department":"69","center":{"lng":4.6204,"lat":45.6554},"population":1167},{"code":"69192","name":"Saint-Cyr-le-Chatoux","department":"69","center":{"lng":4.5382,"lat":46.0335},"population":156},{"code":"69291","name":"Saint-Symphorien-d'Ozon","department":"69","center":{"lng":4.8666,"lat":45.6386},"population":6076},{"code":"77090","name":"La Chapelle-Saint-Sulpice","department":"77","center":{"lng":3.1778,"lat":48.5588},"population":239},{"code":"79070","name":"La Chapelle-Bâton","department":"79","center":{"lng":-0.3244,"lat":46.4662},"population":415},{"code":"79092","name":"Clavé","department":"79","center":{"lng":-0.2012,"lat":46.4986},"population":352},{"code":"79191","name":"Niort","department":"79","center":{"lng":-0.4613,"lat":46.3274},"population":60074},{"code":"79290","name":"Saint-Pompain","department":"79","center":{"lng":-0.6025,"lat":46.423},"population":954},{"code":"80719","name":"Sainte-Segrée","department":"80","center":{"lng":1.9138,"lat":49.7617},"population":48},{"code":"89091","name":"Châtel-Censoir","department":"89","center":{"lng":3.6335,"lat":47.5264},"population":565},{"code":"89190","name":"Givry","department":"89","center":{"lng":3.7957,"lat":47.512},"population":178}]