[{"code":"01021","name":"Ars-sur-Formans","department":"01","center":{"lng":4.8195,"lat":45.9904},"population":1513},{"code":"01043","name":"Beynost","department":"01","center":{"lng":4.9964,"lat":45.8359},"population":4936},{"code":"01065","name":"Buellas","department":"01","center":{"lng":5.1468,"lat":46.2116},"population":1884},{"code":"01087","name":"Charix","department":"01","center":{"lng":5.6773,"lat":46.1893},"population":280},{"code":"01142","name":"Dagneux","department":"01","center":{"lng":5.0748,"lat":45.854},"population":4741},{"code":"01241","name":"Meillonnas","department":"01","center":{"lng":5.3347,"lat":46.2451},"population":1383},{"code":"01263","name":"Montmerle-sur-Saône","department":"01","center":{"lng":4.759,"lat":46.0843},"population":3798},{"code":"01285","name":"Parcieux","department":"01","center":{"lng":4.8299,"lat":45.9197},"population":1317},{"code":"01362","name":"Saint-Jean-de-Thurigneux","department":"01","center":{"lng":4.8959,"lat":45.9597},"population":850},{"code":"01384","name":"Saint-Rambert-en-Bugey","department":"01","center":{"lng":5.4418,"lat":45.953},"population":2179},{"code":"02011","name":"Ambleny","department":"02","center":{"lng":3.1681,"lat":49.3741},"population":1203},{"code":"02033","name":"Aubigny-en-Laonnois","department":"02","center":{"lng":3.7921,"lat":49.495},"population":101},{"code":"02055","name":"Beaumé","department":"02","center":{"lng":4.1529,"lat":49.8187},"population":84},{"code":"02099","name":"Bonnesvalyn","department":"02","center":{"lng":3.3273,"lat":49.1235},"population":207},{"code":"02110","name":"Braine","department":"02","center":{"lng":3.5357,"lat":49.3488},"population":2243},{"code":"02132","name":"Bucy-lès-Cerny","department":"02","center":{"lng":3.493,"lat":49.5799},"population":188},{"code":"02154","name":"Chacrise","department":"02","center":{"lng":3.3964,"lat":49.3008},"population":367},{"code":"02176","name":"Chavonne","department":"02","center":{"lng":3.5614,"lat":49.4081},"population":210},{"code":"02198","name":"Clamecy","department":"02","center":{"lng":3.3654,"lat":49.4274},"population":238},{"code":"02231","name":"Couvron-et-Aumencourt","department":"02","center":{"lng":3.515,"lat":49.6464},"population":931},{"code":"02253","name":"Cuisy-en-Almont","department":"02","center":{"lng":3.2452,"lat":49.422},"population":358},{"code":"02275","name":"Effry","department":"02","center":{"lng":3.9879,"lat":49.9191},"population":313},{"code":"02297","name":"Étrépilly","department":"02","center":{"lng":3.3515,"lat":49.0825},"population":125},{"code":"02330","name":"Francilly-Selency","department":"02","center":{"lng":3.2296,"lat":49.8558},"population":512},{"code":"02352","name":"Gouy","department":"02","center":{"lng":3.2618,"lat":49.9938},"population":570},{"code":"02374","name":"Lehaucourt","department":"02","center":{"lng":3.2777,"lat":49.9122},"population":832},{"code":"02396","name":"Jumigny","department":"02","center":{"lng":3.7256,"lat":49.4081},"population":62},{"code":"02451","name":"Magny-la-Fosse","department":"02","center":{"lng":3.274,"lat":49.9371},"population":122},{"code":"02473","name":"Mayot","department":"02","center":{"lng":3.3962,"lat":49.7093},"population":213},{"code":"02495","name":"Mondrepuis","department":"02","center":{"lng":4.0587,"lat":49.9629},"population":1033},{"code":"02550","name":"Neuville-sur-Ailette","department":"02","center":{"lng":3.6986,"lat":49.4705},"population":119},{"code":"02572","name":"Orainville","department":"02","center":{"lng":4.0123,"lat":49.376},"population":496},{"code":"02594","name":"Passy-en-Valois","department":"02","center":{"lng":3.1814,"lat":49.165},"population":125},{"code":"02671","name":"Saint-Aubin","department":"02","center":{"lng":3.1891,"lat":49.5085},"population":279},{"code":"02693","name":"Saint-Rémy-Blanzy","department":"02","center":{"lng":3.3034,"lat":49.2472},"population":225},{"code":"02770","name":"Vauxbuin","department":"02","center":{"lng":3.2957,"lat":49.3577},"population":771},{"code":"02792","name":"Veuilly-la-Poterie","department":"02","center":{"lng":3.2185,"lat":49.0814},"population":155},{"code":"03001","name":"Abrest","department":"03","center":{"lng":3.4514,"lat":46.0962},"population":2927},{"code":"03023","name":"Bellerive-sur-Allier","department":"03","center":{"lng":3.4025,"lat":46.1202},"population":8898},{"code":"03045","name":"Busset","department":"03","center":{"lng":3.5139,"lat":46.058},"population":810},{"code":"03067","name":"Châtelperron","department":"03","center":{"lng":3.6326,"lat":46.3996},"population":132},{"code":"03089","name":"Coutansouze","department":"03","center":{"lng":3.0041,"lat":46.2071},"population":158},{"code":"03100","name":"Diou","department":"03","center":{"lng":3.7426,"lat":46.5234},"population":1354},{"code":"03122","name":"Gipcy","department":"03","center":{"lng":3.0496,"lat":46.5085},"population":236},{"code":"03144","name":"Liernolles","department":"03","center":{"lng":3.7686,"lat":46.3958},"population":199},{"code":"03166","name":"Mazerier","department":"03","center":{"lng":3.1862,"lat":46.1351},"population":320},{"code":"03188","name":"Montord","department":"03","center":{"lng":3.2406,"lat":46.2897},"population":209},{"code":"03221","name":"Saint-Bonnet-Tronçais","department":"03","center":{"lng":2.6964,"lat":46.6689},"population":739},{"code":"03243","name":"Saint-Marcel-en-Murat","department":"03","center":{"lng":3.0044,"lat":46.3222},"population":129},{"code":"03265","name":"Saligny-sur-Roudon","department":"03","center":{"lng":3.7587,"lat":46.4643},"population":648},{"code":"03287","name":"Treban","department":"03","center":{"lng":3.1652,"lat":46.3946},"population":376},{"code":"03320","name":"Ygrande","department":"03","center":{"lng":2.9382,"lat":46.5471},"population":778},{"code":"04013","name":"Aubignosc","department":"04","center":{"lng":5.9542,"lat":44.1211},"population":624},{"code":"04035","name":"Brunet","department":"04","center":{"lng":6.0256,"lat":43.8854},"population":293},{"code":"04057","name":"Clamensane","department":"04","center":{"lng":6.0784,"lat":44.3301},"population":180},{"code":"04079","name":"L'Escale","department":"04","center":{"lng":6.0363,"lat":44.0777},"population":1402},{"code":"04112","name":"Manosque","department":"04","center":{"lng":5.7896,"lat":43.8293},"population":22807},{"code":"04134","name":"La Motte-du-Caire","department":"04","center":{"lng":6.0406,"lat":44.3412},"population":544},{"code":"04156","name":"Puimichel","department":"04","center":{"lng":6.0245,"lat":43.9803},"population":254},{"code":"04178","name":"Saint-Étienne-les-Orgues","department":"04","center":{"lng":5.7798,"lat":44.0648},"population":1297},{"code":"04211","name":"Sourribes","department":"04","center":{"lng":6.0433,"lat":44.1582},"population":179},{"code":"04233","name":"Vaumeilh","department":"04","center":{"lng":5.9589,"lat":44.289},"population":268},{"code":"05003","name":"Aiguilles","department":"05","center":{"lng":6.8768,"lat":44.7826},"population":374},{"code":"05025","name":"Buissard","department":"05","center":{"lng":6.1457,"lat":44.6587},"population":194},{"code":"05047","name":"Éourres","department":"05","center":{"lng":5.7349,"lat":44.2113},"population":141},{"code":"05102","name":"La Piarre","department":"05","center":{"lng":5.6458,"lat":44.4809},"population":85},{"code":"05124","name":"La Rochette","department":"05","center":{"lng":6.1473,"lat":44.5945},"population":473},{"code":"05146","name":"Saint-Julien-en-Beauchêne","department":"05","center":{"lng":5.7214,"lat":44.6205},"population":135},{"code":"05168","name":"Sigoyer","department":"05","center":{"lng":5.9716,"lat":44.4801},"population":739},{"code":"06015","name":"Berre-les-Alpes","department":"06","center":{"lng":7.3306,"lat":43.8342},"population":1234},{"code":"06037","name":"Caussols","department":"06","center":{"lng":6.9071,"lat":43.7387},"population":322},{"code":"06059","name":"Èze","department":"06","center":{"lng":7.3566,"lat":43.7299},"population":2155},{"code":"06114","name":"Saint-André-de-la-Roche","department":"06","center":{"lng":7.2875,"lat":43.7455},"population":5877},{"code":"06136","name":"Sospel","department":"06","center":{"lng":7.4493,"lat":43.8872},"population":3807},{"code":"06158","name":"Villars-sur-Var","department":"06","center":{"lng":7.076,"lat":43.9564},"population":783},{"code":"07005","name":"Alba-la-Romaine","department":"07","center":{"lng":4.5958,"lat":44.5593},"population":1538},{"code":"07027","name":"Beauchastel","department":"07","center":{"lng":4.7938,"lat":44.8324},"population":1847},{"code":"07049","name":"Le Chambon","department":"07","center":{"lng":4.2996,"lat":44.8306},"population":60},{"code":"07104","name":"Issamoulenc","department":"07","center":{"lng":4.4519,"lat":44.7887},"population":105},{"code":"07126","name":"Lagorce","department":"07","center":{"lng":4.4293,"lat":44.4469},"population":1227},{"code":"07148","name":"Malbosc","department":"07","center":{"lng":4.0729,"lat":44.3484},"population":146},{"code":"07203","name":"Sagnes-et-Goudoulet","department":"07","center":{"lng":4.2169,"lat":44.8027},"population":119},{"code":"07225","name":"Saint-Clair","department":"07","center":{"lng":4.6855,"lat":45.2764},"population":1292},{"code":"07247","name":"Saint-Jean-le-Centenier","department":"07","center":{"lng":4.5358,"lat":44.586},"population":868},{"code":"07269","name":"Saint-Martin-de-Valamas","department":"07","center":{"lng":4.3696,"lat":44.9368},"population":1084},{"code":"07302","name":"Saint-Vincent-de-Barrès","department":"07","center":{"lng":4.7033,"lat":44.6583},"population":827},{"code":"07324","name":"Tournon-sur-Rhône","department":"07","center":{"lng":4.8156,"lat":45.0534},"population":11302},{"code":"07346","name":"Viviers","department":"07","center":{"lng":4.6616,"lat":44.4816},"population":3659},{"code":"08017","name":"Apremont","department":"08","center":{"lng":4.9674,"lat":49.259},"population":120},{"code":"08039","name":"Avaux","department":"08","center":{"lng":4.0685,"lat":49.4654},"population":511},{"code":"08116","name":"Bairon et ses environs","department":"08","center":{"lng":4.7594,"lat":49.5146},"population":1030},{"code":"08138","name":"Les Deux-Villes","department":"08","center":{"lng":5.2306,"lat":49.6568},"population":249},{"code":"08215","name":"Harricourt","department":"08","center":{"lng":4.9248,"lat":49.4389},"population":45},{"code":"08237","name":"Joigny-sur-Meuse","department":"08","center":{"lng":4.765,"lat":49.8325},"population":631},{"code":"08259","name":"Longwé","department":"08","center":{"lng":4.797,"lat":49.3862},"population":66},{"code":"08314","name":"Neuflize","department":"08","center":{"lng":4.311,"lat":49.405},"population":850},{"code":"08336","name":"Osnes","department":"08","center":{"lng":5.1561,"lat":49.6597},"population":229},{"code":"08358","name":"Remilly-les-Pothées","department":"08","center":{"lng":4.5516,"lat":49.7832},"population":263},{"code":"08413","name":"Seraincourt","department":"08","center":{"lng":4.1849,"lat":49.6184},"population":257},{"code":"08435","name":"Tagnon","department":"08","center":{"lng":4.2902,"lat":49.4511},"population":892},{"code":"08457","name":"Tournes","department":"08","center":{"lng":4.6366,"lat":49.7991},"population":1058},{"code":"08479","name":"Villers-le-Tourneur","department":"08","center":{"lng":4.5606,"lat":49.6219},"population":216},{"code":"09007","name":"Allières","department":"09","center":{"lng":1.3631,"lat":43.0391},"population":75},{"code":"09029","name":"Aulus-les-Bains","department":"09","center":{"lng":1.3574,"lat":42.7622},"population":146},{"code":"09106","name":"Dreuilhe","department":"09","center":{"lng":1.8666,"lat":42.9415},"population":363},{"code":"09128","name":"Gajan","department":"09","center":{"lng":1.1389,"lat":43.0367},"population":330},{"code":"09205","name":"Montfa","department":"09","center":{"lng":1.2897,"lat":43.1023},"population":94},{"code":"09227","name":"Péreille","department":"09","center":{"lng":1.8119,"lat":42.931},"population":186},{"code":"09249","name":"Roquefixade","department":"09","center":{"lng":1.7628,"lat":42.9347},"population":150},{"code":"09304","name":"Suzan","department":"09","center":{"lng":1.4342,"lat":43.0294},"population":24},{"code":"09326","name":"Vèbre","department":"09","center":{"lng":1.7172,"lat":42.7679},"population":115},{"code":"10030","name":"Barberey-Saint-Sulpice","department":"10","center":{"lng":4.0135,"lat":48.3273},"population":1551},{"code":"10052","name":"Boulages","department":"10","center":{"lng":3.916,"lat":48.5871},"population":227},{"code":"10074","name":"Chamoy","department":"10","center":{"lng":3.9645,"lat":48.1123},"population":503},{"code":"10096","name":"Chennegy","department":"10","center":{"lng":3.8474,"lat":48.2166},"population":471},{"code":"10151","name":"Fontaine-les-Grès","department":"10","center":{"lng":3.8876,"lat":48.4108},"population":903},{"code":"10173","name":"Isle-Aumont","department":"10","center":{"lng":4.1217,"lat":48.2042},"population":490},{"code":"10195","name":"Lhuître","department":"10","center":{"lng":4.2721,"lat":48.5799},"population":271},{"code":"10250","name":"Montier-en-l'Isle","department":"10","center":{"lng":4.6849,"lat":48.2678},"population":218},{"code":"10272","name":"Ormes","department":"10","center":{"lng":4.1123,"lat":48.555},"population":168},{"code":"10294","name":"Poligny","department":"10","center":{"lng":4.3464,"lat":48.1756},"population":58},{"code":"10371","name":"Sommeval","department":"10","center":{"lng":3.9537,"lat":48.1615},"population":301},{"code":"10393","name":"Vallentigny","department":"10","center":{"lng":4.6145,"lat":48.4412},"population":186},{"code":"11020","name":"Auriac","department":"11","center":{"lng":2.4916,"lat":42.9259},"population":33},{"code":"11042","name":"Blomac","department":"11","center":{"lng":2.5889,"lat":43.2134},"population":254},{"code":"11064","name":"Camplong-d'Aude","department":"11","center":{"lng":2.6495,"lat":43.1303},"population":385},{"code":"11086","name":"Caves","department":"11","center":{"lng":2.9624,"lat":42.9392},"population":879},{"code":"11141","name":"Ferran","department":"11","center":{"lng":2.0854,"lat":43.1522},"population":132},{"code":"11163","name":"Gincla","department":"11","center":{"lng":2.3298,"lat":42.7658},"population":47},{"code":"11185","name":"Lagrasse","department":"11","center":{"lng":2.5914,"lat":43.1048},"population":548},{"code":"11240","name":"Montazels","department":"11","center":{"lng":2.2435,"lat":42.9551},"population":537},{"code":"11262","name":"Narbonne","department":"11","center":{"lng":3.0337,"lat":43.1493},"population":56692},{"code":"11284","name":"Peyrens","department":"11","center":{"lng":1.9607,"lat":43.3612},"population":459},{"code":"11361","name":"Saint-Papoul","department":"11","center":{"lng":2.0437,"lat":43.3376},"population":832},{"code":"11383","name":"Souilhe","department":"11","center":{"lng":1.9185,"lat":43.3683},"population":342},{"code":"12010","name":"Arques","department":"12","center":{"lng":2.8063,"lat":44.32},"population":165},{"code":"12032","name":"Boussac","department":"12","center":{"lng":2.3846,"lat":44.2961},"population":605},{"code":"12054","name":"La Capelle-Bleys","department":"12","center":{"lng":2.1758,"lat":44.305},"population":355},{"code":"12098","name":"Estaing","department":"12","center":{"lng":2.6813,"lat":44.5764},"population":507},{"code":"12131","name":"La Loubière","department":"12","center":{"lng":2.6588,"lat":44.3889},"population":1529},{"code":"12153","name":"Montjaux","department":"12","center":{"lng":2.9045,"lat":44.0984},"population":435},{"code":"12175","name":"Ols-et-Rinhodes","department":"12","center":{"lng":1.9473,"lat":44.4618},"population":168},{"code":"12197","name":"Réquista","department":"12","center":{"lng":2.5526,"lat":44.0292},"population":1940},{"code":"12230","name":"Saint-Jean-Delnous","department":"12","center":{"lng":2.4912,"lat":44.0391},"population":382},{"code":"12252","name":"Salles-Courbatiès","department":"12","center":{"lng":2.0869,"lat":44.4842},"population":480},{"code":"12274","name":"Sylvanès","department":"12","center":{"lng":2.9517,"lat":43.8255},"population":116},{"code":"12296","name":"Viala-du-Tarn","department":"12","center":{"lng":2.8437,"lat":44.0893},"population":527},{"code":"13022","name":"Cassis","department":"13","center":{"lng":5.5503,"lat":43.2185},"population":6706},{"code":"13044","name":"Grans","department":"13","center":{"lng":5.0431,"lat":43.6172},"population":5382},{"code":"13066","name":"Noves","department":"13","center":{"lng":4.9018,"lat":43.86},"population":5918},{"code":"13088","name":"Le Rove","department":"13","center":{"lng":5.2498,"lat":43.3622},"population":5205},{"code":"14012","name":"Angerville","department":"14","center":{"lng":-0.029,"lat":49.244},"population":191},{"code":"14034","name":"Avenay","department":"14","center":{"lng":-0.462,"lat":49.0957},"population":561},{"code":"14078","name":"Blay","department":"14","center":{"lng":-0.8349,"lat":49.2774},"population":358},{"code":"14111","name":"Bucéels","department":"14","center":{"lng":-0.6388,"lat":49.1886},"population":450},{"code":"14177","name":"Coquainvilliers","department":"14","center":{"lng":0.1918,"lat":49.2013},"population":844},{"code":"14232","name":"Ducy-Sainte-Marguerite","department":"14","center":{"lng":-0.6102,"lat":49.2256},"population":178},{"code":"14254","name":"Éterville","department":"14","center":{"lng":-0.427,"lat":49.146},"population":1567},{"code":"14276","name":"Fontaine-le-Pin","department":"14","center":{"lng":-0.2913,"lat":48.9731},"population":340},{"code":"14298","name":"Géfosse-Fontenay","department":"14","center":{"lng":-1.083,"lat":49.3644},"population":131},{"code":"14353","name":"Landes-sur-Ajon","department":"14","center":{"lng":-0.5687,"lat":49.0738},"population":459},{"code":"14375","name":"Les Loges-Saulces","department":"14","center":{"lng":-0.3065,"lat":48.8652},"population":160},{"code":"14397","name":"Mandeville-en-Bessin","department":"14","center":{"lng":-0.8643,"lat":49.3065},"population":309},{"code":"14430","name":"Meuvaines","department":"14","center":{"lng":-0.5768,"lat":49.3243},"population":137},{"code":"14452","name":"Morteaux-Coulibœuf","department":"14","center":{"lng":-0.0797,"lat":48.9245},"population":607},{"code":"14474","name":"Notre-Dame-d'Estrées-Corbon","department":"14","center":{"lng":-0.0145,"lat":49.1357},"population":198},{"code":"14496","name":"Périgny","department":"14","center":{"lng":-0.6054,"lat":48.918},"population":57},{"code":"14595","name":"Saint-Jean-de-Livet","department":"14","center":{"lng":0.2426,"lat":49.0932},"population":238},{"code":"14650","name":"Saint-Pierre-du-Fresne","department":"14","center":{"lng":-0.7662,"lat":49.0346},"population":181},{"code":"14672","name":"Val de Drôme","department":"14","center":{"lng":-0.8295,"lat":49.0572},"population":895},{"code":"14694","name":"Le Torquesne","department":"14","center":{"lng":0.1705,"lat":49.218},"population":529},{"code":"15002","name":"Alleuze","department":"15","center":{"lng":3.1037,"lat":44.9548},"population":225},{"code":"15024","name":"Brageac","department":"15","center":{"lng":2.2624,"lat":45.2026},"population":77},{"code":"15046","name":"Chaussenac","department":"15","center":{"lng":2.2686,"lat":45.1726},"population":223},{"code":"15101","name":"Laveissière","department":"15","center":{"lng":2.7837,"lat":45.0985},"population":526},{"code":"15123","name":"Méallet","department":"15","center":{"lng":2.4172,"lat":45.2623},"population":154},{"code":"15167","name":"Rouziers","department":"15","center":{"lng":2.2036,"lat":44.7936},"population":110},{"code":"15189","name":"Saint-Gérons","department":"15","center":{"lng":2.2063,"lat":44.9422},"population":229},{"code":"15200","name":"Saint-Martin-Cantalès","department":"15","center":{"lng":2.2995,"lat":45.0909},"population":154},{"code":"15222","name":"Sansac-Veinazès","department":"15","center":{"lng":2.4277,"lat":44.7456},"population":201},{"code":"15244","name":"Ussel","department":"15","center":{"lng":2.955,"lat":45.0732},"population":458},{"code":"15266","name":"Yolet","department":"15","center":{"lng":2.5351,"lat":44.9351},"population":595},{"code":"16014","name":"Angeduc","department":"16","center":{"lng":-0.0552,"lat":45.4787},"population":143},{"code":"16036","name":"Bécheresse","department":"16","center":{"lng":0.0786,"lat":45.5019},"population":292},{"code":"16058","name":"Boutiers-Saint-Trojan","department":"16","center":{"lng":-0.2956,"lat":45.714},"population":1393},{"code":"16113","name":"La Couronne","department":"16","center":{"lng":0.108,"lat":45.6095},"population":7759},{"code":"16135","name":"Eymouthiers","department":"16","center":{"lng":0.5478,"lat":45.6459},"population":325},{"code":"16157","name":"Le Grand-Madieu","department":"16","center":{"lng":0.4483,"lat":45.9396},"population":154},{"code":"16212","name":"Massignac","department":"16","center":{"lng":0.6497,"lat":45.7793},"population":368},{"code":"16234","name":"Moulidars","department":"16","center":{"lng":-0.0428,"lat":45.6678},"population":664},{"code":"16256","name":"Passirac","department":"16","center":{"lng":-0.0608,"lat":45.343},"population":251},{"code":"16377","name":"La Tâche","department":"16","center":{"lng":0.3563,"lat":45.8688},"population":106},{"code":"16399","name":"Verrières","department":"16","center":{"lng":-0.2619,"lat":45.5605},"population":321},{"code":"17004","name":"Île-d'Aix","department":"17","center":{"lng":-1.1792,"lat":46.0122},"population":196},{"code":"17026","name":"Authon-Ébéon","department":"17","center":{"lng":-0.4259,"lat":45.8447},"population":398},{"code":"17048","name":"Blanzac-lès-Matha","department":"17","center":{"lng":-0.354,"lat":45.875},"population":330},{"code":"17125","name":"Courcelles","department":"17","center":{"lng":-0.4816,"lat":45.9573},"population":454},{"code":"17147","name":"Écoyeux","department":"17","center":{"lng":-0.5189,"lat":45.8149},"population":1380},{"code":"17202","name":"Landes","department":"17","center":{"lng":-0.6012,"lat":45.9984},"population":575},{"code":"17224","name":"Matha","department":"17","center":{"lng":-0.3157,"lat":45.8656},"population":2202},{"code":"17246","name":"Moragne","department":"17","center":{"lng":-0.7907,"lat":45.9745},"population":538},{"code":"17268","name":"Rives-de-Boutonne","department":"17","center":{"lng":-0.4043,"lat":46.0307},"population":187},{"code":"17301","name":"Romazières","department":"17","center":{"lng":-0.1777,"lat":45.9939},"population":83},{"code":"17323","name":"Saint-Denis-d'Oléron","department":"17","center":{"lng":-1.3833,"lat":46.0225},"population":1346},{"code":"17345","name":"Saint-Hilaire-du-Bois","department":"17","center":{"lng":-0.4895,"lat":45.4335},"population":298},{"code":"17367","name":"Saint-Martin-de-Juillers","department":"17","center":{"lng":-0.3434,"lat":45.938},"population":152},{"code":"17389","name":"Sainte-Radegonde","department":"17","center":{"lng":-0.8709,"lat":45.8475},"population":578},{"code":"17400","name":"Saint-Sever-de-Saintonge","department":"17","center":{"lng":-0.5221,"lat":45.6895},"population":648},{"code":"17422","name":"Seigné","department":"17","center":{"lng":-0.2158,"lat":45.9539},"population":91},{"code":"17444","name":"Thénac","department":"17","center":{"lng":-0.6542,"lat":45.6799},"population":1702},{"code":"17466","name":"Vérines","department":"17","center":{"lng":-0.9672,"lat":46.1984},"population":2375},{"code":"18016","name":"Aubinges","department":"18","center":{"lng":2.5893,"lat":47.2202},"population":402},{"code":"18038","name":"Bruère-Allichamps","department":"18","center":{"lng":2.4274,"lat":46.7737},"population":569},{"code":"18115","name":"Ivoy-le-Pré","department":"18","center":{"lng":2.5187,"lat":47.3576},"population":775},{"code":"18137","name":"Mareuil-sur-Arnon","department":"18","center":{"lng":2.1606,"lat":46.8766},"population":476},{"code":"18159","name":"Nançay","department":"18","center":{"lng":2.1768,"lat":47.369},"population":768},{"code":"18214","name":"Saint-Hilaire-de-Court","department":"18","center":{"lng":1.9995,"lat":47.2048},"population":595},{"code":"18236","name":"Saint-Symphorien","department":"18","center":{"lng":2.3044,"lat":46.8078},"population":133},{"code":"18258","name":"Sury-en-Vaux","department":"18","center":{"lng":2.797,"lat":47.3713},"population":685},{"code":"19006","name":"Alleyrat","department":"19","center":{"lng":2.2197,"lat":45.5651},"population":103},{"code":"19028","name":"Bort-les-Orgues","department":"19","center":{"lng":2.4849,"lat":45.3939},"population":2487},{"code":"19105","name":"Lanteuil","department":"19","center":{"lng":1.643,"lat":45.1182},"population":504},{"code":"19149","name":"Neuville","department":"19","center":{"lng":1.8488,"lat":45.109},"population":203},{"code":"19204","name":"Saint-Fréjoux","department":"19","center":{"lng":2.3818,"lat":45.5562},"population":263},{"code":"19226","name":"Saint-Merd-les-Oussines","department":"19","center":{"lng":2.0282,"lat":45.6198},"population":109},{"code":"19248","name":"Les Trois-Saints","department":"19","center":{"lng":1.4925,"lat":45.4464},"population":717},{"code":"21041","name":"Avot","department":"21","center":{"lng":5.0053,"lat":47.6163},"population":189},{"code":"21063","name":"Beneuvre","department":"21","center":{"lng":4.9333,"lat":47.6933},"population":92},{"code":"21085","name":"Bligny-le-Sec","department":"21","center":{"lng":4.741,"lat":47.4479},"population":145},{"code":"21140","name":"Champignolles","department":"21","center":{"lng":4.5695,"lat":47.0518},"population":79},{"code":"21162","name":"Chaux","department":"21","center":{"lng":4.9067,"lat":47.1268},"population":484},{"code":"21184","name":"Colombier","department":"21","center":{"lng":4.6772,"lat":47.1692},"population":66},{"code":"21261","name":"Fauverney","department":"21","center":{"lng":5.1511,"lat":47.2636},"population":620},{"code":"21283","name":"Fraignot-et-Vesvrotte","department":"21","center":{"lng":4.9348,"lat":47.6502},"population":72},{"code":"21360","name":"Lusigny-sur-Ouche","department":"21","center":{"lng":4.677,"lat":47.0792},"population":116},{"code":"21382","name":"Marcilly-Ogny","department":"21","center":{"lng":4.4092,"lat":47.2467},"population":192},{"code":"21481","name":"Perrigny-lès-Dijon","department":"21","center":{"lng":5.0197,"lat":47.2556},"population":2321},{"code":"21580","name":"Salmaise","department":"21","center":{"lng":4.6771,"lat":47.453},"population":128},{"code":"22031","name":"Carnoët","department":"22","center":{"lng":-3.5424,"lat":48.3569},"population":667},{"code":"22053","name":"Éréac","department":"22","center":{"lng":-2.3426,"lat":48.2714},"population":676},{"code":"22075","name":"Hémonstoir","department":"22","center":{"lng":-2.85,"lat":48.1573},"population":708},{"code":"22097","name":"La Landec","department":"22","center":{"lng":-2.1809,"lat":48.4256},"population":749},{"code":"22152","name":"Minihy-Tréguier","department":"22","center":{"lng":-3.2578,"lat":48.7696},"population":1263},{"code":"22174","name":"Pléboulle","department":"22","center":{"lng":-2.33,"lat":48.5951},"population":716},{"code":"22196","name":"Pleudaniel","department":"22","center":{"lng":-3.1537,"lat":48.7617},"population":925},{"code":"22251","name":"Pordic","department":"22","center":{"lng":-2.825,"lat":48.5695},"population":7393},{"code":"22273","name":"Saint-Alban","department":"22","center":{"lng":-2.5174,"lat":48.5556},"population":2376},{"code":"22295","name":"Saint-Gilles-Vieux-Marché","department":"22","center":{"lng":-2.973,"lat":48.2481},"population":315},{"code":"22350","name":"Tréduder","department":"22","center":{"lng":-3.5663,"lat":48.6559},"population":201},{"code":"22372","name":"Trémuson","department":"22","center":{"lng":-2.8476,"lat":48.5246},"population":2238},{"code":"23021","name":"Bénévent-l'Abbaye","department":"23","center":{"lng":1.6351,"lat":46.1209},"population":767},{"code":"23043","name":"Chamberaud","department":"23","center":{"lng":2.0436,"lat":46.0494},"population":97},{"code":"23065","name":"Colondannes","department":"23","center":{"lng":1.6183,"lat":46.2887},"population":288},{"code":"23087","name":"Fresselines","department":"23","center":{"lng":1.7045,"lat":46.3799},"population":501},{"code":"23120","name":"Malleret-Boussac","department":"23","center":{"lng":2.1514,"lat":46.3372},"population":179},{"code":"23142","name":"Néoux","department":"23","center":{"lng":2.259,"lat":45.917},"population":279},{"code":"23164","name":"Rougnat","department":"23","center":{"lng":2.4949,"lat":46.0563},"population":474},{"code":"23186","name":"Saint-Christophe","department":"23","center":{"lng":1.8599,"lat":46.0997},"population":150},{"code":"23241","name":"Saint-Silvain-Bellegarde","department":"23","center":{"lng":2.3053,"lat":45.9682},"population":198},{"code":"23263","name":"Villard","department":"23","center":{"lng":1.6997,"lat":46.3327},"population":381},{"code":"24011","name":"Antonne-et-Trigonant","department":"24","center":{"lng":0.8289,"lat":45.2275},"population":1221},{"code":"24055","name":"Bourdeilles","department":"24","center":{"lng":0.5742,"lat":45.3239},"population":793},{"code":"24077","name":"Campsegret","department":"24","center":{"lng":0.5631,"lat":44.9432},"population":398},{"code":"24110","name":"La Chapelle-Montabourlet","department":"24","center":{"lng":0.4587,"lat":45.3931},"population":57},{"code":"24132","name":"Conne-de-Labarde","department":"24","center":{"lng":0.5585,"lat":44.7812},"population":255},{"code":"24154","name":"Douchapt","department":"24","center":{"lng":0.4451,"lat":45.2296},"population":349},{"code":"24176","name":"Faurilles","department":"24","center":{"lng":0.6866,"lat":44.7024},"population":36},{"code":"24231","name":"Lavalade","department":"24","center":{"lng":0.8578,"lat":44.6952},"population":105},{"code":"24253","name":"Mareuil en Périgord","department":"24","center":{"lng":0.5107,"lat":45.4476},"population":2316},{"code":"24297","name":"Moulin-Neuf","department":"24","center":{"lng":0.06,"lat":45.0011},"population":973},{"code":"24330","name":"Plazac","department":"24","center":{"lng":1.0383,"lat":45.0483},"population":710},{"code":"24352","name":"Ribérac","department":"24","center":{"lng":0.3402,"lat":45.2428},"population":3770},{"code":"24374","name":"Saint-Aubin-de-Lanquais","department":"24","center":{"lng":0.5982,"lat":44.7982},"population":357},{"code":"24396","name":"Saint-Cyprien","department":"24","center":{"lng":1.027,"lat":44.8853},"population":1566},{"code":"24451","name":"Saint-Martial-de-Valette","department":"24","center":{"lng":0.6333,"lat":45.514},"population":801},{"code":"24473","name":"Sainte-Orse","department":"24","center":{"lng":1.0707,"lat":45.2079},"population":349},{"code":"24495","name":"Saint-Romain-de-Monpazier","department":"24","center":{"lng":0.8839,"lat":44.7209},"population":108},{"code":"24550","name":"Thenon","department":"24","center":{"lng":1.0631,"lat":45.1354},"population":1267},{"code":"24572","name":"Vergt-de-Biron","department":"24","center":{"lng":0.8513,"lat":44.6336},"population":188},{"code":"25001","name":"Abbans-Dessous","department":"25","center":{"lng":5.871,"lat":47.1345},"population":247},{"code":"25045","name":"Battenans-les-Mines","department":"25","center":{"lng":6.2702,"lat":47.4034},"population":42},{"code":"25067","name":"Blussans","department":"25","center":{"lng":6.6104,"lat":47.4123},"population":188},{"code":"25089","name":"Bremondans","department":"25","center":{"lng":6.3983,"lat":47.2316},"population":102},{"code":"25100","name":"Bulle","department":"25","center":{"lng":6.1958,"lat":46.904},"population":500},{"code":"25122","name":"Chapelle-d'Huin","department":"25","center":{"lng":6.1704,"lat":46.9329},"population":534},{"code":"25166","name":"Côtebrune","department":"25","center":{"lng":6.309,"lat":47.2516},"population":82},{"code":"25188","name":"Dambenois","department":"25","center":{"lng":6.8735,"lat":47.5447},"population":727},{"code":"25221","name":"Esnans","department":"25","center":{"lng":6.3245,"lat":47.3326},"population":65},{"code":"25243","name":"Flangebouche","department":"25","center":{"lng":6.4747,"lat":47.1197},"population":833},{"code":"25265","name":"Geneuille","department":"25","center":{"lng":5.9696,"lat":47.3217},"population":1264},{"code":"25287","name":"Grandfontaine","department":"25","center":{"lng":5.9053,"lat":47.1982},"population":1810},{"code":"25320","name":"Labergement-Sainte-Marie","department":"25","center":{"lng":6.282,"lat":46.7817},"population":1257},{"code":"25342","name":"Longechaux","department":"25","center":{"lng":6.4368,"lat":47.1647},"population":78},{"code":"25364","name":"Mamirolle","department":"25","center":{"lng":6.1531,"lat":47.1947},"population":1811},{"code":"25386","name":"Montancy","department":"25","center":{"lng":7.0259,"lat":47.354},"population":119},{"code":"25441","name":"Ouvans","department":"25","center":{"lng":6.488,"lat":47.2768},"population":68},{"code":"25463","name":"Pont-de-Roide-Vermondans","department":"25","center":{"lng":6.7657,"lat":47.3872},"population":3971},{"code":"25485","name":"Rémondans-Vaivre","department":"25","center":{"lng":6.7115,"lat":47.381},"population":206},{"code":"25540","name":"Semondans","department":"25","center":{"lng":6.6925,"lat":47.5416},"population":306},{"code":"25562","name":"Thulay","department":"25","center":{"lng":6.8585,"lat":47.4291},"population":206},{"code":"25584","name":"Valoreille","department":"25","center":{"lng":6.7379,"lat":47.2945},"population":125},{"code":"26013","name":"Arpavon","department":"26","center":{"lng":5.2739,"lat":44.3706},"population":73},{"code":"26035","name":"Beaufort-sur-Gervanne","department":"26","center":{"lng":5.1551,"lat":44.7772},"population":485},{"code":"26057","name":"Bourg-de-Péage","department":"26","center":{"lng":5.0492,"lat":45.0189},"population":9777},{"code":"26079","name":"Charpey","department":"26","center":{"lng":5.0758,"lat":44.944},"population":1539},{"code":"26112","name":"Curnier","department":"26","center":{"lng":5.2329,"lat":44.3836},"population":211},{"code":"26134","name":"Félines-sur-Rimandoule","department":"26","center":{"lng":5.0557,"lat":44.5803},"population":84},{"code":"26156","name":"Larnage","department":"26","center":{"lng":4.8635,"lat":45.1009},"population":1029},{"code":"26178","name":"Menglon","department":"26","center":{"lng":5.4701,"lat":44.6565},"population":538},{"code":"26211","name":"Montségur-sur-Lauzon","department":"26","center":{"lng":4.86,"lat":44.3683},"population":1371},{"code":"26233","name":"Piégon","department":"26","center":{"lng":5.1264,"lat":44.2978},"population":240},{"code":"26255","name":"Les Prés","department":"26","center":{"lng":5.5784,"lat":44.5363},"population":28},{"code":"26277","name":"La Roche-sur-Grane","department":"26","center":{"lng":4.9365,"lat":44.6755},"population":190},{"code":"26299","name":"Sainte-Croix","department":"26","center":{"lng":5.2815,"lat":44.7696},"population":101},{"code":"26310","name":"Saint-Laurent-d'Onay","department":"26","center":{"lng":5.1153,"lat":45.178},"population":157},{"code":"26332","name":"Saint-Uze","department":"26","center":{"lng":4.8646,"lat":45.1917},"population":2129},{"code":"26376","name":"Villeperdrix","department":"26","center":{"lng":5.2986,"lat":44.4577},"population":102},{"code":"27003","name":"Acquigny","department":"27","center":{"lng":1.1745,"lat":49.1616},"population":1725},{"code":"27025","name":"Autheuil-Authouillet","department":"27","center":{"lng":1.2938,"lat":49.1022},"population":944},{"code":"27047","name":"Beaubray","department":"27","center":{"lng":0.9011,"lat":48.9138},"population":338},{"code":"27069","name":"Bois-Arnault","department":"27","center":{"lng":0.7529,"lat":48.8163},"population":699},{"code":"27102","name":"Bouquetot","department":"27","center":{"lng":0.7683,"lat":49.3618},"population":1049},{"code":"27124","name":"Cailly-sur-Eure","department":"27","center":{"lng":1.2195,"lat":49.1195},"population":223},{"code":"27146","name":"La Chapelle-Bayvel","department":"27","center":{"lng":0.4033,"lat":49.2843},"population":383},{"code":"27168","name":"Connelles","department":"27","center":{"lng":1.2766,"lat":49.2626},"population":172},{"code":"27201","name":"Daubeuf-la-Campagne","department":"27","center":{"lng":1.0304,"lat":49.1881},"population":245},{"code":"27245","name":"Fleury-la-Forêt","department":"27","center":{"lng":1.5584,"lat":49.4257},"population":289},{"code":"27267","name":"Freneuse-sur-Risle","department":"27","center":{"lng":0.6654,"lat":49.247},"population":336},{"code":"27289","name":"La Goulafrière","department":"27","center":{"lng":0.4344,"lat":48.9482},"population":169},{"code":"27300","name":"Grosley-sur-Risle","department":"27","center":{"lng":0.8096,"lat":49.0396},"population":525},{"code":"27322","name":"La Haye-Malherbe","department":"27","center":{"lng":1.0671,"lat":49.2368},"population":1374},{"code":"27366","name":"Letteguives","department":"27","center":{"lng":1.3297,"lat":49.4206},"population":208},{"code":"27388","name":"Marais-Vernier","department":"27","center":{"lng":0.4589,"lat":49.4372},"population":473},{"code":"27421","name":"Mousseaux-Neuville","department":"27","center":{"lng":1.3386,"lat":48.9023},"population":641},{"code":"27465","name":"Le Plessis-Hébert","department":"27","center":{"lng":1.3659,"lat":48.9817},"population":402},{"code":"27487","name":"Radepont","department":"27","center":{"lng":1.3215,"lat":49.3518},"population":643},{"code":"27520","name":"Saint-Benoît-des-Ombres","department":"27","center":{"lng":0.6174,"lat":49.226},"population":142},{"code":"27542","name":"Saint-Georges-du-Vièvre","department":"27","center":{"lng":0.5764,"lat":49.2427},"population":894},{"code":"27564","name":"Saint-Mards-de-Fresne","department":"27","center":{"lng":0.4535,"lat":49.0812},"population":344},{"code":"27586","name":"Saint-Philbert-sur-Boissey","department":"27","center":{"lng":0.785,"lat":49.2574},"population":172},{"code":"27641","name":"Le Tilleul-Lambert","department":"27","center":{"lng":0.9317,"lat":49.0794},"population":265},{"code":"27663","name":"Le Troncq","department":"27","center":{"lng":0.9139,"lat":49.1942},"population":170},{"code":"27685","name":"La Vieille-Lyre","department":"27","center":{"lng":0.7503,"lat":48.9333},"population":653},{"code":"28015","name":"Auneau-Bleury-Saint-Symphorien","department":"28","center":{"lng":1.7642,"lat":48.5},"population":6354},{"code":"28037","name":"Bérou-la-Mulotière","department":"28","center":{"lng":1.0741,"lat":48.742},"population":345},{"code":"28059","name":"Brezolles","department":"28","center":{"lng":1.064,"lat":48.6898},"population":1796},{"code":"28114","name":"Courbehaye","department":"28","center":{"lng":1.6089,"lat":48.1474},"population":137},{"code":"28136","name":"Écluzelles","department":"28","center":{"lng":1.4218,"lat":48.7088},"population":159},{"code":"28158","name":"Fontenay-sur-Eure","department":"28","center":{"lng":1.4217,"lat":48.4069},"population":1180},{"code":"28213","name":"Lormaye","department":"28","center":{"lng":1.5429,"lat":48.6393},"population":683},{"code":"28235","name":"Marchezais","department":"28","center":{"lng":1.5135,"lat":48.775},"population":408},{"code":"28257","name":"Mondonville-Saint-Jean","department":"28","center":{"lng":1.8251,"lat":48.3623},"population":93},{"code":"28279","name":"Nogent-le-Roi","department":"28","center":{"lng":1.5206,"lat":48.6315},"population":4023},{"code":"28312","name":"Puiseux","department":"28","center":{"lng":1.368,"lat":48.6396},"population":133},{"code":"28334","name":"Saint-Denis-Lanneray","department":"28","center":{"lng":1.2465,"lat":48.0851},"population":2095},{"code":"28378","name":"Souancé-au-Perche","department":"28","center":{"lng":0.8355,"lat":48.2697},"population":496},{"code":"28411","name":"Villars","department":"28","center":{"lng":1.5413,"lat":48.2317},"population":180},{"code":"29005","name":"Baye","department":"29","center":{"lng":-3.6111,"lat":47.8555},"population":1363},{"code":"29027","name":"Châteauneuf-du-Faou","department":"29","center":{"lng":-3.8244,"lat":48.1868},"population":3646},{"code":"29049","name":"Elliant","department":"29","center":{"lng":-3.9053,"lat":48.0073},"population":3379},{"code":"29104","name":"Landévennec","department":"29","center":{"lng":-4.3104,"lat":48.2802},"population":335},{"code":"29126","name":"Loc-Brévalaire","department":"29","center":{"lng":-4.4065,"lat":48.554},"population":210},{"code":"29148","name":"Mespaul","department":"29","center":{"lng":-4.0357,"lat":48.6161},"population":935},{"code":"29225","name":"Pouldreuzic","department":"29","center":{"lng":-4.3653,"lat":47.9628},"population":2128},{"code":"29247","name":"Saint-Évarzec","department":"29","center":{"lng":-4.0124,"lat":47.9556},"population":3491},{"code":"29269","name":"Saint-Thurien","department":"29","center":{"lng":-3.6208,"lat":47.9562},"population":1005},{"code":"29302","name":"Pont-de-Buis-lès-Quimerch","department":"29","center":{"lng":-4.1109,"lat":48.2738},"population":3571},{"code":"30050","name":"Bragassargues","department":"30","center":{"lng":4.0475,"lat":43.9181},"population":168},{"code":"30072","name":"Castelnau-Valence","department":"30","center":{"lng":4.2407,"lat":44.0076},"population":482},{"code":"30171","name":"Molières-sur-Cèze","department":"30","center":{"lng":4.1534,"lat":44.2617},"population":1187},{"code":"30193","name":"Parignargues","department":"30","center":{"lng":4.2129,"lat":43.8679},"population":656},{"code":"30270","name":"Saint-Jean-du-Pin","department":"30","center":{"lng":4.0353,"lat":44.1127},"population":1531},{"code":"30292","name":"Saint-Pons-la-Calm","department":"30","center":{"lng":4.5564,"lat":44.0952},"population":501},{"code":"31040","name":"Bachos","department":"31","center":{"lng":0.607,"lat":42.9008},"population":33},{"code":"31062","name":"Bellesserre","department":"31","center":{"lng":1.1014,"lat":43.787},"population":110},{"code":"31084","name":"Boussens","department":"31","center":{"lng":0.9594,"lat":43.1747},"population":1108},{"code":"31161","name":"Deyme","department":"31","center":{"lng":1.5311,"lat":43.4841},"population":1412},{"code":"31183","name":"Figarol","department":"31","center":{"lng":0.9073,"lat":43.0857},"population":313},{"code":"31260","name":"Laffite-Toupière","department":"31","center":{"lng":0.907,"lat":43.1651},"population":95},{"code":"31282","name":"Launaguet","department":"31","center":{"lng":1.4579,"lat":43.6668},"population":9216},{"code":"31381","name":"Montgiscard","department":"31","center":{"lng":1.5687,"lat":43.4507},"population":2586},{"code":"31480","name":"Sainte-Foy-d'Aigrefeuille","department":"31","center":{"lng":1.6037,"lat":43.5514},"population":2512},{"code":"32030","name":"Bars","department":"32","center":{"lng":0.3005,"lat":43.5118},"population":124},{"code":"32052","name":"Bezolles","department":"32","center":{"lng":0.355,"lat":43.8209},"population":132},{"code":"32096","name":"Cazaubon","department":"32","center":{"lng":-0.0336,"lat":43.9285},"population":1663},{"code":"32151","name":"Goux","department":"32","center":{"lng":-0.0222,"lat":43.6158},"population":63},{"code":"32173","name":"Labrihe","department":"32","center":{"lng":0.8752,"lat":43.7652},"population":213},{"code":"32195","name":"Larroque-Engalin","department":"32","center":{"lng":0.5485,"lat":43.9897},"population":45},{"code":"32250","name":"Meilhan","department":"32","center":{"lng":0.6755,"lat":43.4187},"population":76},{"code":"32272","name":"Monlaur-Bernet","department":"32","center":{"lng":0.5165,"lat":43.3468},"population":162},{"code":"32294","name":"Mourède","department":"32","center":{"lng":0.2911,"lat":43.8015},"population":70},{"code":"32371","name":"Saint-Créac","department":"32","center":{"lng":0.7941,"lat":43.9168},"population":87},{"code":"32393","name":"Saint-Maur","department":"32","center":{"lng":0.3509,"lat":43.483},"population":136},{"code":"33020","name":"Auriolles","department":"33","center":{"lng":0.0444,"lat":44.7333},"population":137},{"code":"33042","name":"Belin-Béliet","department":"33","center":{"lng":-0.7989,"lat":44.4959},"population":6205},{"code":"33064","name":"Bossugan","department":"33","center":{"lng":-0.0517,"lat":44.7911},"population":45},{"code":"33086","name":"Camiac-et-Saint-Denis","department":"33","center":{"lng":-0.292,"lat":44.7956},"population":351},{"code":"33141","name":"Croignon","department":"33","center":{"lng":-0.3452,"lat":44.8209},"population":733},{"code":"33163","name":"Faleyras","department":"33","center":{"lng":-0.2272,"lat":44.7646},"population":423},{"code":"33185","name":"Génissac","department":"33","center":{"lng":-0.2496,"lat":44.8614},"population":2026},{"code":"33240","name":"Lesparre-Médoc","department":"33","center":{"lng":-0.9235,"lat":45.2796},"population":5862},{"code":"33262","name":"Macau","department":"33","center":{"lng":-0.6086,"lat":45.0112},"population":4575},{"code":"33284","name":"Mios","department":"33","center":{"lng":-0.8913,"lat":44.6105},"population":11756},{"code":"33361","name":"Ruch","department":"33","center":{"lng":-0.0337,"lat":44.7748},"population":544},{"code":"33383","name":"Saint-Christoly-Médoc","department":"33","center":{"lng":-0.8139,"lat":45.3673},"population":286},{"code":"33460","name":"Saint-Pey-de-Castets","department":"33","center":{"lng":-0.0667,"lat":44.8207},"population":595},{"code":"33482","name":"Saint-Sulpice-de-Pommiers","department":"33","center":{"lng":-0.1125,"lat":44.676},"population":271},{"code":"34010","name":"Aniane","department":"34","center":{"lng":3.5911,"lat":43.686},"population":2956},{"code":"34032","name":"Béziers","department":"34","center":{"lng":3.2342,"lat":43.3481},"population":80815},{"code":"34054","name":"Cassagnoles","department":"34","center":{"lng":2.5994,"lat":43.3994},"population":109},{"code":"34076","name":"Ceyras","department":"34","center":{"lng":3.4628,"lat":43.6512},"population":1389},{"code":"34098","name":"Ferrals-les-Montagnes","department":"34","center":{"lng":2.6392,"lat":43.4174},"population":147},{"code":"34131","name":"Lauret","department":"34","center":{"lng":3.881,"lat":43.8309},"population":621},{"code":"34153","name":"Les Matelles","department":"34","center":{"lng":3.8083,"lat":43.7281},"population":2068},{"code":"34175","name":"Mourèze","department":"34","center":{"lng":3.3476,"lat":43.6177},"population":190},{"code":"34197","name":"Péret","department":"34","center":{"lng":3.4016,"lat":43.5763},"population":1131},{"code":"34230","name":"Les Rives","department":"34","center":{"lng":3.2635,"lat":43.8562},"population":151},{"code":"34252","name":"Saint-Étienne-Estréchoux","department":"34","center":{"lng":3.1048,"lat":43.6608},"population":257},{"code":"34274","name":"Saint-Martin-de-Londres","department":"34","center":{"lng":3.7119,"lat":43.7953},"population":2728},{"code":"34296","name":"Saussines","department":"34","center":{"lng":4.05,"lat":43.7581},"population":992},{"code":"35022","name":"Bécherel","department":"35","center":{"lng":-1.9423,"lat":48.296},"population":685},{"code":"35044","name":"Broualan","department":"35","center":{"lng":-1.6607,"lat":48.4733},"population":411},{"code":"35066","name":"Chartres-de-Bretagne","department":"35","center":{"lng":-1.7039,"lat":48.0451},"population":8678},{"code":"35088","name":"Corps-Nuds","department":"35","center":{"lng":-1.5706,"lat":47.981},"population":3555},{"code":"35121","name":"Gosné","department":"35","center":{"lng":-1.4606,"lat":48.2492},"population":2098},{"code":"35143","name":"Landujan","department":"35","center":{"lng":-2.0057,"lat":48.2464},"population":930},{"code":"35165","name":"Marcillé-Robert","department":"35","center":{"lng":-1.3552,"lat":47.9594},"population":994},{"code":"35187","name":"Monterfil","department":"35","center":{"lng":-1.99,"lat":48.0623},"population":1352},{"code":"35220","name":"Piré-Chancé","department":"35","center":{"lng":-1.406,"lat":48.0146},"population":3177},{"code":"35242","name":"Rimou","department":"35","center":{"lng":-1.5305,"lat":48.3869},"population":350},{"code":"35264","name":"Saint-Didier","department":"35","center":{"lng":-1.3606,"lat":48.0913},"population":2030},{"code":"35286","name":"Saint-Léger-des-Prés","department":"35","center":{"lng":-1.6568,"lat":48.3881},"population":295},{"code":"35363","name":"Pont-Péan","department":"35","center":{"lng":-1.6975,"lat":48.0114},"population":4289},{"code":"36012","name":"Baraize","department":"36","center":{"lng":1.5719,"lat":46.4857},"population":357},{"code":"36034","name":"Chabris","department":"36","center":{"lng":1.6672,"lat":47.253},"population":2762},{"code":"36056","name":"Cluis","department":"36","center":{"lng":1.743,"lat":46.5372},"population":979},{"code":"36078","name":"Fougerolles","department":"36","center":{"lng":1.8729,"lat":46.572},"population":352},{"code":"36111","name":"Malicornay","department":"36","center":{"lng":1.6462,"lat":46.5708},"population":189},{"code":"36133","name":"Mouhers","department":"36","center":{"lng":1.7788,"lat":46.5647},"population":205},{"code":"36155","name":"Pellevoisin","department":"36","center":{"lng":1.4169,"lat":46.9891},"population":794},{"code":"36177","name":"Sacierges-Saint-Martin","department":"36","center":{"lng":1.3778,"lat":46.4975},"population":308},{"code":"36199","name":"Sainte-Lizaigne","department":"36","center":{"lng":1.9995,"lat":47.0078},"population":1109},{"code":"36210","name":"Sarzay","department":"36","center":{"lng":1.9096,"lat":46.5965},"population":300},{"code":"36232","name":"Vendœuvres","department":"36","center":{"lng":1.3649,"lat":46.7881},"population":1094},{"code":"37002","name":"Ambillou","department":"37","center":{"lng":0.4513,"lat":47.454},"population":1748},{"code":"37024","name":"Benais","department":"37","center":{"lng":0.2222,"lat":47.3183},"population":948},{"code":"37046","name":"Céré-la-Ronde","department":"37","center":{"lng":1.1775,"lat":47.2549},"population":424},{"code":"37068","name":"Chemillé-sur-Dême","department":"37","center":{"lng":0.6712,"lat":47.6623},"population":707},{"code":"37101","name":"Épeigné-sur-Dême","department":"37","center":{"lng":0.6118,"lat":47.6785},"population":159},{"code":"37123","name":"Langeais","department":"37","center":{"lng":0.3632,"lat":47.3477},"population":4370},{"code":"37145","name":"Marcé-sur-Esves","department":"37","center":{"lng":0.6596,"lat":47.0301},"population":251},{"code":"37167","name":"Neuillé-Pont-Pierre","department":"37","center":{"lng":0.5537,"lat":47.5467},"population":2238},{"code":"37189","name":"Preuilly-sur-Claise","department":"37","center":{"lng":0.9304,"lat":46.8504},"population":1027},{"code":"37200","name":"Rivarennes","department":"37","center":{"lng":0.3621,"lat":47.2433},"population":988},{"code":"37222","name":"Saint-Jean-Saint-Germain","department":"37","center":{"lng":1.0597,"lat":47.084},"population":746},{"code":"37244","name":"Sazilly","department":"37","center":{"lng":0.3509,"lat":47.1248},"population":269},{"code":"37266","name":"Veigné","department":"37","center":{"lng":0.7243,"lat":47.286},"population":6734},{"code":"38036","name":"Beauvoir-en-Royans","department":"38","center":{"lng":5.3481,"lat":45.1168},"population":96},{"code":"38058","name":"Brézins","department":"38","center":{"lng":5.3058,"lat":45.3475},"population":2282},{"code":"38113","name":"Clelles","department":"38","center":{"lng":5.6268,"lat":44.8255},"population":576},{"code":"38135","name":"Courtenay","department":"38","center":{"lng":5.3887,"lat":45.7396},"population":1288},{"code":"38157","name":"Estrablin","department":"38","center":{"lng":4.9662,"lat":45.5094},"population":3682},{"code":"38179","name":"Gières","department":"38","center":{"lng":5.7902,"lat":45.1828},"population":7353},{"code":"38212","name":"Livet-et-Gavet","department":"38","center":{"lng":5.9107,"lat":45.0977},"population":1258},{"code":"38256","name":"Montferrat","department":"38","center":{"lng":5.58,"lat":45.4785},"population":1839},{"code":"38278","name":"Notre-Dame-de-l'Osier","department":"38","center":{"lng":5.4112,"lat":45.2384},"population":523},{"code":"38311","name":"Pommier-de-Beaurepaire","department":"38","center":{"lng":5.1134,"lat":45.3882},"population":731},{"code":"38333","name":"Rencurel","department":"38","center":{"lng":5.4752,"lat":45.1178},"population":349},{"code":"38355","name":"Saint-Andéol","department":"38","center":{"lng":5.5232,"lat":44.9563},"population":119},{"code":"38377","name":"Saint-Clair-de-la-Tour","department":"38","center":{"lng":5.4863,"lat":45.5717},"population":3526},{"code":"38399","name":"Saint-Jean-de-Bournay","department":"38","center":{"lng":5.145,"lat":45.4964},"population":4762},{"code":"38410","name":"Saint-Lattier","department":"38","center":{"lng":5.1802,"lat":45.0935},"population":1468},{"code":"38432","name":"Saint-Nicolas-de-Macherin","department":"38","center":{"lng":5.6152,"lat":45.4057},"population":944},{"code":"38454","name":"Saint-Sauveur","department":"38","center":{"lng":5.3457,"lat":45.1433},"population":2108},{"code":"38476","name":"Savas-Mépin","department":"38","center":{"lng":5.0638,"lat":45.5029},"population":879},{"code":"38498","name":"Succieu","department":"38","center":{"lng":5.3416,"lat":45.5285},"population":774},{"code":"38531","name":"Velanne","department":"38","center":{"lng":5.6441,"lat":45.4888},"population":568},{"code":"38553","name":"Villefontaine","department":"38","center":{"lng":5.1549,"lat":45.6161},"population":19018},{"code":"39004","name":"Abergement-lès-Thésy","department":"39","center":{"lng":5.9447,"lat":46.9109},"population":50},{"code":"39026","name":"Augerans","department":"39","center":{"lng":5.5867,"lat":47.0268},"population":186},{"code":"39048","name":"Belmont","department":"39","center":{"lng":5.606,"lat":47.0293},"population":255},{"code":"39103","name":"La Chapelle-sur-Furieuse","department":"39","center":{"lng":5.8605,"lat":46.9846},"population":299},{"code":"39147","name":"Chilly-sur-Salins","department":"39","center":{"lng":5.8553,"lat":46.8722},"population":95},{"code":"39169","name":"Courbouzon","department":"39","center":{"lng":5.5296,"lat":46.6523},"population":584},{"code":"39202","name":"Dournon","department":"39","center":{"lng":5.9704,"lat":46.9329},"population":140},{"code":"39246","name":"Gendrey","department":"39","center":{"lng":5.6847,"lat":47.1988},"population":438},{"code":"39268","name":"Ivrey","department":"39","center":{"lng":5.8959,"lat":46.9954},"population":62},{"code":"39301","name":"Loulle","department":"39","center":{"lng":5.8845,"lat":46.7052},"population":173},{"code":"39323","name":"Menotey","department":"39","center":{"lng":5.5023,"lat":47.1679},"population":301},{"code":"39345","name":"Monnières","department":"39","center":{"lng":5.4581,"lat":47.114},"population":390},{"code":"39367","name":"Morbier","department":"39","center":{"lng":6.0186,"lat":46.5587},"population":2371},{"code":"39389","name":"Ney","department":"39","center":{"lng":5.8825,"lat":46.7322},"population":597},{"code":"39400","name":"Our","department":"39","center":{"lng":5.6489,"lat":47.1077},"population":148},{"code":"39422","name":"Plainoiseau","department":"39","center":{"lng":5.556,"lat":46.7245},"population":509},{"code":"39444","name":"Pretin","department":"39","center":{"lng":5.8366,"lat":46.9292},"population":52},{"code":"39466","name":"Rosay","department":"39","center":{"lng":5.455,"lat":46.5358},"population":119},{"code":"39543","name":"Vannoz","department":"39","center":{"lng":5.911,"lat":46.7758},"population":221},{"code":"39565","name":"Villeneuve-d'Aval","department":"39","center":{"lng":5.7505,"lat":46.9704},"population":96},{"code":"40071","name":"Castelnau-Chalosse","department":"40","center":{"lng":-0.8517,"lat":43.659},"population":595},{"code":"40093","name":"Escalans","department":"40","center":{"lng":0.0374,"lat":44.0023},"population":232},{"code":"40170","name":"Maillères","department":"40","center":{"lng":-0.4432,"lat":44.0217},"population":230},{"code":"40192","name":"Mont-de-Marsan","department":"40","center":{"lng":-0.5009,"lat":43.8931},"population":31455},{"code":"40291","name":"Saubion","department":"40","center":{"lng":-1.3323,"lat":43.673},"population":1806},{"code":"41061","name":"Cormeray","department":"41","center":{"lng":1.4062,"lat":47.4871},"population":1568},{"code":"41083","name":"La Ferté-Beauharnais","department":"41","center":{"lng":1.8548,"lat":47.5393},"population":582},{"code":"41160","name":"Neuvy","department":"41","center":{"lng":1.5871,"lat":47.5669},"population":316},{"code":"41182","name":"Pray","department":"41","center":{"lng":1.11,"lat":47.6866},"population":280},{"code":"41281","name":"Villefrancœur","department":"41","center":{"lng":1.2056,"lat":47.6999},"population":420},{"code":"42051","name":"La Chapelle-Villars","department":"42","center":{"lng":4.7118,"lat":45.4804},"population":533},{"code":"42073","name":"Cottance","department":"42","center":{"lng":4.2927,"lat":45.7998},"population":753},{"code":"42095","name":"Firminy","department":"42","center":{"lng":4.2895,"lat":45.3827},"population":17128},{"code":"42150","name":"Montverdun","department":"42","center":{"lng":4.0785,"lat":45.7088},"population":1287},{"code":"42172","name":"Planfoy","department":"42","center":{"lng":4.4265,"lat":45.3848},"population":1072},{"code":"42194","name":"Sail-les-Bains","department":"42","center":{"lng":3.8414,"lat":46.2376},"population":208},{"code":"42271","name":"Saint-Paul-en-Jarez","department":"42","center":{"lng":4.588,"lat":45.4716},"population":4758},{"code":"42293","name":"Saint-Victor-sur-Rhins","department":"42","center":{"lng":4.277,"lat":46.005},"population":1164},{"code":"43041","name":"Brives-Charensac","department":"43","center":{"lng":3.9222,"lat":45.0437},"population":4242},{"code":"43063","name":"Chassagnes","department":"43","center":{"lng":3.5501,"lat":45.2168},"population":158},{"code":"43085","name":"Desges","department":"43","center":{"lng":3.4429,"lat":45.0224},"population":56},{"code":"43140","name":"Le Monteil","department":"43","center":{"lng":3.9109,"lat":45.0663},"population":677},{"code":"43162","name":"Retournac","department":"43","center":{"lng":4.0224,"lat":45.2223},"population":2971},{"code":"43184","name":"Saint-Ferréol-d'Auroure","department":"43","center":{"lng":4.2597,"lat":45.3594},"population":2457},{"code":"43261","name":"Vézézoux","department":"43","center":{"lng":3.3477,"lat":45.4057},"population":631},{"code":"44031","name":"La Chapelle-Glain","department":"44","center":{"lng":-1.1919,"lat":47.6243},"population":811},{"code":"44053","name":"Drefféac","department":"44","center":{"lng":-2.0611,"lat":47.4676},"population":2288},{"code":"44075","name":"Issé","department":"44","center":{"lng":-1.4537,"lat":47.6219},"population":1825},{"code":"44097","name":"Mesquer","department":"44","center":{"lng":-2.4693,"lat":47.3991},"population":2156},{"code":"44130","name":"Pont-Saint-Martin","department":"44","center":{"lng":-1.5683,"lat":47.1266},"population":6942},{"code":"44152","name":"Sainte-Anne-sur-Brivet","department":"44","center":{"lng":-2.0288,"lat":47.4541},"population":3014},{"code":"44174","name":"Saint-Lumine-de-Coutais","department":"44","center":{"lng":-1.7235,"lat":47.0578},"population":2390},{"code":"44196","name":"Sévérac","department":"44","center":{"lng":-2.0656,"lat":47.5534},"population":1693},{"code":"45021","name":"Barville-en-Gâtinais","department":"45","center":{"lng":2.401,"lat":48.1116},"population":299},{"code":"45043","name":"Bou","department":"45","center":{"lng":2.0528,"lat":47.8695},"population":1019},{"code":"45065","name":"Césarville-Dossainville","department":"45","center":{"lng":2.2866,"lat":48.2633},"population":222},{"code":"45087","name":"Châtillon-sur-Loire","department":"45","center":{"lng":2.7435,"lat":47.5754},"population":3152},{"code":"45120","name":"Dammarie-en-Puisaye","department":"45","center":{"lng":2.8619,"lat":47.632},"population":173},{"code":"45142","name":"Fay-aux-Loges","department":"45","center":{"lng":2.1589,"lat":47.9315},"population":3846},{"code":"45164","name":"Guilly","department":"45","center":{"lng":2.2679,"lat":47.7986},"population":667},{"code":"45186","name":"Lorcy","department":"45","center":{"lng":2.5314,"lat":48.0459},"population":589},{"code":"45241","name":"Ouvrouer-les-Champs","department":"45","center":{"lng":2.1799,"lat":47.8367},"population":539},{"code":"45263","name":"Rouvres-Saint-Jean","department":"45","center":{"lng":2.214,"lat":48.327},"population":299},{"code":"45285","name":"Saint-Jean-de-la-Ruelle","department":"45","center":{"lng":1.872,"lat":47.9101},"population":16608},{"code":"45340","name":"Villemurlin","department":"45","center":{"lng":2.3444,"lat":47.6771},"population":537},{"code":"46011","name":"Autoire","department":"46","center":{"lng":1.8261,"lat":44.8577},"population":376},{"code":"46033","name":"Porte-du-Quercy","department":"46","center":{"lng":1.1354,"lat":44.414},"population":534},{"code":"46055","name":"Capdenac","department":"46","center":{"lng":2.0706,"lat":44.5818},"population":1070},{"code":"46132","name":"Issendolus","department":"46","center":{"lng":1.7793,"lat":44.7373},"population":523},{"code":"46154","name":"Laramière","department":"46","center":{"lng":1.8702,"lat":44.3616},"population":353},{"code":"46176","name":"Livernon","department":"46","center":{"lng":1.8483,"lat":44.6516},"population":720},{"code":"46198","name":"Montbrun","department":"46","center":{"lng":1.9017,"lat":44.5078},"population":111},{"code":"46231","name":"Puy-l'Évêque","department":"46","center":{"lng":1.1387,"lat":44.5137},"population":1870},{"code":"46253","name":"Saint-Chamarand","department":"46","center":{"lng":1.4565,"lat":44.6836},"population":186},{"code":"46297","name":"Salviac","department":"46","center":{"lng":1.2705,"lat":44.6875},"population":1218},{"code":"46330","name":"Vayrac","department":"46","center":{"lng":1.6944,"lat":44.9435},"population":1279},{"code":"47001","name":"Agen","department":"47","center":{"lng":0.6302,"lat":44.201},"population":32193},{"code":"47023","name":"Beaugas","department":"47","center":{"lng":0.6182,"lat":44.5119},"population":329},{"code":"47045","name":"Calignac","department":"47","center":{"lng":0.4184,"lat":44.1395},"population":489},{"code":"47067","name":"Clermont-Soubiran","department":"47","center":{"lng":0.8409,"lat":44.1413},"population":405},{"code":"47089","name":"Esclottes","department":"47","center":{"lng":0.149,"lat":44.7166},"population":163},{"code":"47100","name":"Foulayronnes","department":"47","center":{"lng":0.6426,"lat":44.2562},"population":5480},{"code":"47122","name":"Labretonie","department":"47","center":{"lng":0.3701,"lat":44.4916},"population":169},{"code":"47144","name":"Lavergne","department":"47","center":{"lng":0.4158,"lat":44.5824},"population":559},{"code":"47188","name":"Montignac-de-Lauzun","department":"47","center":{"lng":0.4793,"lat":44.568},"population":286},{"code":"47221","name":"Réaup-Lisse","department":"47","center":{"lng":0.2109,"lat":44.0935},"population":594},{"code":"47265","name":"Saint-Pastour","department":"47","center":{"lng":0.5984,"lat":44.4856},"population":377},{"code":"47287","name":"Saumont","department":"47","center":{"lng":0.4556,"lat":44.1283},"population":242},{"code":"47320","name":"Villefranche-du-Queyran","department":"47","center":{"lng":0.2185,"lat":44.3064},"population":411},{"code":"48013","name":"Badaroux","department":"48","center":{"lng":3.5611,"lat":44.5476},"population":960},{"code":"48079","name":"Lajo","department":"48","center":{"lng":3.4367,"lat":44.8263},"population":117},{"code":"48112","name":"Pierrefiche","department":"48","center":{"lng":3.7343,"lat":44.6829},"population":160},{"code":"48156","name":"Saint-Germain-du-Teil","department":"48","center":{"lng":3.175,"lat":44.4841},"population":860},{"code":"48178","name":"Saint-Privat-de-Vallongue","department":"48","center":{"lng":3.8341,"lat":44.2885},"population":248},{"code":"49003","name":"Tuffalun","department":"49","center":{"lng":-0.3222,"lat":47.2705},"population":1734},{"code":"49102","name":"Cléré-sur-Layon","department":"49","center":{"lng":-0.4363,"lat":47.0829},"population":345},{"code":"49201","name":"La Ménitré","department":"49","center":{"lng":-0.2565,"lat":47.4099},"population":2057},{"code":"49223","name":"Mûrs-Erigné","department":"49","center":{"lng":-0.5529,"lat":47.3948},"population":6172},{"code":"49267","name":"Saint-Barthélemy-d'Anjou","department":"49","center":{"lng":-0.4826,"lat":47.4741},"population":9496},{"code":"49344","name":"Thorigné-d'Anjou","department":"49","center":{"lng":-0.6619,"lat":47.6356},"population":1238},{"code":"50070","name":"Boutteville","department":"50","center":{"lng":-1.2543,"lat":49.3907},"population":59},{"code":"50092","name":"Cambernon","department":"50","center":{"lng":-1.3846,"lat":49.0853},"population":693},{"code":"50290","name":"Marcilly","department":"50","center":{"lng":-1.245,"lat":48.6539},"population":353},{"code":"51060","name":"Bignicourt-sur-Saulx","department":"51","center":{"lng":4.7912,"lat":48.7586},"population":156},{"code":"51082","name":"Braux-Sainte-Cohière","department":"51","center":{"lng":4.8207,"lat":49.0929},"population":94},{"code":"51181","name":"Courcelles-Sapicourt","department":"51","center":{"lng":3.8418,"lat":49.2685},"population":395},{"code":"51280","name":"Gratreuil","department":"51","center":{"lng":4.6939,"lat":49.246},"population":21},{"code":"52050","name":"Biesles","department":"52","center":{"lng":5.2896,"lat":48.1119},"population":1334},{"code":"52072","name":"Brethenay","department":"52","center":{"lng":5.1399,"lat":48.1585},"population":391},{"code":"52094","name":"Vals-des-Tilles","department":"52","center":{"lng":5.0868,"lat":47.6905},"population":182},{"code":"52171","name":"Dommartin-le-Franc","department":"52","center":{"lng":4.9474,"lat":48.4254},"population":243},{"code":"52193","name":"Euffigneix","department":"52","center":{"lng":5.0433,"lat":48.1271},"population":299},{"code":"52292","name":"Longeau-Percey","department":"52","center":{"lng":5.3225,"lat":47.7616},"population":695},{"code":"52391","name":"Planrupt","department":"52","center":{"lng":4.7889,"lat":48.5114},"population":315},{"code":"52490","name":"Thonnance-lès-Joinville","department":"52","center":{"lng":5.1847,"lat":48.4632},"population":703},{"code":"53040","name":"Bourgon","department":"53","center":{"lng":-1.0435,"lat":48.1552},"population":618},{"code":"53062","name":"Château-Gontier-sur-Mayenne","department":"53","center":{"lng":-0.701,"lat":47.821},"population":16539},{"code":"53084","name":"Craon","department":"53","center":{"lng":-0.9396,"lat":47.8431},"population":4415},{"code":"53161","name":"Montsûrs","department":"53","center":{"lng":-0.5575,"lat":48.1636},"population":3192},{"code":"53260","name":"Simplé","department":"53","center":{"lng":-0.8526,"lat":47.8835},"population":386},{"code":"54030","name":"Autrepierre","department":"54","center":{"lng":6.7974,"lat":48.6081},"population":77},{"code":"54052","name":"Battigny","department":"54","center":{"lng":5.984,"lat":48.4428},"population":145},{"code":"54074","name":"Bienville-la-Petite","department":"54","center":{"lng":6.513,"lat":48.6318},"population":37},{"code":"54096","name":"Bréhain-la-Ville","department":"54","center":{"lng":5.8853,"lat":49.4378},"population":451},{"code":"54151","name":"Cutry","department":"54","center":{"lng":5.7383,"lat":49.4812},"population":1042},{"code":"54173","name":"Drouville","department":"54","center":{"lng":6.4123,"lat":48.67},"population":207},{"code":"54195","name":"Flainval","department":"54","center":{"lng":6.3997,"lat":48.6196},"population":161},{"code":"54250","name":"Haraucourt","department":"54","center":{"lng":6.3589,"lat":48.6671},"population":732},{"code":"54272","name":"Jaillon","department":"54","center":{"lng":5.9736,"lat":48.764},"population":470},{"code":"54294","name":"Landremont","department":"54","center":{"lng":6.1506,"lat":48.8586},"population":137},{"code":"54371","name":"Moineville","department":"54","center":{"lng":5.9489,"lat":49.1991},"population":1097},{"code":"54393","name":"Moyen","department":"54","center":{"lng":6.5932,"lat":48.4927},"population":522},{"code":"54470","name":"Saint-Baussant","department":"54","center":{"lng":5.794,"lat":48.894},"population":65},{"code":"54492","name":"Sanzey","department":"54","center":{"lng":5.8224,"lat":48.7632},"population":148},{"code":"54591","name":"Voinémont","department":"54","center":{"lng":6.1767,"lat":48.5178},"population":333},{"code":"55042","name":"Belleray","department":"55","center":{"lng":5.37,"lat":49.13},"population":486},{"code":"55064","name":"Bouquemont","department":"55","center":{"lng":5.4274,"lat":48.9825},"population":118},{"code":"55141","name":"Dagonville","department":"55","center":{"lng":5.3832,"lat":48.7904},"population":86},{"code":"55163","name":"Doncourt-aux-Templiers","department":"55","center":{"lng":5.7206,"lat":49.0601},"population":67},{"code":"55185","name":"Èvres","department":"55","center":{"lng":5.1294,"lat":48.9824},"population":89},{"code":"55262","name":"Juvigny-sur-Loison","department":"55","center":{"lng":5.3358,"lat":49.4617},"population":248},{"code":"55284","name":"Lavincourt","department":"55","center":{"lng":5.1449,"lat":48.657},"population":71},{"code":"55361","name":"Moulainville","department":"55","center":{"lng":5.4792,"lat":49.1587},"population":138},{"code":"55383","name":"Neuvilly-en-Argonne","department":"55","center":{"lng":5.0328,"lat":49.1613},"population":227},{"code":"55460","name":"Saint-Julien-sous-les-Côtes","department":"55","center":{"lng":5.6205,"lat":48.8212},"population":139},{"code":"55482","name":"Senoncourt-les-Maujouy","department":"55","center":{"lng":5.3459,"lat":49.0586},"population":100},{"code":"55581","name":"Willeroncourt","department":"55","center":{"lng":5.3572,"lat":48.7157},"population":107},{"code":"56010","name":"Baud","department":"56","center":{"lng":-3.0287,"lat":47.8693},"population":6246},{"code":"56032","name":"Campénéac","department":"56","center":{"lng":-2.279,"lat":47.9608},"population":1940},{"code":"56054","name":"Erdeven","department":"56","center":{"lng":-3.1568,"lat":47.6358},"population":3987},{"code":"56076","name":"Guern","department":"56","center":{"lng":-3.0947,"lat":48.0383},"population":1379},{"code":"56098","name":"Lanester","department":"56","center":{"lng":-3.326,"lat":47.7686},"population":23188},{"code":"56131","name":"Meslan","department":"56","center":{"lng":-3.4492,"lat":47.9859},"population":1475},{"code":"56153","name":"Péaule","department":"56","center":{"lng":-2.3376,"lat":47.5843},"population":2856},{"code":"56175","name":"Plumergat","department":"56","center":{"lng":-2.9318,"lat":47.7264},"population":4199},{"code":"56197","name":"Val d'Oust","department":"56","center":{"lng":-2.425,"lat":47.8694},"population":2808},{"code":"56230","name":"Saint-Nicolas-du-Tertre","department":"56","center":{"lng":-2.2163,"lat":47.7943},"population":455},{"code":"56252","name":"Le Tour-du-Parc","department":"56","center":{"lng":-2.6529,"lat":47.5334},"population":1259},{"code":"57022","name":"Angevillers","department":"57","center":{"lng":6.0475,"lat":49.3902},"population":1357},{"code":"57044","name":"Azoudange","department":"57","center":{"lng":6.8176,"lat":48.7297},"population":101},{"code":"57066","name":"Berthelming","department":"57","center":{"lng":6.9781,"lat":48.8208},"population":508},{"code":"57088","name":"Bistroff","department":"57","center":{"lng":6.6993,"lat":49.0075},"population":312},{"code":"57121","name":"Burtoncourt","department":"57","center":{"lng":6.4052,"lat":49.2242},"population":226},{"code":"57143","name":"Clouange","department":"57","center":{"lng":6.0856,"lat":49.2636},"population":3591},{"code":"57165","name":"Dalem","department":"57","center":{"lng":6.6152,"lat":49.2405},"population":698},{"code":"57187","name":"Éblange","department":"57","center":{"lng":6.4885,"lat":49.2211},"population":363},{"code":"57220","name":"Flocourt","department":"57","center":{"lng":6.412,"lat":48.9719},"population":129},{"code":"57242","name":"Gandrange","department":"57","center":{"lng":6.1353,"lat":49.2723},"population":3006},{"code":"57264","name":"Guebenhouse","department":"57","center":{"lng":6.9522,"lat":49.0783},"population":415},{"code":"57286","name":"Halstroff","department":"57","center":{"lng":6.4814,"lat":49.3865},"population":296},{"code":"57341","name":"Hunting","department":"57","center":{"lng":6.3283,"lat":49.4137},"population":689},{"code":"57385","name":"Laquenexy","department":"57","center":{"lng":6.3126,"lat":49.0766},"population":1254},{"code":"57440","name":"Manhoué","department":"57","center":{"lng":6.3386,"lat":48.8275},"population":142},{"code":"57462","name":"Metting","department":"57","center":{"lng":7.2041,"lat":48.8135},"population":425},{"code":"57484","name":"Morsbach","department":"57","center":{"lng":6.8675,"lat":49.1657},"population":2657},{"code":"57561","name":"Rahling","department":"57","center":{"lng":7.2409,"lat":48.9965},"population":720},{"code":"57583","name":"Richeval","department":"57","center":{"lng":6.9141,"lat":48.6331},"population":115},{"code":"57660","name":"Stiring-Wendel","department":"57","center":{"lng":6.9321,"lat":49.2016},"population":11048},{"code":"57682","name":"Turquestein-Blancrupt","department":"57","center":{"lng":7.0979,"lat":48.5686},"population":11},{"code":"58012","name":"Arquian","department":"58","center":{"lng":3.0008,"lat":47.5313},"population":550},{"code":"58034","name":"Blismes","department":"58","center":{"lng":3.8227,"lat":47.1296},"population":187},{"code":"58056","name":"Champvoux","department":"58","center":{"lng":3.0718,"lat":47.1459},"population":285},{"code":"58078","name":"Cizely","department":"58","center":{"lng":3.4656,"lat":46.985},"population":52},{"code":"58111","name":"Fâchin","department":"58","center":{"lng":3.9683,"lat":47.0019},"population":105},{"code":"58133","name":"Héry","department":"58","center":{"lng":3.5932,"lat":47.2617},"population":73},{"code":"58155","name":"La Marche","department":"58","center":{"lng":3.0453,"lat":47.148},"population":525},{"code":"58177","name":"Montigny-en-Morvan","department":"58","center":{"lng":3.8603,"lat":47.1422},"population":297},{"code":"58199","name":"Onlay","department":"58","center":{"lng":3.8967,"lat":46.9659},"population":162},{"code":"58210","name":"Planchez","department":"58","center":{"lng":4.0241,"lat":47.1483},"population":308},{"code":"58232","name":"Saint-Benin-d'Azy","department":"58","center":{"lng":3.406,"lat":46.9928},"population":1257},{"code":"58254","name":"Saint-Martin-d'Heuille","department":"58","center":{"lng":3.2326,"lat":47.0494},"population":556},{"code":"58276","name":"Sémelay","department":"58","center":{"lng":3.8595,"lat":46.8628},"population":223},{"code":"58298","name":"Tronsanges","department":"58","center":{"lng":3.0515,"lat":47.1149},"population":398},{"code":"59002","name":"Abscon","department":"59","center":{"lng":3.2993,"lat":50.3293},"population":4160},{"code":"59024","name":"Auberchicourt","department":"59","center":{"lng":3.227,"lat":50.3308},"population":4626},{"code":"59046","name":"Bambecque","department":"59","center":{"lng":2.5612,"lat":50.9089},"population":842},{"code":"59068","name":"Berlaimont","department":"59","center":{"lng":3.7939,"lat":50.2065},"population":3169},{"code":"59101","name":"Bousignies-sur-Roc","department":"59","center":{"lng":4.1855,"lat":50.2646},"population":374},{"code":"59123","name":"Camphin-en-Carembault","department":"59","center":{"lng":2.9899,"lat":50.5091},"population":1725},{"code":"59145","name":"Chemy","department":"59","center":{"lng":2.9956,"lat":50.5316},"population":773},{"code":"59167","name":"Cuvillers","department":"59","center":{"lng":3.2384,"lat":50.2212},"population":187},{"code":"59189","name":"Eecke","department":"59","center":{"lng":2.5948,"lat":50.7817},"population":1215},{"code":"59200","name":"Eringhem","department":"59","center":{"lng":2.3086,"lat":50.8911},"population":469},{"code":"59222","name":"Faumont","department":"59","center":{"lng":3.1335,"lat":50.4503},"population":2255},{"code":"59244","name":"Fontaine-Notre-Dame","department":"59","center":{"lng":3.1728,"lat":50.1662},"population":1759},{"code":"59266","name":"Gondecourt","department":"59","center":{"lng":2.9816,"lat":50.5474},"population":4099},{"code":"59288","name":"Haulchin","department":"59","center":{"lng":3.4218,"lat":50.311},"population":2307},{"code":"59321","name":"Inchy","department":"59","center":{"lng":3.4719,"lat":50.1223},"population":627},{"code":"59343","name":"Lesquin","department":"59","center":{"lng":3.1132,"lat":50.5904},"population":9356},{"code":"59365","name":"Louvroil","department":"59","center":{"lng":3.9517,"lat":50.2597},"population":6334},{"code":"59387","name":"Marquette-en-Ostrevant","department":"59","center":{"lng":3.2744,"lat":50.2933},"population":1953},{"code":"59420","name":"Moustier-en-Fagne","department":"59","center":{"lng":4.1993,"lat":50.0943},"population":61},{"code":"59442","name":"Obrechies","department":"59","center":{"lng":4.0396,"lat":50.2189},"population":273},{"code":"59464","name":"Poix-du-Nord","department":"59","center":{"lng":3.6178,"lat":50.1876},"population":2156},{"code":"59486","name":"Râches","department":"59","center":{"lng":3.1338,"lat":50.4208},"population":2644},{"code":"59541","name":"Saint-Python","department":"59","center":{"lng":3.4767,"lat":50.1909},"population":985},{"code":"59563","name":"Semousies","department":"59","center":{"lng":3.9695,"lat":50.1635},"population":229},{"code":"59585","name":"Templemars","department":"59","center":{"lng":3.059,"lat":50.5705},"population":3630},{"code":"59640","name":"Wargnies-le-Petit","department":"59","center":{"lng":3.683,"lat":50.299},"population":774},{"code":"59662","name":"Winnezeele","department":"59","center":{"lng":2.5676,"lat":50.8495},"population":1280},{"code":"60091","name":"Bouillancy","department":"60","center":{"lng":2.9091,"lat":49.1197},"population":425},{"code":"60190","name":"Cuvergnon","department":"60","center":{"lng":3.0005,"lat":49.1734},"population":315},{"code":"61081","name":"Chailloué","department":"61","center":{"lng":0.2124,"lat":48.6597},"population":892},{"code":"61180","name":"Fresnay-le-Samson","department":"61","center":{"lng":0.2052,"lat":48.8747},"population":108},{"code":"62071","name":"Bailleul-lès-Pernes","department":"62","center":{"lng":2.3801,"lat":50.5094},"population":409},{"code":"62093","name":"Beaulencourt","department":"62","center":{"lng":2.8726,"lat":50.0729},"population":232},{"code":"62170","name":"Bouvigny-Boyeffles","department":"62","center":{"lng":2.6757,"lat":50.4232},"population":2385},{"code":"62192","name":"Cagnicourt","department":"62","center":{"lng":2.9975,"lat":50.2087},"population":422},{"code":"62291","name":"Éleu-dit-Leauwette","department":"62","center":{"lng":2.8123,"lat":50.4188},"population":2815},{"code":"62390","name":"Groffliers","department":"62","center":{"lng":1.6035,"lat":50.3854},"population":1478},{"code":"63061","name":"Bussières-et-Pruns","department":"63","center":{"lng":3.2415,"lat":46.0055},"population":504},{"code":"63083","name":"Chanat-la-Mouteyre","department":"63","center":{"lng":3.0018,"lat":45.8213},"population":949},{"code":"63160","name":"Aulhat-Flat","department":"63","center":{"lng":3.311,"lat":45.5741},"population":938},{"code":"63182","name":"Jumeaux","department":"63","center":{"lng":3.3493,"lat":45.4337},"population":563},{"code":"63281","name":"Pionsat","department":"63","center":{"lng":2.6783,"lat":46.1169},"population":1042},{"code":"63380","name":"Saint-Nectaire","department":"63","center":{"lng":2.9956,"lat":45.5925},"population":796},{"code":"64051","name":"Arraute-Charritte","department":"64","center":{"lng":-1.1168,"lat":43.4155},"population":435},{"code":"64073","name":"Aubin","department":"64","center":{"lng":-0.4223,"lat":43.4363},"population":266},{"code":"64095","name":"Barinque","department":"64","center":{"lng":-0.2678,"lat":43.4035},"population":584},{"code":"64150","name":"Bunus","department":"64","center":{"lng":-1.0604,"lat":43.2073},"population":134},{"code":"64172","name":"Casteide-Candau","department":"64","center":{"lng":-0.557,"lat":43.5242},"population":293},{"code":"64194","name":"Coslédaà-Lube-Boast","department":"64","center":{"lng":-0.2308,"lat":43.4496},"population":376},{"code":"64271","name":"Iholdy","department":"64","center":{"lng":-1.1757,"lat":43.2743},"population":540},{"code":"64293","name":"Labatut-Figuières","department":"64","center":{"lng":-0.0145,"lat":43.416},"population":170},{"code":"64370","name":"Maucor","department":"64","center":{"lng":-0.289,"lat":43.3548},"population":567},{"code":"64392","name":"Moncla","department":"64","center":{"lng":-0.2251,"lat":43.5817},"population":85},{"code":"64491","name":"Saint-Médard","department":"64","center":{"lng":-0.5927,"lat":43.5353},"population":198},{"code":"65041","name":"Asque","department":"65","center":{"lng":0.2498,"lat":43.0277},"population":120},{"code":"65063","name":"Barbazan-Dessus","department":"65","center":{"lng":0.1437,"lat":43.1642},"population":164},{"code":"65085","name":"Bernadets-Debat","department":"65","center":{"lng":0.3195,"lat":43.3527},"population":99},{"code":"65140","name":"Cazaux-Debat","department":"65","center":{"lng":0.3819,"lat":42.8871},"population":33},{"code":"65162","name":"Esconnets","department":"65","center":{"lng":0.2326,"lat":43.0736},"population":34},{"code":"65184","name":"Galez","department":"65","center":{"lng":0.4081,"lat":43.1858},"population":176},{"code":"65261","name":"Laran","department":"65","center":{"lng":0.4755,"lat":43.233},"population":46},{"code":"65283","name":"Loudervielle","department":"65","center":{"lng":0.4381,"lat":42.8041},"population":49},{"code":"65360","name":"Peyrouse","department":"65","center":{"lng":-0.1145,"lat":43.1102},"population":274},{"code":"65382","name":"Sacoué","department":"65","center":{"lng":0.5308,"lat":42.985},"population":84},{"code":"65481","name":"Barèges","department":"65","center":{"lng":0.1106,"lat":42.8681},"population":136},{"code":"66053","name":"Collioure","department":"66","center":{"lng":3.0744,"lat":42.5087},"population":2637},{"code":"66075","name":"Eyne","department":"66","center":{"lng":2.111,"lat":42.4544},"population":149},{"code":"66097","name":"Lesquerde","department":"66","center":{"lng":2.5381,"lat":42.7927},"population":142},{"code":"66130","name":"Osséja","department":"66","center":{"lng":2.0006,"lat":42.3923},"population":1376},{"code":"66152","name":"Prugnanes","department":"66","center":{"lng":2.435,"lat":42.8254},"population":97},{"code":"66174","name":"Saint-Féliu-d'Avall","department":"66","center":{"lng":2.7498,"lat":42.6733},"population":2934},{"code":"66196","name":"Sorède","department":"66","center":{"lng":2.988,"lat":42.5083},"population":3500},{"code":"67021","name":"Barr","department":"67","center":{"lng":7.3988,"lat":48.4136},"population":7086},{"code":"67043","name":"Bischheim","department":"67","center":{"lng":7.7617,"lat":48.6207},"population":18289},{"code":"67065","name":"Breuschwickersheim","department":"67","center":{"lng":7.5988,"lat":48.5779},"population":1345},{"code":"67087","name":"Dauendorf","department":"67","center":{"lng":7.6738,"lat":48.8303},"population":1433},{"code":"67120","name":"Eichhoffen","department":"67","center":{"lng":7.4396,"lat":48.3777},"population":501},{"code":"67142","name":"Fort-Louis","department":"67","center":{"lng":8.0488,"lat":48.797},"population":282},{"code":"67164","name":"Goxwiller","department":"67","center":{"lng":7.4828,"lat":48.4312},"population":835},{"code":"67186","name":"Hegeney","department":"67","center":{"lng":7.7394,"lat":48.8894},"population":435},{"code":"67241","name":"Kirrberg","department":"67","center":{"lng":7.067,"lat":48.8305},"population":156},{"code":"67263","name":"Lembach","department":"67","center":{"lng":7.7627,"lat":49.0127},"population":1510},{"code":"67285","name":"Matzenheim","department":"67","center":{"lng":7.6389,"lat":48.3856},"population":1504},{"code":"67340","name":"Oberbronn","department":"67","center":{"lng":7.5941,"lat":48.9374},"population":1416},{"code":"67362","name":"Orschwiller","department":"67","center":{"lng":7.3627,"lat":48.2468},"population":627},{"code":"67384","name":"Ranrupt","department":"67","center":{"lng":7.1976,"lat":48.3729},"population":308},{"code":"67461","name":"Schwobsheim","department":"67","center":{"lng":7.5745,"lat":48.236},"population":325},{"code":"67483","name":"Struth","department":"67","center":{"lng":7.2683,"lat":48.896},"population":218},{"code":"68011","name":"Aspach-le-Bas","department":"68","center":{"lng":7.1513,"lat":47.7676},"population":1273},{"code":"68033","name":"Bettendorf","department":"68","center":{"lng":7.2838,"lat":47.5793},"population":460},{"code":"68055","name":"Bruebach","department":"68","center":{"lng":7.3583,"lat":47.7027},"population":1050},{"code":"68077","name":"Eglingen","department":"68","center":{"lng":7.1817,"lat":47.6577},"population":365},{"code":"68099","name":"Frœningen","department":"68","center":{"lng":7.2589,"lat":47.6972},"population":865},{"code":"68110","name":"Grussenheim","department":"68","center":{"lng":7.4921,"lat":48.1465},"population":795},{"code":"68132","name":"Helfrantzkirch","department":"68","center":{"lng":7.4113,"lat":47.6041},"population":733},{"code":"68154","name":"Illzach","department":"68","center":{"lng":7.3622,"lat":47.776},"population":15115},{"code":"68176","name":"Largitzen","department":"68","center":{"lng":7.1933,"lat":47.5623},"population":333},{"code":"68198","name":"Magstatt-le-Haut","department":"68","center":{"lng":7.3946,"lat":47.6262},"population":307},{"code":"68231","name":"Neuf-Brisach","department":"68","center":{"lng":7.5277,"lat":48.0176},"population":1944},{"code":"68253","name":"Ottmarsheim","department":"68","center":{"lng":7.493,"lat":47.7856},"population":2025},{"code":"68275","name":"Rimbach-près-Masevaux","department":"68","center":{"lng":6.9433,"lat":47.8339},"population":433},{"code":"68297","name":"Saint-Louis","department":"68","center":{"lng":7.543,"lat":47.5986},"population":22530},{"code":"68330","name":"Strueth","department":"68","center":{"lng":7.1147,"lat":47.5732},"population":354},{"code":"68352","name":"Volgelsheim","department":"68","center":{"lng":7.5443,"lat":48.0252},"population":2714},{"code":"68374","name":"Wintzenheim","department":"68","center":{"lng":7.2755,"lat":48.0626},"population":8045},{"code":"69001","name":"Affoux","department":"69","center":{"lng":4.4116,"lat":45.8448},"population":397},{"code":"69023","name":"Blacé","department":"69","center":{"lng":4.6308,"lat":46.0364},"population":1692},{"code":"69045","name":"Charentay","department":"69","center":{"lng":4.6926,"lat":46.0814},"population":1269},{"code":"69067","name":"Courzieu","department":"69","center":{"lng":4.5695,"lat":45.7451},"population":1178},{"code":"69089","name":"Francheville","department":"69","center":{"lng":4.7537,"lat":45.7386},"population":15664},{"code":"69100","name":"Irigny","department":"69","center":{"lng":4.8143,"lat":45.6747},"population":8909},{"code":"69122","name":"Lucenay","department":"69","center":{"lng":4.7095,"lat":45.9138},"population":2068},{"code":"69166","name":"Riverie","department":"69","center":{"lng":4.5883,"lat":45.5985},"population":307},{"code":"69188","name":"Saint-Clément-sur-Valsonne","department":"69","center":{"lng":4.4585,"lat":45.926},"population":904},{"code":"69243","name":"Tarare","department":"69","center":{"lng":4.4302,"lat":45.9071},"population":10881},{"code":"69265","name":"Ville-sur-Jarnioux","department":"69","center":{"lng":4.5942,"lat":45.9693},"population":820},{"code":"69287","name":"Saint-Bonnet-de-Mure","department":"69","center":{"lng":5.0241,"lat":45.6975},"population":6988},{"code":"70090","name":"Boursières","department":"70","center":{"lng":6.0361,"lat":47.6164},"population":59},{"code":"71080","name":"Champagny-sous-Uxelles","department":"71","center":{"lng":4.7499,"lat":46.5795},"population":84},{"code":"72070","name":"Chassillé","department":"72","center":{"lng":-0.1312,"lat":48.0204},"population":250},{"code":"72191","name":"Mayet","department":"72","center":{"lng":0.2809,"lat":47.7618},"population":3186},{"code":"72290","name":"Saint-Jean-d'Assé","department":"72","center":{"lng":0.1245,"lat":48.1545},"population":1810},{"code":"73082","name":"La Chavanne","department":"73","center":{"lng":6.0646,"lat":45.4934},"population":725},{"code":"73181","name":"Moûtiers","department":"73","center":{"lng":6.538,"lat":45.4866},"population":3482},{"code":"73280","name":"Saint-Sorlin-d'Arves","department":"73","center":{"lng":6.2005,"lat":45.1994},"population":347},{"code":"74050","name":"Burdignin","department":"74","center":{"lng":6.4265,"lat":46.2335},"population":688},{"code":"74072","name":"Chevaline","department":"74","center":{"lng":6.2069,"lat":45.7313},"population":182},{"code":"74094","name":"Cranves-Sales","department":"74","center":{"lng":6.3145,"lat":46.1979},"population":7476},{"code":"74171","name":"Massongy","department":"74","center":{"lng":6.3213,"lat":46.3238},"population":1693},{"code":"74193","name":"La Muraz","department":"74","center":{"lng":6.1967,"lat":46.119},"population":1055},{"code":"74292","name":"Vaulx","department":"74","center":{"lng":5.9983,"lat":45.9258},"population":1080},{"code":"76030","name":"Aubermesnil-Beaumais","department":"76","center":{"lng":1.1208,"lat":49.8493},"population":524},{"code":"76052","name":"Bailleul-Neuville","department":"76","center":{"lng":1.4282,"lat":49.8082},"population":221},{"code":"76074","name":"La Bellière","department":"76","center":{"lng":1.6014,"lat":49.6062},"population":50},{"code":"76096","name":"Biville-la-Baignarde","department":"76","center":{"lng":1.047,"lat":49.7223},"population":658},{"code":"76151","name":"Cailleville","department":"76","center":{"lng":0.7358,"lat":49.8368},"population":247},{"code":"76173","name":"La Chaussée","department":"76","center":{"lng":1.121,"lat":49.8196},"population":553},{"code":"76195","name":"Criquetot-le-Mauconduit","department":"76","center":{"lng":0.5623,"lat":49.7901},"population":195},{"code":"76250","name":"Étainhus","department":"76","center":{"lng":0.3062,"lat":49.5665},"population":1209},{"code":"76272","name":"Fontaine-le-Dun","department":"76","center":{"lng":0.8467,"lat":49.8126},"population":876},{"code":"76294","name":"La Gaillarde","department":"76","center":{"lng":0.869,"lat":49.8392},"population":377},{"code":"76371","name":"Les Ifs","department":"76","center":{"lng":1.3984,"lat":49.8878},"population":72},{"code":"76393","name":"Longmesnil","department":"76","center":{"lng":1.6133,"lat":49.6218},"population":46},{"code":"76470","name":"Normanville","department":"76","center":{"lng":0.5888,"lat":49.6934},"population":653},{"code":"76492","name":"Ouville-la-Rivière","department":"76","center":{"lng":0.982,"lat":49.8737},"population":461},{"code":"76591","name":"Saint-Jacques-sur-Darnétal","department":"76","center":{"lng":1.207,"lat":49.4485},"population":3134},{"code":"76690","name":"Thil-Manneville","department":"76","center":{"lng":0.9959,"lat":49.8394},"population":659},{"code":"77020","name":"Bannost-Villegagnon","department":"77","center":{"lng":3.1952,"lat":48.6762},"population":658},{"code":"77042","name":"Boissy-le-Châtel","department":"77","center":{"lng":3.1379,"lat":48.8247},"population":3313},{"code":"77086","name":"La Chapelle-Gauthier","department":"77","center":{"lng":2.8571,"lat":48.5316},"population":1398},{"code":"77141","name":"Coutevroult","department":"77","center":{"lng":2.8448,"lat":48.8525},"population":1191},{"code":"77163","name":"Douy-la-Ramée","department":"77","center":{"lng":2.8827,"lat":49.0616},"population":388},{"code":"77185","name":"Fleury-en-Bière","department":"77","center":{"lng":2.5401,"lat":48.4473},"population":683},{"code":"77240","name":"Jouy-sur-Morin","department":"77","center":{"lng":3.2736,"lat":48.795},"population":2221},{"code":"77262","name":"Louan-Villegruis-Fontaine","department":"77","center":{"lng":3.4984,"lat":48.6101},"population":492},{"code":"77284","name":"Meaux","department":"77","center":{"lng":2.9035,"lat":48.9573},"population":56659},{"code":"77361","name":"Pierre-Levée","department":"77","center":{"lng":3.0346,"lat":48.8952},"population":474},{"code":"77383","name":"Rampillon","department":"77","center":{"lng":3.0741,"lat":48.5399},"population":833},{"code":"77460","name":"Tancrou","department":"77","center":{"lng":3.0808,"lat":49.0039},"population":330},{"code":"77482","name":"Varennes-sur-Seine","department":"77","center":{"lng":2.9317,"lat":48.3695},"population":3724},{"code":"78010","name":"Les Alluets-le-Roi","department":"78","center":{"lng":1.913,"lat":48.914},"population":1332},{"code":"78076","name":"Boissets","department":"78","center":{"lng":1.5859,"lat":48.8578},"population":291},{"code":"78230","name":"La Falaise","department":"78","center":{"lng":1.8246,"lat":48.9385},"population":616},{"code":"78296","name":"Guitrancourt","department":"78","center":{"lng":1.7775,"lat":49.01},"population":642},{"code":"78472","name":"Orsonville","department":"78","center":{"lng":1.8227,"lat":48.4778},"population":325},{"code":"78571","name":"Saint-Nom-la-Bretèche","department":"78","center":{"lng":2.0168,"lat":48.8621},"population":4877},{"code":"79022","name":"Availles-Thouarsais","department":"79","center":{"lng":-0.1378,"lat":46.8559},"population":184},{"code":"79066","name":"Champdeniers","department":"79","center":{"lng":-0.3818,"lat":46.4775},"population":1791},{"code":"79088","name":"Chiché","department":"79","center":{"lng":-0.3517,"lat":46.792},"population":1689},{"code":"79121","name":"Fomperron","department":"79","center":{"lng":-0.1157,"lat":46.4703},"population":388},{"code":"79165","name":"Maisontiers","department":"79","center":{"lng":-0.2675,"lat":46.7727},"population":130},{"code":"79220","name":"Prin-Deyrançon","department":"79","center":{"lng":-0.6498,"lat":46.2168},"population":597},{"code":"79242","name":"Voulmentin","department":"79","center":{"lng":-0.5227,"lat":46.942},"population":1131},{"code":"79286","name":"Saint-Paul-en-Gâtine","department":"79","center":{"lng":-0.6203,"lat":46.6403},"population":496},{"code":"79341","name":"Vautebis","department":"79","center":{"lng":-0.1501,"lat":46.5321},"population":127},{"code":"82091","name":"Lamothe-Cumont","department":"82","center":{"lng":0.915,"lat":43.8818},"population":126},{"code":"82190","name":"Verdun-sur-Garonne","department":"82","center":{"lng":1.2169,"lat":43.841},"population":4914},{"code":"83081","name":"Montauroux","department":"83","center":{"lng":6.7993,"lat":43.5936},"population":6787},{"code":"84071","name":"Maubec","department":"84","center":{"lng":5.1357,"lat":43.8384},"population":1915},{"code":"84093","name":"Puget","department":"84","center":{"lng":5.2572,"lat":43.7699},"population":881},{"code":"85061","name":"Château-Guibert","department":"85","center":{"lng":-1.2638,"lat":46.575},"population":1550},{"code":"85083","name":"L'Épine","department":"85","center":{"lng":-2.2616,"lat":46.9799},"population":1643},{"code":"85160","name":"Nesmy","department":"85","center":{"lng":-1.4107,"lat":46.5904},"population":3056},{"code":"85182","name":"Pouzauges","department":"85","center":{"lng":-0.8228,"lat":46.7767},"population":5641},{"code":"85281","name":"Sérigné","department":"85","center":{"lng":-0.8497,"lat":46.5077},"population":1029},{"code":"86051","name":"Champagné-le-Sec","department":"86","center":{"lng":0.1895,"lat":46.1903},"population":213},{"code":"86073","name":"Cherves","department":"86","center":{"lng":0.0245,"lat":46.6992},"population":516},{"code":"86095","name":"Dissay","department":"86","center":{"lng":0.4452,"lat":46.698},"population":3143},{"code":"86150","name":"Massognes","department":"86","center":{"lng":0.0592,"lat":46.7495},"population":271},{"code":"86172","name":"Mouterre-sur-Blourde","department":"86","center":{"lng":0.7656,"lat":46.2163},"population":167},{"code":"86194","name":"Poitiers","department":"86","center":{"lng":0.3715,"lat":46.5846},"population":89472},{"code":"86271","name":"Thurageau","department":"86","center":{"lng":0.2799,"lat":46.7815},"population":732},{"code":"86293","name":"Vivonne","department":"86","center":{"lng":0.2499,"lat":46.4193},"population":4505},{"code":"87041","name":"Châteauponsac","department":"87","center":{"lng":1.2842,"lat":46.1313},"population":2028},{"code":"87063","name":"Eyjeaux","department":"87","center":{"lng":1.3774,"lat":45.7753},"population":1335},{"code":"87085","name":"Limoges","department":"87","center":{"lng":1.226,"lat":45.8567},"population":129754},{"code":"87140","name":"Saint-Brice-sur-Vienne","department":"87","center":{"lng":0.9636,"lat":45.909},"population":1651},{"code":"87162","name":"Sainte-Marie-de-Vaux","department":"87","center":{"lng":1.0413,"lat":45.8613},"population":206},{"code":"88031","name":"Balléville","department":"88","center":{"lng":5.8467,"lat":48.3363},"population":100},{"code":"88053","name":"Belval","department":"88","center":{"lng":7.0697,"lat":48.4122},"population":153},{"code":"88075","name":"La Bresse","department":"88","center":{"lng":6.9202,"lat":48.0211},"population":3947},{"code":"88097","name":"Chauffecourt","department":"88","center":{"lng":6.1557,"lat":48.3335},"population":41},{"code":"88130","name":"Destord","department":"88","center":{"lng":6.6209,"lat":48.2735},"population":238},{"code":"88152","name":"Dompierre","department":"88","center":{"lng":6.5663,"lat":48.2485},"population":240},{"code":"88174","name":"Fomerey","department":"88","center":{"lng":6.343,"lat":48.218},"population":141},{"code":"88196","name":"Gérardmer","department":"88","center":{"lng":6.8531,"lat":48.0658},"population":7685},{"code":"88251","name":"Jeanménil","department":"88","center":{"lng":6.7228,"lat":48.3295},"population":1108},{"code":"88273","name":"Longchamp","department":"88","center":{"lng":6.5271,"lat":48.2166},"population":460},{"code":"88295","name":"Mazirot","department":"88","center":{"lng":6.1599,"lat":48.322},"population":237},{"code":"88350","name":"Pleuvezain","department":"88","center":{"lng":5.9153,"lat":48.3772},"population":72},{"code":"88372","name":"Raon-l'Étape","department":"88","center":{"lng":6.8679,"lat":48.4039},"population":6011},{"code":"88394","name":"Romain-aux-Bois","department":"88","center":{"lng":5.7145,"lat":48.077},"population":47},{"code":"88471","name":"Les Thons","department":"88","center":{"lng":5.8749,"lat":47.9867},"population":97},{"code":"88493","name":"Varmonzey","department":"88","center":{"lng":6.2773,"lat":48.324},"population":24},{"code":"89021","name":"Asquins","department":"89","center":{"lng":3.7436,"lat":47.491},"population":297},{"code":"89043","name":"Blacy","department":"89","center":{"lng":4.0401,"lat":47.5814},"population":99},{"code":"89065","name":"Cérilly","department":"89","center":{"lng":3.6223,"lat":48.1777},"population":50},{"code":"89087","name":"Chassignelles","department":"89","center":{"lng":4.1967,"lat":47.7735},"population":300},{"code":"89120","name":"Coulours","department":"89","center":{"lng":3.5956,"lat":48.1619},"population":140},{"code":"89142","name":"Dixmont","department":"89","center":{"lng":3.4215,"lat":48.0773},"population":898},{"code":"89164","name":"Festigny","department":"89","center":{"lng":3.5333,"lat":47.5614},"population":92},{"code":"89186","name":"Germigny","department":"89","center":{"lng":3.7937,"lat":47.9958},"population":531},{"code":"89263","name":"Monéteau","department":"89","center":{"lng":3.5916,"lat":47.8483},"population":4113},{"code":"89285","name":"Pailly","department":"89","center":{"lng":3.3379,"lat":48.3461},"population":291},