[{"code":"01090","name":"Châtenay","department":"01","center":{"lng":5.2085,"lat":46.0276},"population":358},{"code":"02080","name":"Besny-et-Loizy","department":"02","center":{"lng":3.5778,"lat":49.5914},"population":314},{"code":"03070","name":"Chavenon","department":"03","center":{"lng":2.9539,"lat":46.4218},"population":139},{"code":"03092","name":"Cressanges","department":"03","center":{"lng":3.1666,"lat":46.4493},"population":637},{"code":"03191","name":"Murat","department":"03","center":{"lng":2.8993,"lat":46.414},"population":267},{"code":"03290","name":"Trévol","department":"03","center":{"lng":3.3144,"lat":46.6363},"population":1639},{"code":"04181","name":"Saint-Jeannet","department":"04","center":{"lng":6.1119,"lat":43.9778},"population":48},{"code":"05050","name":"Espinasses","department":"05","center":{"lng":6.2371,"lat":44.4902},"population":792},{"code":"05072","name":"Laye","department":"05","center":{"lng":6.0692,"lat":44.6445},"population":242},{"code":"05094","name":"Nossage-et-Bénévent","department":"05","center":{"lng":5.7554,"lat":44.3103},"population":11},{"code":"05171","name":"Théus","department":"05","center":{"lng":6.1951,"lat":44.4863},"population":230},{"code":"06040","name":"Châteauneuf-d'Entraunes","department":"06","center":{"lng":6.8405,"lat":44.1584},"population":63},{"code":"06062","name":"Fontan","department":"06","center":{"lng":7.5527,"lat":44.0213},"population":309},{"code":"06084","name":"Mouans-Sartoux","department":"06","center":{"lng":6.9677,"lat":43.6192},"population":10847},{"code":"06161","name":"Villeneuve-Loubet","department":"06","center":{"lng":7.0984,"lat":43.647},"population":16729},{"code":"07030","name":"Beauvène","department":"07","center":{"lng":4.5156,"lat":44.8669},"population":202},{"code":"07052","name":"Champis","department":"07","center":{"lng":4.7549,"lat":44.9566},"population":659},{"code":"07074","name":"Creysseilles","department":"07","center":{"lng":4.5329,"lat":44.7645},"population":156},{"code":"07096","name":"Gluiras","department":"07","center":{"lng":4.522,"lat":44.8456},"population":368},{"code":"07151","name":"Mars","department":"07","center":{"lng":4.3299,"lat":45.0087},"population":246},{"code":"07173","name":"Péreyres","department":"07","center":{"lng":4.259,"lat":44.7803},"population":49},{"code":"07195","name":"La Rochette","department":"07","center":{"lng":4.2296,"lat":44.9234},"population":63},{"code":"07250","name":"Saint-Jeure-d'Ay","department":"07","center":{"lng":4.7123,"lat":45.1453},"population":497},{"code":"07272","name":"Saint-Maurice-d'Ardèche","department":"07","center":{"lng":4.4015,"lat":44.5198},"population":373},{"code":"07294","name":"Saint-Sauveur-de-Cruzières","department":"07","center":{"lng":4.2535,"lat":44.295},"population":566},{"code":"08020","name":"Les Petites-Armoises","department":"08","center":{"lng":4.8292,"lat":49.5004},"population":59},{"code":"08064","name":"Biermes","department":"08","center":{"lng":4.3815,"lat":49.4769},"population":314},{"code":"08086","name":"Briquenay","department":"08","center":{"lng":4.8699,"lat":49.4029},"population":89},{"code":"08141","name":"Dommery","department":"08","center":{"lng":4.4818,"lat":49.681},"population":187},{"code":"08163","name":"Faissault","department":"08","center":{"lng":4.5054,"lat":49.6107},"population":257},{"code":"08185","name":"Fumay","department":"08","center":{"lng":4.6612,"lat":49.9705},"population":3118},{"code":"08240","name":"Justine-Herbigny","department":"08","center":{"lng":4.3272,"lat":49.6034},"population":164},{"code":"08262","name":"Lucquy","department":"08","center":{"lng":4.4759,"lat":49.5382},"population":579},{"code":"08284","name":"Les Mazures","department":"08","center":{"lng":4.6372,"lat":49.8959},"population":856},{"code":"08361","name":"Renwez","department":"08","center":{"lng":4.606,"lat":49.8469},"population":1637},{"code":"08383","name":"Saint-Juvin","department":"08","center":{"lng":4.9457,"lat":49.3392},"population":100},{"code":"08460","name":"Tremblois-lès-Rocroi","department":"08","center":{"lng":4.4994,"lat":49.8438},"population":156},{"code":"08482","name":"Villers-sur-le-Mont","department":"08","center":{"lng":4.6767,"lat":49.6646},"population":102},{"code":"09032","name":"Ax-les-Thermes","department":"09","center":{"lng":1.8192,"lat":42.6841},"population":1277},{"code":"09054","name":"Betchat","department":"09","center":{"lng":1.0312,"lat":43.086},"population":356},{"code":"09076","name":"Canté","department":"09","center":{"lng":1.5248,"lat":43.2514},"population":212},{"code":"09098","name":"Contrazy","department":"09","center":{"lng":1.2092,"lat":43.057},"population":71},{"code":"09131","name":"Garanou","department":"09","center":{"lng":1.7463,"lat":42.762},"population":146},{"code":"09153","name":"Lapenne","department":"09","center":{"lng":1.7751,"lat":43.1433},"population":120},{"code":"09175","name":"Ludiès","department":"09","center":{"lng":1.714,"lat":43.1204},"population":99},{"code":"09197","name":"Montaillou","department":"09","center":{"lng":1.905,"lat":42.7834},"population":17},{"code":"09230","name":"Le Pla","department":"09","center":{"lng":2.055,"lat":42.6883},"population":61},{"code":"09252","name":"Rouze","department":"09","center":{"lng":2.0656,"lat":42.7396},"population":85},{"code":"09274","name":"Saint-Quentin-la-Tour","department":"09","center":{"lng":1.9077,"lat":43.0273},"population":320},{"code":"09296","name":"Aulos-Sinsat","department":"09","center":{"lng":1.6608,"lat":42.7985},"population":157},{"code":"13091","name":"Saint-Cannat","department":"13","center":{"lng":5.3108,"lat":43.6155},"population":5877},{"code":"14180","name":"Cordey","department":"14","center":{"lng":-0.2231,"lat":48.8528},"population":153},{"code":"15093","name":"Lapeyrugue","department":"15","center":{"lng":2.5339,"lat":44.7294},"population":94},{"code":"15170","name":"Saint-Amandin","department":"15","center":{"lng":2.7139,"lat":45.3302},"population":227},{"code":"15192","name":"Saint-Jacques-des-Blats","department":"15","center":{"lng":2.7185,"lat":45.0536},"population":292},{"code":"16061","name":"Brie","department":"16","center":{"lng":0.2623,"lat":45.7329},"population":4157},{"code":"16083","name":"Charmé","department":"16","center":{"lng":0.1205,"lat":45.9508},"population":340},{"code":"16160","name":"Guimps","department":"16","center":{"lng":-0.2568,"lat":45.468},"population":495},{"code":"16182","name":"Lesterps","department":"16","center":{"lng":0.7915,"lat":46.0132},"population":440},{"code":"16281","name":"La Rochefoucauld-en-Angoumois","department":"16","center":{"lng":0.3583,"lat":45.736},"population":4020},{"code":"16380","name":"Le Tâtre","department":"16","center":{"lng":-0.2022,"lat":45.3986},"population":427},{"code":"17051","name":"Le Bois-Plage-en-Ré","department":"17","center":{"lng":-1.3782,"lat":46.1811},"population":2177},{"code":"17073","name":"Bussac-sur-Charente","department":"17","center":{"lng":-0.6259,"lat":45.7906},"population":1313},{"code":"17095","name":"Chatenet","department":"17","center":{"lng":-0.2874,"lat":45.2995},"population":217},{"code":"17150","name":"Les Églises-d'Argenteuil","department":"17","center":{"lng":-0.4251,"lat":45.9752},"population":533},{"code":"17172","name":"Gémozac","department":"17","center":{"lng":-0.6901,"lat":45.5616},"population":3033},{"code":"17194","name":"La Jarrie","department":"17","center":{"lng":-1.0107,"lat":46.1221},"population":3447},{"code":"17271","name":"Paillé","department":"17","center":{"lng":-0.3874,"lat":45.9842},"population":327},{"code":"17293","name":"Puyravault","department":"17","center":{"lng":-0.8181,"lat":46.1387},"population":723},{"code":"18041","name":"La Celette","department":"18","center":{"lng":2.5272,"lat":46.6363},"population":204},{"code":"18063","name":"Chavannes","department":"18","center":{"lng":2.3995,"lat":46.865},"population":153},{"code":"18085","name":"Dampierre-en-Graçay","department":"18","center":{"lng":1.9429,"lat":47.182},"population":248},{"code":"18140","name":"Massay","department":"18","center":{"lng":1.9866,"lat":47.1564},"population":1347},{"code":"18162","name":"Neuilly-en-Sancerre","department":"18","center":{"lng":2.6571,"lat":47.3086},"population":246},{"code":"18184","name":"Précy","department":"18","center":{"lng":2.9353,"lat":47.0927},"population":354},{"code":"18261","name":"Thaumiers","department":"18","center":{"lng":2.6625,"lat":46.8185},"population":392},{"code":"18283","name":"Villecelin","department":"18","center":{"lng":2.1992,"lat":46.8251},"population":78},{"code":"19031","name":"Brive-la-Gaillarde","department":"19","center":{"lng":1.5144,"lat":45.145},"population":46769},{"code":"19053","name":"Chaveroche","department":"19","center":{"lng":2.254,"lat":45.564},"population":272},{"code":"19075","name":"Espagnac","department":"19","center":{"lng":1.8919,"lat":45.2424},"population":381},{"code":"19097","name":"Lafage-sur-Sombre","department":"19","center":{"lng":2.0669,"lat":45.2913},"population":135},{"code":"19130","name":"Maussac","department":"19","center":{"lng":2.1245,"lat":45.4716},"population":446},{"code":"19152","name":"Nonards","department":"19","center":{"lng":1.813,"lat":45.0211},"population":478},{"code":"19174","name":"La Roche-Canillac","department":"19","center":{"lng":1.9636,"lat":45.1977},"population":127},{"code":"19196","name":"Saint-Cyr-la-Roche","department":"19","center":{"lng":1.384,"lat":45.2783},"population":458},{"code":"19251","name":"Sarran","department":"19","center":{"lng":1.9326,"lat":45.4145},"population":274},{"code":"19273","name":"Turenne","department":"19","center":{"lng":1.567,"lat":45.0695},"population":803},{"code":"23090","name":"Gentioux-Pigerolles","department":"23","center":{"lng":2.0192,"lat":45.7851},"population":371},{"code":"24080","name":"Capdrot","department":"24","center":{"lng":0.9427,"lat":44.6802},"population":461},{"code":"25070","name":"Bolandoz","department":"25","center":{"lng":6.1141,"lat":47.006},"population":379},{"code":"25092","name":"La Bretenière","department":"25","center":{"lng":6.2756,"lat":47.3792},"population":70},{"code":"25191","name":"Dampierre-sur-le-Doubs","department":"25","center":{"lng":6.7329,"lat":47.4644},"population":452},{"code":"25290","name":"La Grange","department":"25","center":{"lng":6.6711,"lat":47.285},"population":97},{"code":"26060","name":"Bouvières","department":"26","center":{"lng":5.2217,"lat":44.52},"population":149},{"code":"26082","name":"Châteauneuf-de-Bordette","department":"26","center":{"lng":5.1653,"lat":44.3368},"population":101},{"code":"26181","name":"Mévouillon","department":"26","center":{"lng":5.484,"lat":44.2334},"population":239},{"code":"27050","name":"Beaumontel","department":"27","center":{"lng":0.7817,"lat":49.0955},"population":634},{"code":"27072","name":"Bois-Jérôme-Saint-Ouen","department":"27","center":{"lng":1.5454,"lat":49.1043},"population":744},{"code":"27094","name":"Bosquentin","department":"27","center":{"lng":1.5884,"lat":49.4104},"population":128},{"code":"27171","name":"Le Cormier","department":"27","center":{"lng":1.2988,"lat":48.985},"population":361},{"code":"27193","name":"Croth","department":"27","center":{"lng":1.3669,"lat":48.8509},"population":1419},{"code":"27391","name":"Marcilly-sur-Eure","department":"27","center":{"lng":1.3335,"lat":48.8213},"population":1611},{"code":"27490","name":"Richeville","department":"27","center":{"lng":1.5405,"lat":49.259},"population":266},{"code":"28040","name":"Billancelles","department":"28","center":{"lng":1.2131,"lat":48.4945},"population":314},{"code":"28062","name":"Broué","department":"28","center":{"lng":1.5251,"lat":48.752},"population":859},{"code":"28084","name":"Chartainvilliers","department":"28","center":{"lng":1.5475,"lat":48.5453},"population":665},{"code":"28161","name":"Frazé","department":"28","center":{"lng":1.0947,"lat":48.2629},"population":488},{"code":"28183","name":"Gommerville","department":"28","center":{"lng":1.947,"lat":48.3458},"population":667},{"code":"28260","name":"Montharville","department":"28","center":{"lng":1.326,"lat":48.1771},"population":103},{"code":"28282","name":"Nonvilliers-Grandhoux","department":"28","center":{"lng":1.1416,"lat":48.3399},"population":431},{"code":"29030","name":"Cléder","department":"29","center":{"lng":-4.1239,"lat":48.6578},"population":3582},{"code":"29074","name":"Guimiliau","department":"29","center":{"lng":-3.9979,"lat":48.4826},"population":1000},{"code":"29151","name":"Morlaix","department":"29","center":{"lng":-3.8215,"lat":48.5971},"population":15220},{"code":"29173","name":"Plonéis","department":"29","center":{"lng":-4.2066,"lat":48.0099},"population":2405},{"code":"29195","name":"Plouguerneau","department":"29","center":{"lng":-4.5104,"lat":48.6046},"population":6719},{"code":"29250","name":"Saint-Hernin","department":"29","center":{"lng":-3.6134,"lat":48.2097},"population":735},{"code":"29272","name":"Saint-Yvi","department":"29","center":{"lng":-3.9329,"lat":47.9606},"population":3418},{"code":"29294","name":"Le Tréhou","department":"29","center":{"lng":-4.1364,"lat":48.3967},"population":636},{"code":"2A038","name":"Bilia","department":"2A","center":{"lng":8.9048,"lat":41.6222},"population":53},{"code":"2A115","name":"Foce","department":"2A","center":{"lng":9.0355,"lat":41.624},"population":152},{"code":"2A258","name":"Renno","department":"2A","center":{"lng":8.8207,"lat":42.2053},"population":63},{"code":"2A357","name":"Zérubia","department":"2A","center":{"lng":9.0545,"lat":41.7459},"population":46},{"code":"2B105","name":"Erbajolo","department":"2B","center":{"lng":9.2642,"lat":42.252},"population":92},{"code":"2B149","name":"Lugo-di-Nazza","department":"2B","center":{"lng":9.3225,"lat":42.0722},"population":85},{"code":"2B226","name":"Pietraserena","department":"2B","center":{"lng":9.36,"lat":42.2346},"population":58},{"code":"2B248","name":"Prato-di-Giovellina","department":"2B","center":{"lng":9.1751,"lat":42.418},"population":51},{"code":"2B303","name":"San-Giuliano","department":"2B","center":{"lng":9.5211,"lat":42.2844},"population":787},{"code":"2B347","name":"Vezzani","department":"2B","center":{"lng":9.2936,"lat":42.1501},"population":269},{"code":"35091","name":"Le Crouais","department":"35","center":{"lng":-2.1524,"lat":48.2067},"population":591},{"code":"35190","name":"Monthault","department":"35","center":{"lng":-1.1771,"lat":48.5104},"population":250},{"code":"36081","name":"Gargilesse-Dampierre","department":"36","center":{"lng":1.619,"lat":46.5053},"population":267},{"code":"36180","name":"Saint-Août","department":"36","center":{"lng":1.9669,"lat":46.7278},"population":817},{"code":"37071","name":"Chezelles","department":"37","center":{"lng":0.4429,"lat":47.0659},"population":130},{"code":"37093","name":"Crouzilles","department":"37","center":{"lng":0.4665,"lat":47.1301},"population":530},{"code":"37170","name":"Neuvy-le-Roi","department":"37","center":{"lng":0.5819,"lat":47.6097},"population":1061},{"code":"37192","name":"Reignac-sur-Indre","department":"37","center":{"lng":0.9181,"lat":47.2213},"population":1309},{"code":"38061","name":"La Buisse","department":"38","center":{"lng":5.6245,"lat":45.3319},"population":3499},{"code":"38083","name":"Charette","department":"38","center":{"lng":5.3593,"lat":45.8045},"population":435},{"code":"38160","name":"Eyzin-Pinet","department":"38","center":{"lng":4.9977,"lat":45.4777},"population":2301},{"code":"38182","name":"Le Grand-Lemps","department":"38","center":{"lng":5.4155,"lat":45.3971},"population":3093},{"code":"38281","name":"Noyarey","department":"38","center":{"lng":5.62,"lat":45.2418},"population":2321},{"code":"38380","name":"Saint-Didier-de-Bizonnes","department":"38","center":{"lng":5.3437,"lat":45.4599},"population":330},{"code":"39051","name":"Biarne","department":"39","center":{"lng":5.4528,"lat":47.1452},"population":436},{"code":"39073","name":"Brainans","department":"39","center":{"lng":5.6278,"lat":46.8708},"population":191},{"code":"39095","name":"Champagne-sur-Loue","department":"39","center":{"lng":5.8051,"lat":47.0329},"population":121},{"code":"39150","name":"Choisey","department":"39","center":{"lng":5.4522,"lat":47.0585},"population":1002},{"code":"39172","name":"Courtefontaine","department":"39","center":{"lng":5.7958,"lat":47.1269},"population":260},{"code":"39194","name":"Desnes","department":"39","center":{"lng":5.4669,"lat":46.7682},"population":490},{"code":"39271","name":"Lac-des-Rouges-Truites","department":"39","center":{"lng":6.0124,"lat":46.5975},"population":395},{"code":"39293","name":"Leschères","department":"39","center":{"lng":5.8288,"lat":46.4634},"population":203},{"code":"39370","name":"Mouchard","department":"39","center":{"lng":5.7893,"lat":46.9776},"population":1094},{"code":"39392","name":"Offlanges","department":"39","center":{"lng":5.5635,"lat":47.2013},"population":194},{"code":"39491","name":"Coteaux du Lizon","department":"39","center":{"lng":5.7985,"lat":46.4133},"population":2146},{"code":"46080","name":"Crayssac","department":"46","center":{"lng":1.3275,"lat":44.5182},"population":823},{"code":"47070","name":"Condezaygues","department":"47","center":{"lng":0.9121,"lat":44.4874},"population":837},{"code":"47092","name":"Fals","department":"47","center":{"lng":0.6918,"lat":44.1053},"population":405},{"code":"47191","name":"Montpouillan","department":"47","center":{"lng":0.0969,"lat":44.4594},"population":817},{"code":"47290","name":"La Sauvetat-du-Dropt","department":"47","center":{"lng":0.3303,"lat":44.6452},"population":565},{"code":"48082","name":"Laubert","department":"48","center":{"lng":3.6434,"lat":44.5956},"population":102},{"code":"48181","name":"Saint-Saturnin","department":"48","center":{"lng":3.1949,"lat":44.4059},"population":58},{"code":"49050","name":"Brissac Loire Aubance","department":"49","center":{"lng":-0.4087,"lat":47.3392},"population":11000},{"code":"49171","name":"La Lande-Chasles","department":"49","center":{"lng":-0.0702,"lat":47.4607},"population":119},{"code":"49193","name":"Le May-sur-Èvre","department":"49","center":{"lng":-0.8757,"lat":47.1304},"population":3878},{"code":"49292","name":"Val-du-Layon","department":"49","center":{"lng":-0.6529,"lat":47.3135},"population":3508},{"code":"57091","name":"Bliesbruck","department":"57","center":{"lng":7.1794,"lat":49.113},"population":976},{"code":"57190","name":"Elvange","department":"57","center":{"lng":6.5474,"lat":49.0513},"population":419},{"code":"58081","name":"Colméry","department":"58","center":{"lng":3.2441,"lat":47.346},"population":269},{"code":"58180","name":"Montsauche-les-Settons","department":"58","center":{"lng":4.0395,"lat":47.2179},"population":497},{"code":"59071","name":"Bersée","department":"59","center":{"lng":3.15,"lat":50.4813},"population":2289},{"code":"59093","name":"Boulogne-sur-Helpe","department":"59","center":{"lng":3.8901,"lat":50.0763},"population":294},{"code":"59170","name":"Dechy","department":"59","center":{"lng":3.1288,"lat":50.3523},"population":5343},{"code":"59192","name":"Émerchicourt","department":"59","center":{"lng":3.2549,"lat":50.3126},"population":813},{"code":"59291","name":"Hautmont","department":"59","center":{"lng":3.9204,"lat":50.248},"population":14197},{"code":"59390","name":"Masny","department":"59","center":{"lng":3.194,"lat":50.3441},"population":4028},{"code":"67090","name":"Diebolsheim","department":"67","center":{"lng":7.6568,"lat":48.2867},"population":673},{"code":"68080","name":"Emlingen","department":"68","center":{"lng":7.2911,"lat":47.6259},"population":313},{"code":"69070","name":"Cublize","department":"69","center":{"lng":4.3921,"lat":46.0244},"population":1357},{"code":"69092","name":"Gleizé","department":"69","center":{"lng":4.6883,"lat":45.9915},"population":7824},{"code":"69191","name":"Saint-Cyr-au-Mont-d'Or","department":"69","center":{"lng":4.8162,"lat":45.8216},"population":6113},{"code":"69290","name":"Saint-Priest","department":"69","center":{"lng":4.9474,"lat":45.7014},"population":49193},{"code":"79091","name":"Cirières","department":"79","center":{"lng":-0.619,"lat":46.8393},"population":949},{"code":"79190","name":"Neuvy-Bouin","department":"79","center":{"lng":-0.446,"lat":46.6796},"population":484},{"code":"80619","name":"Pernois","department":"80","center":{"lng":2.1873,"lat":50.0591},"population":699},{"code":"80718","name":"Saint-Sauveur","department":"80","center":{"lng":2.2115,"lat":49.9459},"population":1336}]