[{"code":"08190","name":"Givet","department":"08","center":{"lng":4.8374,"lat":50.1473},"population":6356},{"code":"09081","name":"Le Carlaret","department":"09","center":{"lng":1.701,"lat":43.1325},"population":286},{"code":"09180","name":"Manses","department":"09","center":{"lng":1.8146,"lat":43.1083},"population":128},{"code":"18090","name":"Étréchy","department":"18","center":{"lng":2.7098,"lat":47.1621},"population":410},{"code":"19080","name":"Eygurande","department":"19","center":{"lng":2.4235,"lat":45.6746},"population":684},{"code":"2A021","name":"Argiusta-Moriccio","department":"2A","center":{"lng":9.0325,"lat":41.8138},"population":75},{"code":"2A065","name":"Cargèse","department":"2A","center":{"lng":8.6234,"lat":42.1565},"population":1193},{"code":"2A142","name":"Levie","department":"2A","center":{"lng":9.1083,"lat":41.6612},"population":674},{"code":"2A186","name":"Olivese","department":"2A","center":{"lng":9.0707,"lat":41.8365},"population":220},{"code":"2A285","name":"Sorbollano","department":"2A","center":{"lng":9.112,"lat":41.7521},"population":65},{"code":"2A362","name":"Zonza","department":"2A","center":{"lng":9.2719,"lat":41.7145},"population":2869},{"code":"2B033","name":"Bastia","department":"2B","center":{"lng":9.424,"lat":42.6861},"population":47459},{"code":"2B055","name":"Campitello","department":"2B","center":{"lng":9.3279,"lat":42.5272},"population":108},{"code":"2B077","name":"Castellare-di-Casinca","department":"2B","center":{"lng":9.5003,"lat":42.4718},"population":722},{"code":"2B110","name":"Favalello","department":"2B","center":{"lng":9.2519,"lat":42.2886},"population":68},{"code":"2B176","name":"Nocario","department":"2B","center":{"lng":9.3466,"lat":42.3929},"population":75},{"code":"2B231","name":"Pigna","department":"2B","center":{"lng":8.9,"lat":42.6003},"population":122},{"code":"2B275","name":"Sermano","department":"2B","center":{"lng":9.2637,"lat":42.3155},"population":76},{"code":"2B297","name":"San-Damiano","department":"2B","center":{"lng":9.4178,"lat":42.4041},"population":54},{"code":"2B352","name":"Ville-di-Paraso","department":"2B","center":{"lng":8.9917,"lat":42.5845},"population":206},{"code":"40309","name":"Souprosse","department":"40","center":{"lng":-0.7195,"lat":43.7927},"population":1131},{"code":"50209","name":"Gonneville-Le Theil","department":"50","center":{"lng":-1.4697,"lat":49.6205},"population":1504},{"code":"50407","name":"Poilley","department":"50","center":{"lng":-1.3203,"lat":48.6154},"population":968},{"code":"50429","name":"Regnéville-sur-Mer","department":"50","center":{"lng":-1.5361,"lat":49.0153},"population":731},{"code":"50506","name":"Saint-Malo-de-la-Lande","department":"50","center":{"lng":-1.5429,"lat":49.0639},"population":462},{"code":"50528","name":"Saint-Nicolas-de-Pierrepont","department":"50","center":{"lng":-1.58,"lat":49.3205},"population":299},{"code":"51419","name":"Outines","department":"51","center":{"lng":4.6647,"lat":48.5582},"population":131},{"code":"51518","name":"Saint-Thierry","department":"51","center":{"lng":3.9736,"lat":49.2947},"population":603},{"code":"51617","name":"La Veuve","department":"51","center":{"lng":4.3344,"lat":49.0389},"population":603},{"code":"51639","name":"La Ville-sous-Orbais","department":"51","center":{"lng":3.6784,"lat":48.9635},"population":40},{"code":"60109","name":"Brombos","department":"60","center":{"lng":1.8876,"lat":49.6462},"population":247},{"code":"60208","name":"Énencourt-Léage","department":"60","center":{"lng":1.8456,"lat":49.3055},"population":116},{"code":"60307","name":"Heilles","department":"60","center":{"lng":2.2714,"lat":49.3313},"population":649},{"code":"60329","name":"Laberlière","department":"60","center":{"lng":2.7616,"lat":49.5751},"population":200},{"code":"60406","name":"Monceaux","department":"60","center":{"lng":2.5732,"lat":49.3258},"population":948},{"code":"60428","name":"Le Mont-Saint-Adrien","department":"60","center":{"lng":2.014,"lat":49.449},"population":648},{"code":"60505","name":"Pontarmé","department":"60","center":{"lng":2.5645,"lat":49.164},"population":896},{"code":"60527","name":"Réez-Fosse-Martin","department":"60","center":{"lng":2.9215,"lat":49.0938},"population":142},{"code":"60549","name":"Rotangy","department":"60","center":{"lng":2.0899,"lat":49.5836},"population":233},{"code":"60604","name":"Sarcus","department":"60","center":{"lng":1.8686,"lat":49.6824},"population":270},{"code":"60626","name":"Talmontiers","department":"60","center":{"lng":1.75,"lat":49.3887},"population":648},{"code":"60648","name":"Troussencourt","department":"60","center":{"lng":2.2488,"lat":49.6041},"population":316},{"code":"60703","name":"Aux Marais","department":"60","center":{"lng":2.0414,"lat":49.4065},"population":911},{"code":"61319","name":"Origny-le-Roux","department":"61","center":{"lng":0.4196,"lat":48.3333},"population":249},{"code":"61418","name":"Saint-Mard-de-Réno","department":"61","center":{"lng":0.6368,"lat":48.5091},"population":397},{"code":"62309","name":"Esquerdes","department":"62","center":{"lng":2.1767,"lat":50.7005},"population":1607},{"code":"62408","name":"Hames-Boucres","department":"62","center":{"lng":1.8468,"lat":50.8854},"population":1428},{"code":"62507","name":"Liencourt","department":"62","center":{"lng":2.4469,"lat":50.2733},"population":301},{"code":"62529","name":"Lorgies","department":"62","center":{"lng":2.796,"lat":50.5663},"population":1630},{"code":"62606","name":"Neuve-Chapelle","department":"62","center":{"lng":2.7807,"lat":50.5855},"population":1404},{"code":"62628","name":"Noyelles-sous-Lens","department":"62","center":{"lng":2.8764,"lat":50.4295},"population":6757},{"code":"62705","name":"Rety","department":"62","center":{"lng":1.7822,"lat":50.7932},"population":2050},{"code":"62727","name":"Ruitz","department":"62","center":{"lng":2.586,"lat":50.4672},"population":1493},{"code":"62749","name":"Saint-Georges","department":"62","center":{"lng":2.0715,"lat":50.3525},"population":325},{"code":"62804","name":"Sus-Saint-Léger","department":"62","center":{"lng":2.4347,"lat":50.2417},"population":362},{"code":"62826","name":"Le Touquet-Paris-Plage","department":"62","center":{"lng":1.6055,"lat":50.512},"population":4223},{"code":"62848","name":"Verquin","department":"62","center":{"lng":2.6419,"lat":50.5013},"population":3452},{"code":"62903","name":"Zoteux","department":"62","center":{"lng":1.886,"lat":50.6156},"population":588},{"code":"64509","name":"Sauguis-Saint-Étienne","department":"64","center":{"lng":-0.874,"lat":43.1594},"population":169},{"code":"70009","name":"Aisey-et-Richecourt","department":"70","center":{"lng":5.9566,"lat":47.8857},"population":99},{"code":"70207","name":"Échenoz-la-Méline","department":"70","center":{"lng":6.1381,"lat":47.5949},"population":3187},{"code":"70229","name":"Faymont","department":"70","center":{"lng":6.5983,"lat":47.6058},"population":255},{"code":"70306","name":"Lomont","department":"70","center":{"lng":6.6009,"lat":47.6228},"population":479},{"code":"70328","name":"Malbouhans","department":"70","center":{"lng":6.5786,"lat":47.7111},"population":333},{"code":"70405","name":"Pennesières","department":"70","center":{"lng":6.095,"lat":47.495},"population":193},{"code":"70427","name":"Purgerot","department":"70","center":{"lng":5.9915,"lat":47.7488},"population":328},{"code":"70449","name":"Roche-sur-Linotte-et-Sorans-les-Cordiers","department":"70","center":{"lng":6.1987,"lat":47.4754},"population":68},{"code":"70504","name":"Traves","department":"70","center":{"lng":5.9614,"lat":47.6093},"population":349},{"code":"70526","name":"Vauvillers","department":"70","center":{"lng":6.1094,"lat":47.9293},"population":611},{"code":"70548","name":"Vernois-sur-Mance","department":"70","center":{"lng":5.7795,"lat":47.8381},"population":131},{"code":"71219","name":"Gigny-sur-Saône","department":"71","center":{"lng":4.9354,"lat":46.6541},"population":568},{"code":"71318","name":"Montpont-en-Bresse","department":"71","center":{"lng":5.174,"lat":46.5417},"population":1087},{"code":"71417","name":"Saint-Gengoux-le-National","department":"71","center":{"lng":4.6654,"lat":46.6092},"population":1047},{"code":"71439","name":"Saint-Léger-lès-Paray","department":"71","center":{"lng":4.1152,"lat":46.4853},"population":759},{"code":"71516","name":"Serley","department":"71","center":{"lng":5.2414,"lat":46.789},"population":595},{"code":"71538","name":"Thurey","department":"71","center":{"lng":5.1233,"lat":46.7435},"population":422},{"code":"72209","name":"Montreuil-le-Chétif","department":"72","center":{"lng":-0.0335,"lat":48.241},"population":313},{"code":"72308","name":"Saint-Paterne - Le Chevain","department":"72","center":{"lng":0.125,"lat":48.4167},"population":2090},{"code":"76609","name":"Sainte-Marie-au-Bosc","department":"76","center":{"lng":0.2045,"lat":49.6649},"population":359},{"code":"76708","name":"Toussaint","department":"76","center":{"lng":0.4379,"lat":49.7345},"population":695},{"code":"80008","name":"Aigneville","department":"80","center":{"lng":1.6109,"lat":50.0356},"population":904},{"code":"80107","name":"Blangy-Tronville","department":"80","center":{"lng":2.4287,"lat":49.8687},"population":623},{"code":"80129","name":"Bouzincourt","department":"80","center":{"lng":2.6115,"lat":50.0238},"population":536},{"code":"80206","name":"Contalmaison","department":"80","center":{"lng":2.7339,"lat":50.0289},"population":122},{"code":"80228","name":"Le Crotoy","department":"80","center":{"lng":1.6219,"lat":50.2469},"population":1965},{"code":"80305","name":"Ferrières","department":"80","center":{"lng":2.1785,"lat":49.8855},"population":483},{"code":"80327","name":"Fontaine-sur-Maye","department":"80","center":{"lng":1.927,"lat":50.2355},"population":159},{"code":"80349","name":"Fransures","department":"80","center":{"lng":2.2324,"lat":49.7138},"population":127},{"code":"80404","name":"Guyencourt-Saulcourt","department":"80","center":{"lng":3.0804,"lat":49.9956},"population":144},{"code":"80426","name":"Heilly","department":"80","center":{"lng":2.5333,"lat":49.9627},"population":440},{"code":"80503","name":"Maizicourt","department":"80","center":{"lng":2.1283,"lat":50.1964},"population":187},{"code":"80525","name":"Meigneux","department":"80","center":{"lng":1.8918,"lat":49.7653},"population":179},{"code":"80547","name":"Millencourt","department":"80","center":{"lng":2.5983,"lat":50.002},"population":203},{"code":"80569","name":"Morcourt","department":"80","center":{"lng":2.658,"lat":49.8871},"population":330},{"code":"80602","name":"Occoches","department":"80","center":{"lng":2.2852,"lat":50.1839},"population":124},{"code":"80624","name":"Pierregot","department":"80","center":{"lng":2.3816,"lat":50.0074},"population":282},{"code":"80646","name":"Punchy","department":"80","center":{"lng":2.8082,"lat":49.7928},"population":79},{"code":"80668","name":"Remiencourt","department":"80","center":{"lng":2.3843,"lat":49.7793},"population":172},{"code":"80701","name":"Saint-Christ-Briost","department":"80","center":{"lng":2.9254,"lat":49.8503},"population":429},{"code":"80723","name":"Saisseval","department":"80","center":{"lng":2.1194,"lat":49.9036},"population":251},{"code":"80767","name":"Le Translay","department":"80","center":{"lng":1.6631,"lat":49.9735},"population":234},{"code":"80789","name":"Vermandovillers","department":"80","center":{"lng":2.7816,"lat":49.8449},"population":150},{"code":"80800","name":"Villers-Campsart","department":"80","center":{"lng":1.8359,"lat":49.8701},"population":138},{"code":"80822","name":"Warsy","department":"80","center":{"lng":2.6439,"lat":49.7065},"population":136},{"code":"81119","name":"Laboutarie","department":"81","center":{"lng":2.1107,"lat":43.7875},"population":508},{"code":"81218","name":"Puygouzon","department":"81","center":{"lng":2.1836,"lat":43.8809},"population":3549},{"code":"81317","name":"Villefranche-d'Albigeois","department":"81","center":{"lng":2.3223,"lat":43.8987},"population":1235},{"code":"82109","name":"Merles","department":"82","center":{"lng":0.9644,"lat":44.0668},"population":201},{"code":"90007","name":"Banvillars","department":"90","center":{"lng":6.8127,"lat":47.5881},"population":290},{"code":"90029","name":"Cravanche","department":"90","center":{"lng":6.8238,"lat":47.653},"population":1935},{"code":"91338","name":"Limours","department":"91","center":{"lng":2.0823,"lat":48.6463},"population":6408},{"code":"91514","name":"Quincy-sous-Sénart","department":"91","center":{"lng":2.5259,"lat":48.6722},"population":9491},{"code":"91613","name":"Congerville-Thionville","department":"91","center":{"lng":1.9912,"lat":48.3833},"population":212},{"code":"91635","name":"Vauhallan","department":"91","center":{"lng":2.1996,"lat":48.7302},"population":1954},{"code":"91657","name":"Vigneux-sur-Seine","department":"91","center":{"lng":2.4274,"lat":48.7021},"population":31233},{"code":"91679","name":"Villiers-le-Bâcle","department":"91","center":{"lng":2.1224,"lat":48.7282},"population":1040},{"code":"92009","name":"Bois-Colombes","department":"92","center":{"lng":2.2688,"lat":48.9151},"population":29376}]