[{"code":"01060","name":"Brénod","department":"01","center":{"lng":5.6116,"lat":46.0791},"population":547},{"code":"01082","name":"Chanay","department":"01","center":{"lng":5.7674,"lat":46.0024},"population":595},{"code":"01181","name":"Groissiat","department":"01","center":{"lng":5.6179,"lat":46.227},"population":1216},{"code":"01280","name":"Ordonnaz","department":"01","center":{"lng":5.5439,"lat":45.8357},"population":146},{"code":"02050","name":"Barzy-en-Thiérache","department":"02","center":{"lng":3.7522,"lat":50.0378},"population":317},{"code":"02072","name":"Berrieux","department":"02","center":{"lng":3.8531,"lat":49.4828},"population":177},{"code":"02094","name":"Blesmes","department":"02","center":{"lng":3.4628,"lat":49.0258},"population":473},{"code":"02171","name":"Chaudardes","department":"02","center":{"lng":3.788,"lat":49.3968},"population":91},{"code":"02193","name":"Cierges","department":"02","center":{"lng":3.6022,"lat":49.1659},"population":64},{"code":"02270","name":"Douchy","department":"02","center":{"lng":3.1296,"lat":49.7959},"population":159},{"code":"02292","name":"Étampes-sur-Marne","department":"02","center":{"lng":3.4175,"lat":49.0319},"population":1331},{"code":"02391","name":"Jeantes","department":"02","center":{"lng":4.071,"lat":49.8142},"population":224},{"code":"02490","name":"Monampteuil","department":"02","center":{"lng":3.5731,"lat":49.4715},"population":123},{"code":"03040","name":"Bressolles","department":"03","center":{"lng":3.2879,"lat":46.5296},"population":1141},{"code":"03062","name":"Charroux","department":"03","center":{"lng":3.1625,"lat":46.1817},"population":340},{"code":"03084","name":"Cosne-d'Allier","department":"03","center":{"lng":2.8317,"lat":46.4876},"population":2013},{"code":"03161","name":"Marcillat-en-Combraille","department":"03","center":{"lng":2.6332,"lat":46.1707},"population":907},{"code":"03183","name":"Le Montet","department":"03","center":{"lng":3.0532,"lat":46.407},"population":469},{"code":"03260","name":"Saint-Sornin","department":"03","center":{"lng":3.0083,"lat":46.4129},"population":220},{"code":"03282","name":"Theneuille","department":"03","center":{"lng":2.8807,"lat":46.5944},"population":340},{"code":"04030","name":"Blieux","department":"04","center":{"lng":6.3671,"lat":43.8772},"population":52},{"code":"04074","name":"Entrages","department":"04","center":{"lng":6.2732,"lat":44.0398},"population":100},{"code":"04096","name":"Jausiers","department":"04","center":{"lng":6.7745,"lat":44.3795},"population":1142},{"code":"04151","name":"Pierrerue","department":"04","center":{"lng":5.8394,"lat":43.9645},"population":530},{"code":"04173","name":"Saint-André-les-Alpes","department":"04","center":{"lng":6.5043,"lat":43.9711},"population":1030},{"code":"04195","name":"Saint-Pons","department":"04","center":{"lng":6.6163,"lat":44.416},"population":613},{"code":"05064","name":"La Chapelle-en-Valgaudémar","department":"05","center":{"lng":6.244,"lat":44.8069},"population":114},{"code":"05086","name":"Montjay","department":"05","center":{"lng":5.6194,"lat":44.3668},"population":104},{"code":"05163","name":"Le Sauze-du-Lac","department":"05","center":{"lng":6.3209,"lat":44.4869},"population":158},{"code":"06010","name":"Le Bar-sur-Loup","department":"06","center":{"lng":6.9674,"lat":43.6993},"population":2960},{"code":"06032","name":"Cap-d'Ail","department":"06","center":{"lng":7.4008,"lat":43.7256},"population":4491},{"code":"06054","name":"Drap","department":"06","center":{"lng":7.3395,"lat":43.7587},"population":5300},{"code":"06076","name":"Lieuche","department":"06","center":{"lng":7.0361,"lat":44.0001},"population":51},{"code":"06098","name":"Puget-Rostang","department":"06","center":{"lng":6.9333,"lat":44.0056},"population":121},{"code":"06131","name":"Sallagriffon","department":"06","center":{"lng":6.9117,"lat":43.8805},"population":47},{"code":"06153","name":"Valdeblore","department":"06","center":{"lng":7.1949,"lat":44.1152},"population":834},{"code":"07022","name":"Baix","department":"07","center":{"lng":4.7474,"lat":44.7046},"population":1293},{"code":"07044","name":"Brossainc","department":"07","center":{"lng":4.677,"lat":45.3286},"population":261},{"code":"07066","name":"Chomérac","department":"07","center":{"lng":4.668,"lat":44.7113},"population":3094},{"code":"07088","name":"Faugères","department":"07","center":{"lng":4.1436,"lat":44.4828},"population":113},{"code":"07121","name":"Lachapelle-Graillouse","department":"07","center":{"lng":4.0241,"lat":44.8121},"population":188},{"code":"07143","name":"Limony","department":"07","center":{"lng":4.749,"lat":45.351},"population":817},{"code":"07165","name":"Belsentes","department":"07","center":{"lng":4.4968,"lat":44.92},"population":542},{"code":"07187","name":"Prunet","department":"07","center":{"lng":4.255,"lat":44.5957},"population":134},{"code":"07220","name":"Saint-Christol","department":"07","center":{"lng":4.4366,"lat":44.8702},"population":100},{"code":"07242","name":"Saint-Gineys-en-Coiron","department":"07","center":{"lng":4.5402,"lat":44.6346},"population":119},{"code":"07264","name":"Saint-Marcel-d'Ardèche","department":"07","center":{"lng":4.6007,"lat":44.3301},"population":2357},{"code":"07286","name":"Saint-Pierreville","department":"07","center":{"lng":4.4845,"lat":44.8242},"population":515},{"code":"07341","name":"Villeneuve-de-Berg","department":"07","center":{"lng":4.5119,"lat":44.5455},"population":3031},{"code":"08034","name":"Autrecourt-et-Pourron","department":"08","center":{"lng":5.0219,"lat":49.6049},"population":338},{"code":"08056","name":"Beffu-et-le-Morthomme","department":"08","center":{"lng":4.8933,"lat":49.3731},"population":39},{"code":"08078","name":"Bourg-Fidèle","department":"08","center":{"lng":4.553,"lat":49.892},"population":829},{"code":"08111","name":"Le Châtelet-sur-Retourne","department":"08","center":{"lng":4.2774,"lat":49.4113},"population":775},{"code":"08133","name":"Coucy","department":"08","center":{"lng":4.4604,"lat":49.5095},"population":530},{"code":"08155","name":"Étalle","department":"08","center":{"lng":4.4449,"lat":49.8526},"population":96},{"code":"08199","name":"La Grandville","department":"08","center":{"lng":4.8056,"lat":49.7851},"population":765},{"code":"08210","name":"Hannogne-Saint-Rémy","department":"08","center":{"lng":4.1421,"lat":49.6053},"population":111},{"code":"08232","name":"Illy","department":"08","center":{"lng":4.9788,"lat":49.7581},"population":416},{"code":"08254","name":"Liart","department":"08","center":{"lng":4.3426,"lat":49.7608},"population":596},{"code":"08276","name":"Margut","department":"08","center":{"lng":5.2691,"lat":49.58},"population":711},{"code":"08298","name":"Montcy-Notre-Dame","department":"08","center":{"lng":4.7439,"lat":49.791},"population":1560},{"code":"08331","name":"Noyers-Pont-Maugis","department":"08","center":{"lng":4.9318,"lat":49.6571},"population":670},{"code":"08353","name":"Rancennes","department":"08","center":{"lng":4.8253,"lat":50.1221},"population":707},{"code":"08375","name":"Sachy","department":"08","center":{"lng":5.1273,"lat":49.6695},"population":178},{"code":"08397","name":"Saint-Remy-le-Petit","department":"08","center":{"lng":4.2316,"lat":49.3995},"population":55},{"code":"08430","name":"Stonne","department":"08","center":{"lng":4.927,"lat":49.5508},"population":39},{"code":"08452","name":"Thugny-Trugny","department":"08","center":{"lng":4.425,"lat":49.4756},"population":248},{"code":"08496","name":"Wagnon","department":"08","center":{"lng":4.455,"lat":49.6442},"population":108},{"code":"09002","name":"Aigues-Vives","department":"09","center":{"lng":1.8781,"lat":42.9996},"population":631},{"code":"09024","name":"Aston","department":"09","center":{"lng":1.6603,"lat":42.6978},"population":193},{"code":"09046","name":"Bédeille","department":"09","center":{"lng":1.0977,"lat":43.0824},"population":76},{"code":"09068","name":"Burret","department":"09","center":{"lng":1.4733,"lat":42.9514},"population":44},{"code":"09101","name":"Coussa","department":"09","center":{"lng":1.6879,"lat":43.066},"population":278},{"code":"09123","name":"Fornex","department":"09","center":{"lng":1.2394,"lat":43.1658},"population":107},{"code":"09145","name":"Les Issards","department":"09","center":{"lng":1.7369,"lat":43.0792},"population":253},{"code":"09167","name":"Lézat-sur-Lèze","department":"09","center":{"lng":1.3475,"lat":43.2794},"population":2341},{"code":"09189","name":"Mérens-les-Vals","department":"09","center":{"lng":1.8227,"lat":42.633},"population":168},{"code":"09200","name":"Montbel","department":"09","center":{"lng":1.9681,"lat":42.9808},"population":93},{"code":"09222","name":"Orus","department":"09","center":{"lng":1.5125,"lat":42.7936},"population":24},{"code":"09244","name":"Rieucros","department":"09","center":{"lng":1.7671,"lat":43.0758},"population":720},{"code":"09266","name":"Saint-Julien-de-Gras-Capou","department":"09","center":{"lng":1.8569,"lat":43.0355},"population":83},{"code":"09321","name":"Ussat","department":"09","center":{"lng":1.6228,"lat":42.8338},"population":308},{"code":"10091","name":"Chaudrey","department":"10","center":{"lng":4.2439,"lat":48.4828},"population":140},{"code":"10190","name":"Laubressel","department":"10","center":{"lng":4.231,"lat":48.3019},"population":559},{"code":"11081","name":"Caunes-Minervois","department":"11","center":{"lng":2.5179,"lat":43.3419},"population":1571},{"code":"11180","name":"Labastide-Esparbairenque","department":"11","center":{"lng":2.4085,"lat":43.3953},"population":62},{"code":"12071","name":"Compolibat","department":"12","center":{"lng":2.1836,"lat":44.3754},"population":334},{"code":"12093","name":"Le Fel","department":"12","center":{"lng":2.5153,"lat":44.67},"population":192},{"code":"12170","name":"Naussac","department":"12","center":{"lng":2.0946,"lat":44.5041},"population":414},{"code":"12192","name":"Mounes-Prohencoux","department":"12","center":{"lng":2.8177,"lat":43.7953},"population":193},{"code":"12291","name":"Verrières","department":"12","center":{"lng":3.048,"lat":44.2155},"population":364},{"code":"13061","name":"Saint-Pierre-de-Mézoargues","department":"13","center":{"lng":4.6578,"lat":43.8616},"population":228},{"code":"13083","name":"Rognonas","department":"13","center":{"lng":4.7948,"lat":43.8992},"population":4186},{"code":"14150","name":"Cesny-les-Sources","department":"14","center":{"lng":-0.3761,"lat":48.9645},"population":1415},{"code":"14172","name":"Commes","department":"14","center":{"lng":-0.7423,"lat":49.3352},"population":470},{"code":"14194","name":"Courtonne-les-Deux-Églises","department":"14","center":{"lng":0.3755,"lat":49.0856},"population":629},{"code":"14271","name":"Fleury-sur-Orne","department":"14","center":{"lng":-0.3784,"lat":49.1476},"population":5622},{"code":"14293","name":"Fumichon","department":"14","center":{"lng":0.3759,"lat":49.1722},"population":268},{"code":"14370","name":"Le Molay-Littry","department":"14","center":{"lng":-0.8796,"lat":49.2344},"population":3092},{"code":"14491","name":"Parfouru-sur-Odon","department":"14","center":{"lng":-0.61,"lat":49.0895},"population":197},{"code":"14590","name":"Sainte-Honorine-de-Ducy","department":"14","center":{"lng":-0.7855,"lat":49.1379},"population":136},{"code":"15041","name":"La Chapelle-d'Alagnon","department":"15","center":{"lng":2.9072,"lat":45.1037},"population":258},{"code":"15063","name":"Drugeac","department":"15","center":{"lng":2.385,"lat":45.1601},"population":323},{"code":"15085","name":"Labrousse","department":"15","center":{"lng":2.5483,"lat":44.8502},"population":480},{"code":"15140","name":"Naucelles","department":"15","center":{"lng":2.4203,"lat":44.952},"population":2164},{"code":"15162","name":"Riom-ès-Montagnes","department":"15","center":{"lng":2.6569,"lat":45.2999},"population":2403},{"code":"15184","name":"Saint-Étienne-de-Maurs","department":"15","center":{"lng":2.2405,"lat":44.7207},"population":787},{"code":"15261","name":"Le Vigean","department":"15","center":{"lng":2.3634,"lat":45.2169},"population":800},{"code":"16031","name":"Barro","department":"16","center":{"lng":0.2348,"lat":46.0069},"population":410},{"code":"16053","name":"Bors (Canton de Charente-Sud)","department":"16","center":{"lng":-0.2004,"lat":45.3265},"population":118},{"code":"16075","name":"Champagne-Vigny","department":"16","center":{"lng":0.0423,"lat":45.5097},"population":235},{"code":"16097","name":"Val-de-Cognac","department":"16","center":{"lng":-0.374,"lat":45.748},"population":3455},{"code":"16130","name":"Les Essards","department":"16","center":{"lng":0.1099,"lat":45.2368},"population":178},{"code":"16152","name":"Gimeux","department":"16","center":{"lng":-0.367,"lat":45.6383},"population":727},{"code":"16174","name":"Julienne","department":"16","center":{"lng":-0.2308,"lat":45.6923},"population":540},{"code":"16196","name":"Luxé","department":"16","center":{"lng":0.1237,"lat":45.8958},"population":732},{"code":"16251","name":"Oriolles","department":"16","center":{"lng":-0.1434,"lat":45.355},"population":245},{"code":"16273","name":"Raix","department":"16","center":{"lng":0.1167,"lat":46.003},"population":116},{"code":"16295","name":"Saint-Amant-de-Boixe","department":"16","center":{"lng":0.1347,"lat":45.8061},"population":1327},{"code":"16350","name":"Saint-Séverin","department":"16","center":{"lng":0.2427,"lat":45.3118},"population":793},{"code":"16372","name":"Souffrignac","department":"16","center":{"lng":0.496,"lat":45.5886},"population":149},{"code":"16394","name":"Vaux-Lavalette","department":"16","center":{"lng":0.2407,"lat":45.4178},"population":79},{"code":"17021","name":"Arvert","department":"17","center":{"lng":-1.1245,"lat":45.7451},"population":3875},{"code":"17043","name":"Bernay-Saint-Martin","department":"17","center":{"lng":-0.6216,"lat":46.0696},"population":761},{"code":"17065","name":"Breuil-Magné","department":"17","center":{"lng":-0.966,"lat":45.9944},"population":1891},{"code":"17087","name":"Chantemerle-sur-la-Soie","department":"17","center":{"lng":-0.6483,"lat":45.9723},"population":214},{"code":"17120","name":"Corme-Royal","department":"17","center":{"lng":-0.8033,"lat":45.7494},"population":1969},{"code":"17142","name":"Dompierre-sur-Mer","department":"17","center":{"lng":-1.0654,"lat":46.188},"population":6084},{"code":"17164","name":"Fontcouverte","department":"17","center":{"lng":-0.5895,"lat":45.7673},"population":2313},{"code":"17186","name":"Le Gué-d'Alleré","department":"17","center":{"lng":-0.8708,"lat":46.1862},"population":1040},{"code":"17241","name":"Montguyon","department":"17","center":{"lng":-0.1679,"lat":45.2071},"population":1636},{"code":"17263","name":"Nieul-le-Virouil","department":"17","center":{"lng":-0.5235,"lat":45.416},"population":577},{"code":"17285","name":"Port-d'Envaux","department":"17","center":{"lng":-0.6737,"lat":45.8153},"population":1170},{"code":"17340","name":"Saint-Pierre-La-Noue","department":"17","center":{"lng":-0.799,"lat":46.072},"population":1498},{"code":"17362","name":"Saint-Martial-de-Mirambeau","department":"17","center":{"lng":-0.5937,"lat":45.3743},"population":301},{"code":"17384","name":"Saint-Pierre-de-l'Isle","department":"17","center":{"lng":-0.4464,"lat":46.0302},"population":268},{"code":"17461","name":"Vaux-sur-Mer","department":"17","center":{"lng":-1.059,"lat":45.6444},"population":4030},{"code":"17483","name":"Yves","department":"17","center":{"lng":-1.0384,"lat":46.0354},"population":1508},{"code":"18011","name":"Argent-sur-Sauldre","department":"18","center":{"lng":2.4223,"lat":47.5625},"population":2040},{"code":"18033","name":"Bourges","department":"18","center":{"lng":2.3983,"lat":47.078},"population":64238},{"code":"18055","name":"Chârost","department":"18","center":{"lng":2.1248,"lat":46.9949},"population":899},{"code":"18077","name":"Couy","department":"18","center":{"lng":2.8286,"lat":47.1087},"population":376},{"code":"18099","name":"Garigny","department":"18","center":{"lng":2.8826,"lat":47.0896},"population":220},{"code":"18110","name":"Herry","department":"18","center":{"lng":2.9409,"lat":47.2285},"population":959},{"code":"18132","name":"Lugny-Champagne","department":"18","center":{"lng":2.8298,"lat":47.1764},"population":140},{"code":"18154","name":"Mornay-Berry","department":"18","center":{"lng":2.8636,"lat":47.0552},"population":168},{"code":"18176","name":"Parassy","department":"18","center":{"lng":2.539,"lat":47.2399},"population":406},{"code":"18198","name":"Saint-Ambroix","department":"18","center":{"lng":2.1274,"lat":46.9323},"population":375},{"code":"18231","name":"Saint-Pierre-les-Étieux","department":"18","center":{"lng":2.5944,"lat":46.738},"population":744},{"code":"18253","name":"Soulangis","department":"18","center":{"lng":2.5162,"lat":47.1788},"population":457},{"code":"18275","name":"Vereaux","department":"18","center":{"lng":2.8661,"lat":46.8709},"population":137},{"code":"19001","name":"Affieux","department":"19","center":{"lng":1.7619,"lat":45.5111},"population":376},{"code":"19023","name":"Beynat","department":"19","center":{"lng":1.7236,"lat":45.134},"population":1281},{"code":"19045","name":"La Chapelle-Saint-Géraud","department":"19","center":{"lng":1.9483,"lat":45.0512},"population":196},{"code":"19067","name":"Curemonte","department":"19","center":{"lng":1.7577,"lat":45.0039},"population":215},{"code":"19089","name":"Gros-Chastang","department":"19","center":{"lng":2.006,"lat":45.2158},"population":184},{"code":"19100","name":"Lagraulière","department":"19","center":{"lng":1.6264,"lat":45.3572},"population":1189},{"code":"19122","name":"Madranges","department":"19","center":{"lng":1.8016,"lat":45.4633},"population":168},{"code":"19144","name":"Montgibaud","department":"19","center":{"lng":1.4217,"lat":45.5104},"population":251},{"code":"19166","name":"Pierrefitte","department":"19","center":{"lng":1.6433,"lat":45.4297},"population":93},{"code":"19188","name":"Saint-Bonnet-l'Enfantier","department":"19","center":{"lng":1.5278,"lat":45.299},"population":413},{"code":"19221","name":"Saint-Martial-Entraygues","department":"19","center":{"lng":1.9717,"lat":45.1271},"population":105},{"code":"19243","name":"Saint-Sornin-Lavolps","department":"19","center":{"lng":1.3702,"lat":45.3737},"population":846},{"code":"19265","name":"Tarnac","department":"19","center":{"lng":1.9503,"lat":45.6697},"population":338},{"code":"19287","name":"Vitrac-sur-Montane","department":"19","center":{"lng":1.938,"lat":45.3706},"population":239},{"code":"21080","name":"Blaisy-Bas","department":"21","center":{"lng":4.741,"lat":47.3673},"population":664},{"code":"22070","name":"Guingamp","department":"22","center":{"lng":-3.1533,"lat":48.5608},"population":7127},{"code":"22092","name":"Kerpert","department":"22","center":{"lng":-3.1359,"lat":48.389},"population":269},{"code":"23060","name":"Chavanat","department":"23","center":{"lng":1.9624,"lat":45.9513},"population":138},{"code":"23082","name":"Fleurat","department":"23","center":{"lng":1.6821,"lat":46.2329},"population":307},{"code":"23181","name":"Saint-Amand-Jartoudeix","department":"23","center":{"lng":1.6724,"lat":45.9208},"population":152},{"code":"24050","name":"Borrèze","department":"24","center":{"lng":1.3906,"lat":44.972},"population":352},{"code":"24094","name":"Chalagnac","department":"24","center":{"lng":0.682,"lat":45.092},"population":442},{"code":"24171","name":"Eyzerac","department":"24","center":{"lng":0.9026,"lat":45.3885},"population":547},{"code":"24193","name":"Gageac-et-Rouillac","department":"24","center":{"lng":0.3624,"lat":44.8015},"population":441},{"code":"24292","name":"Montpeyroux","department":"24","center":{"lng":0.0651,"lat":44.9155},"population":502},{"code":"24490","name":"Saint Privat en Périgord","department":"24","center":{"lng":0.2058,"lat":45.2266},"population":1127},{"code":"25040","name":"Badevel","department":"25","center":{"lng":6.9362,"lat":47.5015},"population":808},{"code":"25062","name":"Le Bizot","department":"25","center":{"lng":6.6752,"lat":47.1374},"population":304},{"code":"25084","name":"Boussières","department":"25","center":{"lng":5.9013,"lat":47.1498},"population":1200},{"code":"25161","name":"Consolation-Maisonnettes","department":"25","center":{"lng":6.6037,"lat":47.1564},"population":24},{"code":"25183","name":"Cusance","department":"25","center":{"lng":6.434,"lat":47.321},"population":76},{"code":"25381","name":"Miserey-Salines","department":"25","center":{"lng":5.9705,"lat":47.2897},"population":2660},{"code":"26030","name":"La Bâtie-des-Fonds","department":"26","center":{"lng":5.6331,"lat":44.5169},"population":4},{"code":"26052","name":"Bonlieu-sur-Roubion","department":"26","center":{"lng":4.8681,"lat":44.5871},"population":456},{"code":"26074","name":"La Chapelle-en-Vercors","department":"26","center":{"lng":5.4254,"lat":44.9669},"population":772},{"code":"26096","name":"Clérieux","department":"26","center":{"lng":4.9561,"lat":45.0808},"population":1952},{"code":"26173","name":"Marches","department":"26","center":{"lng":5.1129,"lat":44.981},"population":867},{"code":"26195","name":"Montclar-sur-Gervanne","department":"26","center":{"lng":5.1571,"lat":44.7504},"population":195},{"code":"26250","name":"Pont-de-l'Isère","department":"26","center":{"lng":4.8815,"lat":45.0171},"population":3683},{"code":"26272","name":"Rochefort-en-Valdaine","department":"26","center":{"lng":4.8575,"lat":44.5114},"population":359},{"code":"26294","name":"Saint-Bardoux","department":"26","center":{"lng":4.9843,"lat":45.0829},"population":599},{"code":"27020","name":"Arnières-sur-Iton","department":"27","center":{"lng":1.1032,"lat":48.9916},"population":1651},{"code":"27042","name":"Barville","department":"27","center":{"lng":0.4845,"lat":49.1564},"population":85},{"code":"27064","name":"Berville-sur-Mer","department":"27","center":{"lng":0.3577,"lat":49.4294},"population":680},{"code":"27141","name":"Champ-Dolent","department":"27","center":{"lng":1.0088,"lat":48.9598},"population":63},{"code":"27163","name":"Colletot","department":"27","center":{"lng":0.6222,"lat":49.3493},"population":179},{"code":"27185","name":"Crestot","department":"27","center":{"lng":0.9713,"lat":49.2037},"population":544},{"code":"27240","name":"La Ferrière-sur-Risle","department":"27","center":{"lng":0.7866,"lat":48.9779},"population":201},{"code":"27284","name":"Gisors","department":"27","center":{"lng":1.7642,"lat":49.2775},"population":12395},{"code":"27361","name":"La Lande-Saint-Léger","department":"27","center":{"lng":0.339,"lat":49.2946},"population":404},{"code":"27383","name":"Mandres","department":"27","center":{"lng":0.8489,"lat":48.755},"population":350},{"code":"27460","name":"Plainville","department":"27","center":{"lng":0.5025,"lat":49.0771},"population":206},{"code":"27482","name":"La Pyle","department":"27","center":{"lng":0.8962,"lat":49.1988},"population":157},{"code":"27680","name":"Verneusses","department":"27","center":{"lng":0.4242,"lat":48.9078},"population":180},{"code":"28010","name":"Argenvilliers","department":"28","center":{"lng":0.9724,"lat":48.2753},"population":318},{"code":"28032","name":"Beauvilliers","department":"28","center":{"lng":1.6561,"lat":48.2994},"population":342},{"code":"28054","name":"Le Boullay-Mivoye","department":"28","center":{"lng":1.4082,"lat":48.6551},"population":529},{"code":"28076","name":"La Chapelle-Forainvilliers","department":"28","center":{"lng":1.4916,"lat":48.7284},"population":214},{"code":"28098","name":"Cherisy","department":"28","center":{"lng":1.4359,"lat":48.7573},"population":1857},{"code":"28153","name":"Flacey","department":"28","center":{"lng":1.3319,"lat":48.1505},"population":212},{"code":"28175","name":"La Gaudaine","department":"28","center":{"lng":0.9595,"lat":48.2978},"population":179},{"code":"28197","name":"Intréville","department":"28","center":{"lng":1.9366,"lat":48.2985},"population":121},{"code":"28230","name":"Maisons","department":"28","center":{"lng":1.846,"lat":48.4038},"population":403},{"code":"28252","name":"Miermaigne","department":"28","center":{"lng":1.0006,"lat":48.2471},"population":171},{"code":"28274","name":"Moutiers","department":"28","center":{"lng":1.7595,"lat":48.2974},"population":243},{"code":"28296","name":"Péronville","department":"28","center":{"lng":1.5753,"lat":48.0611},"population":260},{"code":"28351","name":"Saint-Maixme-Hauterive","department":"28","center":{"lng":1.1914,"lat":48.594},"population":410},{"code":"28373","name":"Senonches","department":"28","center":{"lng":1.0144,"lat":48.5584},"population":3013},{"code":"28395","name":"Trizay-Coutretot-Saint-Serge","department":"28","center":{"lng":0.8826,"lat":48.2942},"population":438},{"code":"29022","name":"Camaret-sur-Mer","department":"29","center":{"lng":-4.5953,"lat":48.2672},"population":2448},{"code":"29044","name":"Dinéault","department":"29","center":{"lng":-4.1755,"lat":48.2164},"population":1858},{"code":"29066","name":"Guengat","department":"29","center":{"lng":-4.1882,"lat":48.0414},"population":1836},{"code":"29143","name":"Mahalon","department":"29","center":{"lng":-4.4208,"lat":48.0286},"population":1010},{"code":"29165","name":"Plobannalec-Lesconil","department":"29","center":{"lng":-4.2282,"lat":47.8209},"population":3694},{"code":"29187","name":"Plougar","department":"29","center":{"lng":-4.1346,"lat":48.5568},"population":790},{"code":"29220","name":"Pont-l'Abbé","department":"29","center":{"lng":-4.2174,"lat":47.8674},"population":8403},{"code":"29264","name":"Saint-Servais","department":"29","center":{"lng":-4.161,"lat":48.5156},"population":789},{"code":"29286","name":"Tréflévénez","department":"29","center":{"lng":-4.1785,"lat":48.4144},"population":247},{"code":"2A008","name":"Albitreccia","department":"2A","center":{"lng":8.8744,"lat":41.8552},"population":1780},{"code":"2A129","name":"Grossa","department":"2A","center":{"lng":8.8576,"lat":41.605},"population":73},{"code":"2A228","name":"Pietrosella","department":"2A","center":{"lng":8.8071,"lat":41.8246},"population":2042},{"code":"2A349","name":"Viggianello","department":"2A","center":{"lng":8.9461,"lat":41.6715},"population":890},{"code":"2B218","name":"Piedicorte-di-Gaggio","department":"2B","center":{"lng":9.3223,"lat":42.2175},"population":109},{"code":"2B317","name":"Santa-Reparata-di-Moriani","department":"2B","center":{"lng":9.4553,"lat":42.3515},"population":56},{"code":"2B339","name":"Vallica","department":"2B","center":{"lng":9.0582,"lat":42.5167},"population":28},{"code":"32091","name":"Castin","department":"32","center":{"lng":0.5363,"lat":43.6914},"population":345},{"code":"32190","name":"Lannepax","department":"32","center":{"lng":0.2229,"lat":43.8084},"population":532},{"code":"33081","name":"Cadillac-sur-Garonne","department":"33","center":{"lng":-0.3076,"lat":44.6407},"population":2727},{"code":"33180","name":"Gans","department":"33","center":{"lng":-0.1314,"lat":44.4539},"population":202},{"code":"34071","name":"Ceilhes-et-Rocozels","department":"34","center":{"lng":3.0998,"lat":43.8093},"population":247},{"code":"34170","name":"Montouliers","department":"34","center":{"lng":2.9068,"lat":43.3356},"population":232},{"code":"34192","name":"Palavas-les-Flots","department":"34","center":{"lng":3.9346,"lat":43.5323},"population":6007},{"code":"34291","name":"Saint-Vincent-d'Olargues","department":"34","center":{"lng":2.8693,"lat":43.558},"population":354},{"code":"35061","name":"La Chapelle-Erbrée","department":"35","center":{"lng":-1.0963,"lat":48.1422},"population":723},{"code":"35160","name":"Loutehel","department":"35","center":{"lng":-2.0796,"lat":47.9366},"population":235},{"code":"35281","name":"Saint-Jacques-de-la-Lande","department":"35","center":{"lng":-1.7252,"lat":48.0779},"population":13593},{"code":"36051","name":"Chitray","department":"36","center":{"lng":1.3577,"lat":46.6608},"population":173},{"code":"36073","name":"Feusines","department":"36","center":{"lng":2.0987,"lat":46.5103},"population":208},{"code":"36095","name":"Lignerolles","department":"36","center":{"lng":2.1653,"lat":46.4994},"population":115},{"code":"36150","name":"Parnac","department":"36","center":{"lng":1.4607,"lat":46.441},"population":511},{"code":"36172","name":"Rivarennes","department":"36","center":{"lng":1.3781,"lat":46.6212},"population":491},{"code":"36194","name":"Saint-Genou","department":"36","center":{"lng":1.3473,"lat":46.9142},"population":939},{"code":"37041","name":"Bueil-en-Touraine","department":"37","center":{"lng":0.5528,"lat":47.6298},"population":325},{"code":"37063","name":"Château-Renault","department":"37","center":{"lng":0.9066,"lat":47.5927},"population":4560},{"code":"37085","name":"Courçay","department":"37","center":{"lng":0.8857,"lat":47.2504},"population":796},{"code":"37140","name":"Luzé","department":"37","center":{"lng":0.4719,"lat":47.0131},"population":274},{"code":"37162","name":"Mouzay","department":"37","center":{"lng":0.9052,"lat":47.1027},"population":462},{"code":"37184","name":"Le Petit-Pressigny","department":"37","center":{"lng":0.9108,"lat":46.9119},"population":307},{"code":"37261","name":"Tours","department":"37","center":{"lng":0.6949,"lat":47.3943},"population":138668},{"code":"38031","name":"Beaufin","department":"38","center":{"lng":5.9615,"lat":44.788},"population":20},{"code":"38053","name":"Bourgoin-Jallieu","department":"38","center":{"lng":5.2747,"lat":45.6025},"population":29816},{"code":"38075","name":"Chapareillan","department":"38","center":{"lng":5.9576,"lat":45.4623},"population":3049},{"code":"38097","name":"Chavanoz","department":"38","center":{"lng":5.1719,"lat":45.7696},"population":5090},{"code":"38130","name":"La Côte-Saint-André","department":"38","center":{"lng":5.2586,"lat":45.3844},"population":4793},{"code":"38152","name":"Eclose-Badinières","department":"38","center":{"lng":5.2987,"lat":45.4998},"population":1510},{"code":"38174","name":"La Frette","department":"38","center":{"lng":5.3665,"lat":45.39},"population":1092},{"code":"38273","name":"Nantes-en-Ratier","department":"38","center":{"lng":5.8285,"lat":44.9294},"population":468},{"code":"38295","name":"Parmilieu","department":"38","center":{"lng":5.3595,"lat":45.8437},"population":727},{"code":"38350","name":"Sainte-Agnès","department":"38","center":{"lng":5.9503,"lat":45.2096},"population":565},{"code":"38372","name":"Saint-Bueil","department":"38","center":{"lng":5.6807,"lat":45.475},"population":707},{"code":"38394","name":"Saint-Hilaire-du-Rosier","department":"38","center":{"lng":5.2466,"lat":45.0931},"population":1934},{"code":"38471","name":"Le Sappey-en-Chartreuse","department":"38","center":{"lng":5.7868,"lat":45.2617},"population":1154},{"code":"39021","name":"La Chailleuse","department":"39","center":{"lng":5.5233,"lat":46.5822},"population":590},{"code":"39043","name":"Beaufort-Orbagna","department":"39","center":{"lng":5.4355,"lat":46.5854},"population":1466},{"code":"39065","name":"Bonnefontaine","department":"39","center":{"lng":5.7536,"lat":46.7344},"population":110},{"code":"39120","name":"Châtelneuf","department":"39","center":{"lng":5.9117,"lat":46.664},"population":122},{"code":"39142","name":"Chevreaux","department":"39","center":{"lng":5.4218,"lat":46.4993},"population":126},{"code":"39164","name":"Conliège","department":"39","center":{"lng":5.6148,"lat":46.6513},"population":662},{"code":"39241","name":"Frébuans","department":"39","center":{"lng":5.4807,"lat":46.6485},"population":388},{"code":"39263","name":"Grozon","department":"39","center":{"lng":5.6909,"lat":46.8881},"population":384},{"code":"39285","name":"Lavans-lès-Dole","department":"39","center":{"lng":5.6399,"lat":47.1548},"population":327},{"code":"39362","name":"Montmorot","department":"39","center":{"lng":5.5136,"lat":46.685},"population":3207},{"code":"39461","name":"Rix","department":"39","center":{"lng":6.0536,"lat":46.7597},"population":77},{"code":"39560","name":"Villard-Saint-Sauveur","department":"39","center":{"lng":5.8627,"lat":46.3631},"population":582},{"code":"39582","name":"Voiteur","department":"39","center":{"lng":5.6014,"lat":46.7431},"population":784},{"code":"42090","name":"Essertines-en-Donzy","department":"42","center":{"lng":4.3374,"lat":45.7577},"population":479},{"code":"43080","name":"Craponne-sur-Arzon","department":"43","center":{"lng":3.8572,"lat":45.3332},"population":2004},{"code":"44070","name":"La Haie-Fouassière","department":"44","center":{"lng":-1.4033,"lat":47.1612},"population":4734},{"code":"44092","name":"Massérac","department":"44","center":{"lng":-1.9099,"lat":47.675},"population":670},{"code":"45060","name":"La Bussière","department":"45","center":{"lng":2.7481,"lat":47.7371},"population":761},{"code":"45082","name":"Châteauneuf-sur-Loire","department":"45","center":{"lng":2.2415,"lat":47.8829},"population":8470},{"code":"45181","name":"Léouville","department":"45","center":{"lng":2.0877,"lat":48.2238},"population":88},{"code":"45280","name":"Saint-Gondon","department":"45","center":{"lng":2.5389,"lat":47.6912},"population":1046},{"code":"46050","name":"Cambayrac","department":"46","center":{"lng":1.2929,"lat":44.4307},"population":135},{"code":"46072","name":"Concorès","department":"46","center":{"lng":1.3915,"lat":44.6695},"population":303},{"code":"46094","name":"Espédaillac","department":"46","center":{"lng":1.7742,"lat":44.6294},"population":282},{"code":"46171","name":"Lherm","department":"46","center":{"lng":1.2402,"lat":44.571},"population":234},{"code":"46193","name":"Miers","department":"46","center":{"lng":1.7054,"lat":44.859},"population":448},{"code":"46270","name":"Saint-Jean-de-Laur","department":"46","center":{"lng":1.8294,"lat":44.4346},"population":247},{"code":"46292","name":"Saint-Simon","department":"46","center":{"lng":1.8313,"lat":44.6997},"population":194},{"code":"47040","name":"Brax","department":"47","center":{"lng":0.5586,"lat":44.1993},"population":2103},{"code":"47062","name":"Cauzac","department":"47","center":{"lng":0.8242,"lat":44.2749},"population":413},{"code":"47084","name":"Douzains","department":"47","center":{"lng":0.5473,"lat":44.636},"population":261},{"code":"47161","name":"Massels","department":"47","center":{"lng":0.8558,"lat":44.3198},"population":118},{"code":"47183","name":"Montauriol","department":"47","center":{"lng":0.5797,"lat":44.6158},"population":222},{"code":"47260","name":"Saint-Maurin","department":"47","center":{"lng":0.8949,"lat":44.2185},"population":383},{"code":"47282","name":"Saint-Vincent-de-Lamontjoie","department":"47","center":{"lng":0.5018,"lat":44.095},"population":226},{"code":"48030","name":"Brenoux","department":"48","center":{"lng":3.5332,"lat":44.4872},"population":388},{"code":"48074","name":"Hures-la-Parade","department":"48","center":{"lng":3.3851,"lat":44.2479},"population":232},{"code":"48096","name":"Meyrueis","department":"48","center":{"lng":3.4644,"lat":44.1723},"population":778},{"code":"48151","name":"Saint-Frézal-d'Albuges","department":"48","center":{"lng":3.7653,"lat":44.5785},"population":61},{"code":"48173","name":"Saint-Michel-de-Dèze","department":"48","center":{"lng":3.881,"lat":44.247},"population":227},{"code":"49020","name":"Beaucouzé","department":"49","center":{"lng":-0.6358,"lat":47.4742},"population":5618},{"code":"49064","name":"Chambellay","department":"49","center":{"lng":-0.6948,"lat":47.6901},"population":409},{"code":"49086","name":"Terranjou","department":"49","center":{"lng":-0.443,"lat":47.269},"population":3885},{"code":"49163","name":"Jarzé Villages","department":"49","center":{"lng":-0.2563,"lat":47.5606},"population":2792},{"code":"49240","name":"La Plaine","department":"49","center":{"lng":-0.6294,"lat":47.0655},"population":1016},{"code":"49262","name":"Rou-Marson","department":"49","center":{"lng":-0.1529,"lat":47.2461},"population":644},{"code":"49284","name":"Saint-Germain-des-Prés","department":"49","center":{"lng":-0.8082,"lat":47.4099},"population":1396},{"code":"49361","name":"Varennes-sur-Loire","department":"49","center":{"lng":0.0371,"lat":47.2451},"population":1924},{"code":"54091","name":"Bouxières-sous-Froidmont","department":"54","center":{"lng":6.1015,"lat":48.9556},"population":420},{"code":"54190","name":"Fécocourt","department":"54","center":{"lng":5.998,"lat":48.4033},"population":106},{"code":"55081","name":"Brizeaux","department":"55","center":{"lng":5.0555,"lat":49.0054},"population":62},{"code":"55180","name":"Esnes-en-Argonne","department":"55","center":{"lng":5.2039,"lat":49.2098},"population":135},{"code":"56071","name":"Guéhenno","department":"56","center":{"lng":-2.6534,"lat":47.8868},"population":804},{"code":"56093","name":"Kergrist","department":"56","center":{"lng":-2.9292,"lat":48.1454},"population":713},{"code":"56170","name":"Plouray","department":"56","center":{"lng":-3.3753,"lat":48.1333},"population":1022},{"code":"57061","name":"Béning-lès-Saint-Avold","department":"57","center":{"lng":6.8368,"lat":49.1343},"population":1133},{"code":"57083","name":"Bining","department":"57","center":{"lng":7.2495,"lat":49.0272},"population":1173},{"code":"57160","name":"Creutzwald","department":"57","center":{"lng":6.6785,"lat":49.2113},"population":12389},{"code":"57182","name":"Donjeux","department":"57","center":{"lng":6.4116,"lat":48.8792},"population":93},{"code":"57281","name":"Haboudange","department":"57","center":{"lng":6.6029,"lat":48.8864},"population":231},{"code":"57380","name":"Laneuveville-lès-Lorquin","department":"57","center":{"lng":7.0078,"lat":48.6529},"population":105},{"code":"58051","name":"Challuy","department":"58","center":{"lng":3.1368,"lat":46.9446},"population":1468},{"code":"58073","name":"Chevroches","department":"58","center":{"lng":3.5445,"lat":47.4458},"population":114},{"code":"58095","name":"Decize","department":"58","center":{"lng":3.4695,"lat":46.809},"population":5025},{"code":"58150","name":"Lys","department":"58","center":{"lng":3.6003,"lat":47.3361},"population":105},{"code":"58172","name":"Montambert","department":"58","center":{"lng":3.689,"lat":46.7736},"population":116},{"code":"58194","name":"Nevers","department":"58","center":{"lng":3.1598,"lat":46.9852},"population":33172},{"code":"58271","name":"Saizy","department":"58","center":{"lng":3.698,"lat":47.3573},"population":187},{"code":"58293","name":"Toury-Lurcy","department":"58","center":{"lng":3.4218,"lat":46.7408},"population":406},{"code":"59041","name":"Bachant","department":"59","center":{"lng":3.8754,"lat":50.2078},"population":2246},{"code":"59063","name":"Beauvois-en-Cambrésis","department":"59","center":{"lng":3.3839,"lat":50.1407},"population":1948},{"code":"59085","name":"Blécourt","department":"59","center":{"lng":3.2134,"lat":50.2176},"population":309},{"code":"59140","name":"Caullery","department":"59","center":{"lng":3.3737,"lat":50.0817},"population":464},{"code":"59162","name":"Crochte","department":"59","center":{"lng":2.395,"lat":50.9196},"population":658},{"code":"59184","name":"Ebblinghem","department":"59","center":{"lng":2.4186,"lat":50.7365},"population":658},{"code":"59261","name":"Glageon","department":"59","center":{"lng":4.0638,"lat":50.0474},"population":1732},{"code":"59283","name":"Hargnies","department":"59","center":{"lng":3.8426,"lat":50.2557},"population":613},{"code":"59360","name":"Loos","department":"59","center":{"lng":3.0215,"lat":50.6078},"population":22948},{"code":"59382","name":"Maretz","department":"59","center":{"lng":3.421,"lat":50.0452},"population":1403},{"code":"59481","name":"Le Quesnoy","department":"59","center":{"lng":3.6234,"lat":50.2493},"population":4859},{"code":"59580","name":"Steenvoorde","department":"59","center":{"lng":2.5762,"lat":50.8225},"population":4308},{"code":"64090","name":"Baliracq-Maumusson","department":"64","center":{"lng":-0.2499,"lat":43.5422},"population":117},{"code":"65080","name":"Bénac","department":"65","center":{"lng":0.0299,"lat":43.153},"population":530},{"code":"66070","name":"Espira-de-Conflent","department":"66","center":{"lng":2.4923,"lat":42.6168},"population":220},{"code":"66092","name":"Lansac","department":"66","center":{"lng":2.5651,"lat":42.7685},"population":91},{"code":"66191","name":"Sansa","department":"66","center":{"lng":2.1788,"lat":42.6189},"population":31},{"code":"67060","name":"Bourgheim","department":"67","center":{"lng":7.4842,"lat":48.417},"population":643},{"code":"67082","name":"Dalhunden","department":"67","center":{"lng":7.988,"lat":48.7724},"population":1218},{"code":"67181","name":"Handschuheim","department":"67","center":{"lng":7.5772,"lat":48.5999},"population":278},{"code":"67280","name":"Maisonsgoutte","department":"67","center":{"lng":7.255,"lat":48.3553},"population":792},{"code":"68050","name":"Bréchaumont","department":"68","center":{"lng":7.0585,"lat":47.6637},"population":406},{"code":"68072","name":"Dietwiller","department":"68","center":{"lng":7.4284,"lat":47.6988},"population":1399},{"code":"68094","name":"Folgensbourg","department":"68","center":{"lng":7.4435,"lat":47.5387},"population":902},{"code":"68171","name":"Kruth","department":"68","center":{"lng":6.9622,"lat":47.9502},"population":883},{"code":"68193","name":"Luttenbach-près-Munster","department":"68","center":{"lng":7.1206,"lat":48.0117},"population":774},{"code":"68270","name":"Richwiller","department":"68","center":{"lng":7.2812,"lat":47.7843},"population":3786},{"code":"68292","name":"Saint-Amarin","department":"68","center":{"lng":7.0459,"lat":47.8877},"population":2184},{"code":"69040","name":"Champagne-au-Mont-d'Or","department":"69","center":{"lng":4.7864,"lat":45.8006},"population":6124},{"code":"69062","name":"Coise","department":"69","center":{"lng":4.4665,"lat":45.6133},"population":794},{"code":"69084","name":"Fleurie","department":"69","center":{"lng":4.6942,"lat":46.1953},"population":1351},{"code":"69161","name":"Propières","department":"69","center":{"lng":4.4503,"lat":46.1909},"population":477},{"code":"69183","name":"Saint-Bonnet-le-Troncy","department":"69","center":{"lng":4.4172,"lat":46.0781},"population":311},{"code":"69260","name":"Vernaison","department":"69","center":{"lng":4.8121,"lat":45.6464},"population":5175},{"code":"69282","name":"Meyzieu","department":"69","center":{"lng":5.0114,"lat":45.7785},"population":36437},{"code":"76091","name":"Beuzeville-la-Guérard","department":"76","center":{"lng":0.6121,"lat":49.7089},"population":236},{"code":"76190","name":"Crasville-la-Rocquefort","department":"76","center":{"lng":0.8752,"lat":49.8024},"population":207},{"code":"77081","name":"Champdeuil","department":"77","center":{"lng":2.7316,"lat":48.6223},"population":735},{"code":"77180","name":"Férolles-Attilly","department":"77","center":{"lng":2.6413,"lat":48.7342},"population":1251},{"code":"78071","name":"Boinville-le-Gaillard","department":"78","center":{"lng":1.8698,"lat":48.4958},"population":601},{"code":"78192","name":"Dammartin-en-Serve","department":"78","center":{"lng":1.6193,"lat":48.9125},"population":1417},{"code":"78291","name":"Guerville","department":"78","center":{"lng":1.7409,"lat":48.9544},"population":2088},{"code":"79061","name":"Celles-sur-Belle","department":"79","center":{"lng":-0.2292,"lat":46.2401},"population":3834},{"code":"79083","name":"Chef-Boutonne","department":"79","center":{"lng":-0.0966,"lat":46.1182},"population":2387},{"code":"79160","name":"Lusseray","department":"79","center":{"lng":-0.1708,"lat":46.1438},"population":175},{"code":"79281","name":"Saint-Maxire","department":"79","center":{"lng":-0.4803,"lat":46.3974},"population":1316},{"code":"80809","name":"Vismes","department":"80","center":{"lng":1.6749,"lat":50.0004},"population":473},{"code":"86090","name":"Curçay-sur-Dive","department":"86","center":{"lng":-0.0482,"lat":47.0097},"population":230},{"code":"87080","name":"Jouac","department":"87","center":{"lng":1.2592,"lat":46.3496},"population":189},{"code":"88070","name":"Bouxurulles","department":"88","center":{"lng":6.2304,"lat":48.3322},"population":178},{"code":"88092","name":"Charmois-l'Orgueilleux","department":"88","center":{"lng":6.2618,"lat":48.0904},"population":584},{"code":"88290","name":"Martigny-les-Gerbonvaux","department":"88","center":{"lng":5.7929,"lat":48.4471},"population":116},{"code":"89060","name":"Bussy-le-Repos","department":"89","center":{"lng":3.217,"lat":48.0613},"population":455},{"code":"89181","name":"Fournaudin","department":"89","center":{"lng":3.646,"lat":48.148},"population":130},{"code":"89280","name":"Nuits","department":"89","center":{"lng":4.1888,"lat":47.7224},"population":372}]