[{"code":"01013","name":"Arandas","department":"01","center":{"lng":5.4982,"lat":45.8885},"population":140},{"code":"01035","name":"Belleydoux","department":"01","center":{"lng":5.7816,"lat":46.2519},"population":306},{"code":"01057","name":"Boz","department":"01","center":{"lng":4.9166,"lat":46.4089},"population":509},{"code":"01079","name":"Champagne-en-Valromey","department":"01","center":{"lng":5.6921,"lat":45.9317},"population":826},{"code":"01112","name":"Condamine","department":"01","center":{"lng":5.5596,"lat":46.1056},"population":477},{"code":"01134","name":"Crottet","department":"01","center":{"lng":4.876,"lat":46.2848},"population":1844},{"code":"01156","name":"Faramans","department":"01","center":{"lng":5.126,"lat":45.9086},"population":905},{"code":"01211","name":"Lent","department":"01","center":{"lng":5.1974,"lat":46.1165},"population":1459},{"code":"01233","name":"Marchamp","department":"01","center":{"lng":5.5509,"lat":45.7762},"population":135},{"code":"01255","name":"Montagnieu","department":"01","center":{"lng":5.4598,"lat":45.802},"population":684},{"code":"01277","name":"Nivollet-Montgriffon","department":"01","center":{"lng":5.4567,"lat":46.0002},"population":119},{"code":"01299","name":"Le Plantay","department":"01","center":{"lng":5.0891,"lat":46.0236},"population":569},{"code":"01310","name":"Prémeyzel","department":"01","center":{"lng":5.6423,"lat":45.6827},"population":245},{"code":"01332","name":"Saint-André-de-Bâgé","department":"01","center":{"lng":4.9132,"lat":46.2975},"population":819},{"code":"01354","name":"Saint-Genis-Pouilly","department":"01","center":{"lng":6.0368,"lat":46.2556},"population":14584},{"code":"01376","name":"Saint-Maurice-de-Beynost","department":"01","center":{"lng":4.9763,"lat":45.8325},"population":4243},{"code":"01398","name":"Savigneux","department":"01","center":{"lng":4.8559,"lat":45.9946},"population":1459},{"code":"01431","name":"Vaux-en-Bugey","department":"01","center":{"lng":5.3612,"lat":45.9184},"population":1218},{"code":"01453","name":"Arvière-en-Valromey","department":"01","center":{"lng":5.7346,"lat":45.9153},"population":715},{"code":"02003","name":"Acy","department":"02","center":{"lng":3.4188,"lat":49.3476},"population":1013},{"code":"02025","name":"Artemps","department":"02","center":{"lng":3.196,"lat":49.7623},"population":363},{"code":"02047","name":"Barenton-Cel","department":"02","center":{"lng":3.6448,"lat":49.6466},"population":108},{"code":"02069","name":"Berlise","department":"02","center":{"lng":4.1104,"lat":49.6628},"population":104},{"code":"02102","name":"Bouconville-Vauclair","department":"02","center":{"lng":3.7609,"lat":49.4606},"population":184},{"code":"02124","name":"Brissy-Hamégicourt","department":"02","center":{"lng":3.4011,"lat":49.7458},"population":653},{"code":"02146","name":"Celles-lès-Condé","department":"02","center":{"lng":3.5703,"lat":49.0158},"population":94},{"code":"02168","name":"Château-Thierry","department":"02","center":{"lng":3.3784,"lat":49.0556},"population":15068},{"code":"02201","name":"Cœuvres-et-Valsery","department":"02","center":{"lng":3.1496,"lat":49.324},"population":466},{"code":"02223","name":"Courboin","department":"02","center":{"lng":3.5127,"lat":48.9956},"population":301},{"code":"02245","name":"Cuffies","department":"02","center":{"lng":3.3197,"lat":49.4086},"population":1760},{"code":"02267","name":"Dommiers","department":"02","center":{"lng":3.2165,"lat":49.3314},"population":306},{"code":"02289","name":"Essises","department":"02","center":{"lng":3.4162,"lat":48.9674},"population":412},{"code":"02322","name":"Fontaine-Notre-Dame","department":"02","center":{"lng":3.424,"lat":49.881},"population":379},{"code":"02366","name":"Hannapes","department":"02","center":{"lng":3.6163,"lat":49.9762},"population":327},{"code":"02388","name":"Iviers","department":"02","center":{"lng":4.1392,"lat":49.7881},"population":219},{"code":"02421","name":"Lesges","department":"02","center":{"lng":3.4982,"lat":49.308},"population":84},{"code":"02443","name":"Lucy-le-Bocage","department":"02","center":{"lng":3.2755,"lat":49.0556},"population":212},{"code":"02465","name":"Marigny-en-Orxois","department":"02","center":{"lng":3.2195,"lat":49.0551},"population":527},{"code":"02487","name":"Missy-sur-Aisne","department":"02","center":{"lng":3.4399,"lat":49.3849},"population":628},{"code":"02520","name":"Mont-Notre-Dame","department":"02","center":{"lng":3.5806,"lat":49.2933},"population":742},{"code":"02542","name":"Neuflieux","department":"02","center":{"lng":3.1596,"lat":49.6173},"population":78},{"code":"02564","name":"Bernoy-le-Château","department":"02","center":{"lng":3.3067,"lat":49.32},"population":840},{"code":"02586","name":"Parfondeval","department":"02","center":{"lng":4.1624,"lat":49.7431},"population":141},{"code":"02641","name":"Renneval","department":"02","center":{"lng":4.0411,"lat":49.7379},"population":127},{"code":"02663","name":"Rozières-sur-Crise","department":"02","center":{"lng":3.3644,"lat":49.3228},"population":234},{"code":"02685","name":"Saint-Nicolas-aux-Bois","department":"02","center":{"lng":3.4391,"lat":49.6005},"population":116},{"code":"02740","name":"Thenailles","department":"02","center":{"lng":3.9474,"lat":49.812},"population":221},{"code":"02762","name":"Vassens","department":"02","center":{"lng":3.1556,"lat":49.4745},"population":171},{"code":"02784","name":"Petit-Verly","department":"02","center":{"lng":3.5646,"lat":49.9609},"population":156},{"code":"03015","name":"Bagneux","department":"03","center":{"lng":3.2071,"lat":46.6477},"population":339},{"code":"03037","name":"Braize","department":"03","center":{"lng":2.6646,"lat":46.6619},"population":259},{"code":"03059","name":"Chareil-Cintrat","department":"03","center":{"lng":3.2328,"lat":46.2657},"population":385},{"code":"03114","name":"La Ferté-Hauterive","department":"03","center":{"lng":3.335,"lat":46.3997},"population":260},{"code":"03136","name":"Lamaids","department":"03","center":{"lng":2.441,"lat":46.302},"population":206},{"code":"03158","name":"Haut-Bocage","department":"03","center":{"lng":2.6895,"lat":46.4752},"population":850},{"code":"03213","name":"Reugny","department":"03","center":{"lng":2.6099,"lat":46.4579},"population":262},{"code":"03235","name":"Saint-Gérand-le-Puy","department":"03","center":{"lng":3.5164,"lat":46.261},"population":956},{"code":"03257","name":"Saint-Prix","department":"03","center":{"lng":3.6502,"lat":46.2256},"population":785},{"code":"03279","name":"Teillet-Argenty","department":"03","center":{"lng":2.5186,"lat":46.2644},"population":553},{"code":"03312","name":"Vieure","department":"03","center":{"lng":2.8749,"lat":46.4994},"population":276},{"code":"04005","name":"Allons","department":"04","center":{"lng":6.5929,"lat":43.9769},"population":125},{"code":"04027","name":"Bevons","department":"04","center":{"lng":5.8772,"lat":44.1753},"population":256},{"code":"04049","name":"Château-Arnoux-Saint-Auban","department":"04","center":{"lng":5.9942,"lat":44.0801},"population":5095},{"code":"04104","name":"Limans","department":"04","center":{"lng":5.7188,"lat":43.986},"population":387},{"code":"04126","name":"Montclar","department":"04","center":{"lng":6.3428,"lat":44.4004},"population":397},{"code":"04148","name":"Peyroules","department":"04","center":{"lng":6.6495,"lat":43.8168},"population":248},{"code":"04203","name":"Selonnet","department":"04","center":{"lng":6.299,"lat":44.3713},"population":451},{"code":"05017","name":"La Bâtie-Neuve","department":"05","center":{"lng":6.2151,"lat":44.5817},"population":2611},{"code":"05039","name":"Aubessagne","department":"05","center":{"lng":6.0311,"lat":44.739},"population":743},{"code":"05116","name":"Réotier","department":"05","center":{"lng":6.5468,"lat":44.6788},"population":213},{"code":"06007","name":"Auribeau-sur-Siagne","department":"06","center":{"lng":6.9118,"lat":43.6105},"population":3346},{"code":"06029","name":"Cannes","department":"06","center":{"lng":7.0152,"lat":43.5454},"population":74040},{"code":"06106","name":"Roquestéron","department":"06","center":{"lng":7.0232,"lat":43.8696},"population":557},{"code":"06128","name":"Saint-Paul-de-Vence","department":"06","center":{"lng":7.1196,"lat":43.6928},"population":3190},{"code":"07019","name":"Aubenas","department":"07","center":{"lng":4.3942,"lat":44.6107},"population":12488},{"code":"07118","name":"Laboule","department":"07","center":{"lng":4.1718,"lat":44.5928},"population":144},{"code":"07217","name":"Saint-Barthélemy-le-Plain","department":"07","center":{"lng":4.7455,"lat":45.0493},"population":859},{"code":"07239","name":"Saint-Genest-Lachamp","department":"07","center":{"lng":4.4249,"lat":44.8458},"population":112},{"code":"07316","name":"Soyons","department":"07","center":{"lng":4.8504,"lat":44.8919},"population":2298},{"code":"07338","name":"Vernoux-en-Vivarais","department":"07","center":{"lng":4.6443,"lat":44.9069},"population":1985},{"code":"08207","name":"Ham-sur-Meuse","department":"08","center":{"lng":4.7836,"lat":50.0867},"population":226},{"code":"08229","name":"Houdilcourt","department":"08","center":{"lng":4.1255,"lat":49.4239},"population":143},{"code":"08306","name":"Mont-Laurent","department":"08","center":{"lng":4.4828,"lat":49.463},"population":51},{"code":"08328","name":"Nouzonville","department":"08","center":{"lng":4.7538,"lat":49.8174},"population":5548},{"code":"08405","name":"Sauville","department":"08","center":{"lng":4.7889,"lat":49.5514},"population":240},{"code":"08427","name":"Sorbon","department":"08","center":{"lng":4.3639,"lat":49.5527},"population":222},{"code":"08449","name":"Thin-le-Moutier","department":"08","center":{"lng":4.5134,"lat":49.7162},"population":682},{"code":"09219","name":"Orgibet","department":"09","center":{"lng":0.9386,"lat":42.9289},"population":164},{"code":"09318","name":"Unac","department":"09","center":{"lng":1.7826,"lat":42.7571},"population":127},{"code":"10022","name":"Avirey-Lingey","department":"10","center":{"lng":4.2912,"lat":48.0341},"population":198},{"code":"10044","name":"Bétignicourt","department":"10","center":{"lng":4.4557,"lat":48.4492},"population":33},{"code":"10066","name":"Bucey-en-Othe","department":"10","center":{"lng":3.8721,"lat":48.2592},"population":433},{"code":"10121","name":"Dampierre","department":"10","center":{"lng":4.3653,"lat":48.5677},"population":343},{"code":"10143","name":"Étourvy","department":"10","center":{"lng":4.1302,"lat":47.9494},"population":144},{"code":"10165","name":"Géraudot","department":"10","center":{"lng":4.3202,"lat":48.3017},"population":339},{"code":"10187","name":"Landreville","department":"10","center":{"lng":4.4659,"lat":48.0755},"population":385},{"code":"10220","name":"Maizières-la-Grande-Paroisse","department":"10","center":{"lng":3.7911,"lat":48.5041},"population":1521},{"code":"10242","name":"Meurville","department":"10","center":{"lng":4.61,"lat":48.2066},"population":155},{"code":"10264","name":"Noé-les-Mallets","department":"10","center":{"lng":4.5592,"lat":48.0974},"population":104},{"code":"10286","name":"Petit-Mesnil","department":"10","center":{"lng":4.6152,"lat":48.3416},"population":202},{"code":"10341","name":"Saint-Hilaire-sous-Romilly","department":"10","center":{"lng":3.6569,"lat":48.4988},"population":339},{"code":"10363","name":"Saint-Thibault","department":"10","center":{"lng":4.1478,"lat":48.1989},"population":551},{"code":"10440","name":"Voigny","department":"10","center":{"lng":4.7676,"lat":48.2351},"population":141},{"code":"11012","name":"Argeliers","department":"11","center":{"lng":2.9137,"lat":43.309},"population":2128},{"code":"11034","name":"Belvèze-du-Razès","department":"11","center":{"lng":2.0891,"lat":43.1236},"population":841},{"code":"11056","name":"Cabrespine","department":"11","center":{"lng":2.4771,"lat":43.3746},"population":179},{"code":"11078","name":"Castelreng","department":"11","center":{"lng":2.1254,"lat":43.0208},"population":207},{"code":"11111","name":"Cruscades","department":"11","center":{"lng":2.8179,"lat":43.2011},"population":940},{"code":"11133","name":"Fajac-en-Val","department":"11","center":{"lng":2.4663,"lat":43.1203},"population":51},{"code":"11155","name":"Fourtou","department":"11","center":{"lng":2.443,"lat":42.9106},"population":78},{"code":"11177","name":"Joucou","department":"11","center":{"lng":2.0854,"lat":42.8244},"population":30},{"code":"11199","name":"Lavalette","department":"11","center":{"lng":2.2717,"lat":43.1932},"population":1572},{"code":"11210","name":"Luc-sur-Orbieu","department":"11","center":{"lng":2.7886,"lat":43.1743},"population":1159},{"code":"11232","name":"Miraval-Cabardès","department":"11","center":{"lng":2.3377,"lat":43.3848},"population":55},{"code":"11254","name":"Montréal","department":"11","center":{"lng":2.1448,"lat":43.1967},"population":2116},{"code":"11276","name":"Paziols","department":"11","center":{"lng":2.7135,"lat":42.8552},"population":528},{"code":"11331","name":"Saint-Amans","department":"11","center":{"lng":1.8842,"lat":43.2306},"population":62},{"code":"11353","name":"Saint-Marcel-sur-Aude","department":"11","center":{"lng":2.929,"lat":43.252},"population":2019},{"code":"11375","name":"Seignalens","department":"11","center":{"lng":1.9673,"lat":43.098},"population":30},{"code":"11397","name":"Trèbes","department":"11","center":{"lng":2.4653,"lat":43.209},"population":5386},{"code":"11430","name":"Villeneuve-la-Comptal","department":"11","center":{"lng":1.9175,"lat":43.284},"population":1424},{"code":"12002","name":"Aguessac","department":"12","center":{"lng":3.0669,"lat":44.1584},"population":924},{"code":"12024","name":"Belcastel","department":"12","center":{"lng":2.331,"lat":44.397},"population":190},{"code":"12046","name":"Camjac","department":"12","center":{"lng":2.3985,"lat":44.1739},"population":575},{"code":"12068","name":"Colombiès","department":"12","center":{"lng":2.3262,"lat":44.3443},"population":880},{"code":"12101","name":"Flagnac","department":"12","center":{"lng":2.2631,"lat":44.5924},"population":1081},{"code":"12145","name":"Millau","department":"12","center":{"lng":3.1176,"lat":44.0982},"population":21859},{"code":"12167","name":"Najac","department":"12","center":{"lng":1.9584,"lat":44.2087},"population":736},{"code":"12189","name":"Pradinas","department":"12","center":{"lng":2.2676,"lat":44.2485},"population":359},{"code":"12200","name":"Rivière-sur-Tarn","department":"12","center":{"lng":3.1302,"lat":44.2136},"population":1045},{"code":"12222","name":"Saint-Félix-de-Sorgues","department":"12","center":{"lng":2.9894,"lat":43.8823},"population":193},{"code":"12244","name":"Saint-Rome-de-Tarn","department":"12","center":{"lng":2.8923,"lat":44.0362},"population":899},{"code":"12266","name":"Ségur","department":"12","center":{"lng":2.834,"lat":44.2879},"population":540},{"code":"12288","name":"Valady","department":"12","center":{"lng":2.4412,"lat":44.4462},"population":1617},{"code":"13014","name":"Berre-l'Étang","department":"13","center":{"lng":5.1596,"lat":43.4976},"population":13941},{"code":"13036","name":"Eyragues","department":"13","center":{"lng":4.8423,"lat":43.8414},"population":4289},{"code":"13058","name":"Maussane-les-Alpilles","department":"13","center":{"lng":4.838,"lat":43.7158},"population":2396},{"code":"13113","name":"Venelles","department":"13","center":{"lng":5.4991,"lat":43.5951},"population":8420},{"code":"14026","name":"Audrieu","department":"14","center":{"lng":-0.6015,"lat":49.2046},"population":1156},{"code":"14103","name":"Le Breuil-en-Bessin","department":"14","center":{"lng":-0.8581,"lat":49.2547},"population":411},{"code":"14125","name":"Cambes-en-Plaine","department":"14","center":{"lng":-0.3843,"lat":49.2308},"population":1804},{"code":"14147","name":"Cernay","department":"14","center":{"lng":0.3244,"lat":49.0155},"population":138},{"code":"14169","name":"Colombiers-sur-Seulles","department":"14","center":{"lng":-0.5021,"lat":49.2996},"population":153},{"code":"14202","name":"Cricquebœuf","department":"14","center":{"lng":0.1386,"lat":49.392},"population":266},{"code":"14224","name":"Deux-Jumeaux","department":"14","center":{"lng":-0.9678,"lat":49.3554},"population":56},{"code":"14246","name":"Escoville","department":"14","center":{"lng":-0.2474,"lat":49.2062},"population":851},{"code":"14301","name":"Giberville","department":"14","center":{"lng":-0.2863,"lat":49.1765},"population":4956},{"code":"14345","name":"Jort","department":"14","center":{"lng":-0.08,"lat":48.9751},"population":303},{"code":"14367","name":"Lison","department":"14","center":{"lng":-1.0557,"lat":49.2437},"population":438},{"code":"14389","name":"Maisoncelles-Pelvey","department":"14","center":{"lng":-0.6715,"lat":49.0598},"population":251},{"code":"14400","name":"Le Manoir","department":"14","center":{"lng":-0.6014,"lat":49.2903},"population":200},{"code":"14466","name":"Norolles","department":"14","center":{"lng":0.2376,"lat":49.2025},"population":350},{"code":"14488","name":"Ouistreham","department":"14","center":{"lng":-0.2565,"lat":49.2709},"population":9261},{"code":"14543","name":"Rots","department":"14","center":{"lng":-0.4913,"lat":49.2153},"population":2541},{"code":"14565","name":"Saint-Côme-de-Fresné","department":"14","center":{"lng":-0.6023,"lat":49.3231},"population":252},{"code":"14587","name":"Saint-Germain-la-Blanche-Herbe","department":"14","center":{"lng":-0.4227,"lat":49.1961},"population":2493},{"code":"14620","name":"Saint-Martin-aux-Chartrains","department":"14","center":{"lng":0.1547,"lat":49.3057},"population":427},{"code":"14664","name":"Sallen","department":"14","center":{"lng":-0.8438,"lat":49.1171},"population":320},{"code":"14741","name":"Le Vey","department":"14","center":{"lng":-0.4598,"lat":48.9177},"population":130},{"code":"15016","name":"Ayrens","department":"15","center":{"lng":2.3266,"lat":44.9907},"population":618},{"code":"15038","name":"Champs-sur-Tarentaine-Marchal","department":"15","center":{"lng":2.6053,"lat":45.4043},"population":1028},{"code":"15137","name":"Moussages","department":"15","center":{"lng":2.4741,"lat":45.2389},"population":251},{"code":"15159","name":"Raulhac","department":"15","center":{"lng":2.6573,"lat":44.9022},"population":273},{"code":"15214","name":"Saint-Saury","department":"15","center":{"lng":2.124,"lat":44.877},"population":178},{"code":"15236","name":"Thiézac","department":"15","center":{"lng":2.667,"lat":45.0198},"population":596},{"code":"15258","name":"Vic-sur-Cère","department":"15","center":{"lng":2.6294,"lat":44.9687},"population":1908},{"code":"16028","name":"Barbezieux-Saint-Hilaire","department":"16","center":{"lng":-0.1554,"lat":45.4811},"population":4738},{"code":"16105","name":"Condéon","department":"16","center":{"lng":-0.138,"lat":45.4034},"population":609},{"code":"16127","name":"Empuré","department":"16","center":{"lng":0.0507,"lat":46.0252},"population":96},{"code":"16204","name":"Bellevigne","department":"16","center":{"lng":-0.1185,"lat":45.5566},"population":1274},{"code":"16248","name":"Oradour","department":"16","center":{"lng":-0.0379,"lat":45.9134},"population":155},{"code":"16303","name":"Saint-Bonnet","department":"16","center":{"lng":-0.0895,"lat":45.4701},"population":407},{"code":"16325","name":"Saint-Gourson","department":"16","center":{"lng":0.309,"lat":45.951},"population":131},{"code":"16347","name":"Saint-Romain","department":"16","center":{"lng":0.1322,"lat":45.2846},"population":513},{"code":"16369","name":"Sigogne","department":"16","center":{"lng":-0.1737,"lat":45.7318},"population":965},{"code":"16402","name":"Vibrac","department":"16","center":{"lng":-0.0588,"lat":45.6433},"population":294},{"code":"16424","name":"Yviers","department":"16","center":{"lng":-0.0191,"lat":45.2711},"population":536},{"code":"17018","name":"Ardillières","department":"17","center":{"lng":-0.8937,"lat":46.0449},"population":877},{"code":"17117","name":"Contré","department":"17","center":{"lng":-0.2632,"lat":46.0128},"population":136},{"code":"17139","name":"Dœuil-sur-le-Mignon","department":"17","center":{"lng":-0.5468,"lat":46.1247},"population":373},{"code":"17216","name":"Lussant","department":"17","center":{"lng":-0.8235,"lat":45.9429},"population":1013},{"code":"17315","name":"Saint-Christophe","department":"17","center":{"lng":-0.9502,"lat":46.1477},"population":1405},{"code":"17337","name":"Saint-Georges-d'Oléron","department":"17","center":{"lng":-1.3147,"lat":45.9745},"population":4052},{"code":"17359","name":"Saint-Mard","department":"17","center":{"lng":-0.6961,"lat":46.0931},"population":1244},{"code":"17414","name":"Saint-Xandre","department":"17","center":{"lng":-1.0924,"lat":46.2131},"population":5531},{"code":"17436","name":"Taillebourg","department":"17","center":{"lng":-0.6372,"lat":45.8458},"population":782},{"code":"17458","name":"Vanzac","department":"17","center":{"lng":-0.3009,"lat":45.3555},"population":191},{"code":"18008","name":"Arçay","department":"18","center":{"lng":2.3365,"lat":46.9638},"population":488},{"code":"18107","name":"La Groutte","department":"18","center":{"lng":2.5117,"lat":46.6891},"population":119},{"code":"18129","name":"Lissay-Lochy","department":"18","center":{"lng":2.3915,"lat":46.975},"population":226},{"code":"18206","name":"Saint-Éloy-de-Gy","department":"18","center":{"lng":2.3273,"lat":47.1671},"population":1569},{"code":"18228","name":"Saint-Outrille","department":"18","center":{"lng":1.8095,"lat":47.1414},"population":215},{"code":"19119","name":"Lostanges","department":"19","center":{"lng":1.7726,"lat":45.0683},"population":152},{"code":"21011","name":"Ampilly-les-Bordes","department":"21","center":{"lng":4.6272,"lat":47.6404},"population":81},{"code":"21033","name":"Aubigny-lès-Sombernon","department":"21","center":{"lng":4.6425,"lat":47.2991},"population":170},{"code":"21055","name":"Beaunotte","department":"21","center":{"lng":4.7175,"lat":47.6817},"population":15},{"code":"21077","name":"Bissey-la-Côte","department":"21","center":{"lng":4.7054,"lat":47.9182},"population":132},{"code":"21099","name":"Bouze-lès-Beaune","department":"21","center":{"lng":4.7731,"lat":47.0566},"population":306},{"code":"21110","name":"Brochon","department":"21","center":{"lng":4.9701,"lat":47.2373},"population":662},{"code":"21132","name":"Chambœuf","department":"21","center":{"lng":4.9025,"lat":47.2276},"population":384},{"code":"21154","name":"Châtillon-sur-Seine","department":"21","center":{"lng":4.582,"lat":47.8593},"population":5404},{"code":"21176","name":"Civry-en-Montagne","department":"21","center":{"lng":4.6073,"lat":47.2871},"population":129},{"code":"21198","name":"Corrombles","department":"21","center":{"lng":4.2024,"lat":47.5192},"population":242},{"code":"21231","name":"Dijon","department":"21","center":{"lng":5.0322,"lat":47.3319},"population":159941},{"code":"21253","name":"Étalante","department":"21","center":{"lng":4.7657,"lat":47.6286},"population":128},{"code":"21275","name":"Foncegrive","department":"21","center":{"lng":5.1409,"lat":47.6184},"population":128},{"code":"21297","name":"Gilly-lès-Cîteaux","department":"21","center":{"lng":4.9956,"lat":47.1748},"population":729},{"code":"21330","name":"Labergement-Foigney","department":"21","center":{"lng":5.2468,"lat":47.2565},"population":379},{"code":"21352","name":"Longeault-Pluvault","department":"21","center":{"lng":5.2464,"lat":47.2099},"population":1154},{"code":"21374","name":"Maligny","department":"21","center":{"lng":4.5037,"lat":47.0814},"population":175},{"code":"21396","name":"Mauvilly","department":"21","center":{"lng":4.713,"lat":47.7101},"population":65},{"code":"21451","name":"Nesle-et-Massoult","department":"21","center":{"lng":4.428,"lat":47.7787},"population":79},{"code":"21473","name":"Ouges","department":"21","center":{"lng":5.0775,"lat":47.2589},"population":1505},{"code":"21495","name":"Pont","department":"21","center":{"lng":5.323,"lat":47.1817},"population":158},{"code":"21550","name":"Saint-Germain-lès-Senailly","department":"21","center":{"lng":4.2828,"lat":47.5988},"population":113},{"code":"21572","name":"Saint-Seine-en-Bâche","department":"21","center":{"lng":5.3751,"lat":47.1138},"population":407},{"code":"21594","name":"Savoisy","department":"21","center":{"lng":4.3942,"lat":47.737},"population":195},{"code":"21671","name":"Vertault","department":"21","center":{"lng":4.3289,"lat":47.9271},"population":50},{"code":"21693","name":"Villedieu","department":"21","center":{"lng":4.3818,"lat":47.905},"population":70},{"code":"22001","name":"Allineuc","department":"22","center":{"lng":-2.8693,"lat":48.3147},"population":592},{"code":"22023","name":"Bulat-Pestivien","department":"22","center":{"lng":-3.3347,"lat":48.4317},"population":409},{"code":"22045","name":"Cohiniac","department":"22","center":{"lng":-2.9464,"lat":48.4513},"population":397},{"code":"22067","name":"Grâces","department":"22","center":{"lng":-3.1847,"lat":48.5478},"population":2588},{"code":"22122","name":"Laurenan","department":"22","center":{"lng":-2.5092,"lat":48.214},"population":742},{"code":"22144","name":"La Méaugon","department":"22","center":{"lng":-2.8472,"lat":48.5036},"population":1326},{"code":"22166","name":"Penvénan","department":"22","center":{"lng":-3.3016,"lat":48.8223},"population":2548},{"code":"22188","name":"Plerneuf","department":"22","center":{"lng":-2.8824,"lat":48.5051},"population":1119},{"code":"22221","name":"Plouguiel","department":"22","center":{"lng":-3.2455,"lat":48.8065},"population":1745},{"code":"22243","name":"Plusquellec","department":"22","center":{"lng":-3.4821,"lat":48.3968},"population":557},{"code":"22265","name":"Rospez","department":"22","center":{"lng":-3.3862,"lat":48.7385},"population":1790},{"code":"22287","name":"Saint-Donan","department":"22","center":{"lng":-2.8856,"lat":48.4633},"population":1467},{"code":"22320","name":"Saint-Nicodème","department":"22","center":{"lng":-3.342,"lat":48.3602},"population":168},{"code":"22342","name":"Trébédan","department":"22","center":{"lng":-2.1622,"lat":48.4056},"population":439},{"code":"22364","name":"Trélivan","department":"22","center":{"lng":-2.1025,"lat":48.427},"population":2875},{"code":"22386","name":"Le Vieux-Bourg","department":"22","center":{"lng":-2.997,"lat":48.3902},"population":760},{"code":"23013","name":"Auzances","department":"23","center":{"lng":2.5011,"lat":46.0274},"population":1153},{"code":"23035","name":"Budelière","department":"23","center":{"lng":2.4741,"lat":46.2187},"population":713},{"code":"23057","name":"Châtelus-Malvaleix","department":"23","center":{"lng":2.0285,"lat":46.2961},"population":545},{"code":"23079","name":"Felletin","department":"23","center":{"lng":2.187,"lat":45.8942},"population":1552},{"code":"23112","name":"Lourdoueix-Saint-Pierre","department":"23","center":{"lng":1.8234,"lat":46.3928},"population":720},{"code":"23134","name":"Le Monteil-au-Vicomte","department":"23","center":{"lng":1.9477,"lat":45.9064},"population":217},{"code":"23156","name":"Pontcharraud","department":"23","center":{"lng":2.2755,"lat":45.8638},"population":83},{"code":"23178","name":"Saint-Agnant-près-Crocq","department":"23","center":{"lng":2.3366,"lat":45.806},"population":186},{"code":"23211","name":"Saint-Marc-à-Frongier","department":"23","center":{"lng":2.1095,"lat":45.9161},"population":427},{"code":"23233","name":"Saint-Pierre-le-Bost","department":"23","center":{"lng":2.2592,"lat":46.3957},"population":119},{"code":"23255","name":"Trois-Fonds","department":"23","center":{"lng":2.2362,"lat":46.2398},"population":132},{"code":"24025","name":"Bars","department":"24","center":{"lng":1.0492,"lat":45.0949},"population":243},{"code":"24069","name":"Bussac","department":"24","center":{"lng":0.606,"lat":45.2699},"population":385},{"code":"24102","name":"Chancelade","department":"24","center":{"lng":0.6539,"lat":45.2107},"population":4442},{"code":"24124","name":"Clermont-d'Excideuil","department":"24","center":{"lng":1.0475,"lat":45.3631},"population":248},{"code":"24146","name":"Creyssensac-et-Pissot","department":"24","center":{"lng":0.6688,"lat":45.0718},"population":266},{"code":"24168","name":"Plaisance","department":"24","center":{"lng":0.5596,"lat":44.6962},"population":410},{"code":"24223","name":"Lalinde","department":"24","center":{"lng":0.7442,"lat":44.858},"population":2936},{"code":"24245","name":"Loubejac","department":"24","center":{"lng":1.0705,"lat":44.6042},"population":256},{"code":"24267","name":"Mescoules","department":"24","center":{"lng":0.4246,"lat":44.7424},"population":178},{"code":"24289","name":"Montcaret","department":"24","center":{"lng":0.0686,"lat":44.8656},"population":1405},{"code":"24300","name":"Nabirat","department":"24","center":{"lng":1.291,"lat":44.7667},"population":350},{"code":"24322","name":"Périgueux","department":"24","center":{"lng":0.7105,"lat":45.1939},"population":29876},{"code":"24366","name":"Saint-André-d'Allas","department":"24","center":{"lng":1.1496,"lat":44.8905},"population":885},{"code":"24388","name":"Saint-Chamassy","department":"24","center":{"lng":0.932,"lat":44.8784},"population":496},{"code":"24421","name":"Saint-Geyrac","department":"24","center":{"lng":0.9078,"lat":45.0688},"population":192},{"code":"24443","name":"Saint-Léon-sur-Vézère","department":"24","center":{"lng":1.0821,"lat":45.0224},"population":430},{"code":"24465","name":"Saint-Michel-de-Double","department":"24","center":{"lng":0.2714,"lat":45.0977},"population":228},{"code":"24487","name":"Saint-Pierre-d'Eyraud","department":"24","center":{"lng":0.3209,"lat":44.8776},"population":1801},{"code":"24520","name":"Sarlat-la-Canéda","department":"24","center":{"lng":1.1994,"lat":44.906},"population":8786},{"code":"24542","name":"Soulaures","department":"24","center":{"lng":0.9188,"lat":44.6406},"population":70},{"code":"24564","name":"Vanxains","department":"24","center":{"lng":0.2889,"lat":45.2208},"population":692},{"code":"24586","name":"Villetoureix","department":"24","center":{"lng":0.3592,"lat":45.2736},"population":893},{"code":"25015","name":"Amancey","department":"25","center":{"lng":6.0719,"lat":47.034},"population":731},{"code":"25059","name":"Beutal","department":"25","center":{"lng":6.6371,"lat":47.4763},"population":269},{"code":"25114","name":"Chamesol","department":"25","center":{"lng":6.8499,"lat":47.3434},"population":386},{"code":"25136","name":"Chaucenne","department":"25","center":{"lng":5.8974,"lat":47.2835},"population":513},{"code":"25213","name":"Les Écorces","department":"25","center":{"lng":6.799,"lat":47.2053},"population":766},{"code":"25235","name":"Ferrières-les-Bois","department":"25","center":{"lng":5.8019,"lat":47.2088},"population":326},{"code":"25257","name":"Franey","department":"25","center":{"lng":5.8174,"lat":47.2584},"population":267},{"code":"25279","name":"Gouhelans","department":"25","center":{"lng":6.3622,"lat":47.4532},"population":118},{"code":"25312","name":"Hyèvre-Magny","department":"25","center":{"lng":6.43,"lat":47.3616},"population":63},{"code":"25334","name":"Levier","department":"25","center":{"lng":6.1196,"lat":46.9655},"population":2345},{"code":"25356","name":"Maîche","department":"25","center":{"lng":6.7915,"lat":47.2412},"population":4226},{"code":"25378","name":"Meslières","department":"25","center":{"lng":6.8942,"lat":47.4185},"population":330},{"code":"25411","name":"Morteau","department":"25","center":{"lng":6.5891,"lat":47.0643},"population":6905},{"code":"25433","name":"Orgeans-Blanchefontaine","department":"25","center":{"lng":6.7554,"lat":47.2675},"population":40},{"code":"25455","name":"Placey","department":"25","center":{"lng":5.8481,"lat":47.258},"population":193},{"code":"25477","name":"Rancenay","department":"25","center":{"lng":5.945,"lat":47.1843},"population":421},{"code":"25499","name":"Romain","department":"25","center":{"lng":6.3785,"lat":47.4445},"population":119},{"code":"25510","name":"Ruffey-le-Château","department":"25","center":{"lng":5.8058,"lat":47.2818},"population":366},{"code":"25532","name":"Saône","department":"25","center":{"lng":6.1126,"lat":47.2131},"population":3142},{"code":"25554","name":"Surmont","department":"25","center":{"lng":6.6074,"lat":47.2775},"population":123},{"code":"25598","name":"Venise","department":"25","center":{"lng":6.1164,"lat":47.3485},"population":518},{"code":"25631","name":"Vorges-les-Pins","department":"25","center":{"lng":5.93,"lat":47.1525},"population":571},{"code":"26005","name":"Allan","department":"26","center":{"lng":4.8036,"lat":44.4968},"population":1927},{"code":"26027","name":"Barsac","department":"26","center":{"lng":5.3056,"lat":44.7275},"population":152},{"code":"26049","name":"Bésayes","department":"26","center":{"lng":5.0902,"lat":44.9687},"population":1309},{"code":"26104","name":"Cornillac","department":"26","center":{"lng":5.4018,"lat":44.4392},"population":90},{"code":"26126","name":"Eygalayes","department":"26","center":{"lng":5.5908,"lat":44.2223},"population":90},{"code":"26148","name":"Hauterives","department":"26","center":{"lng":5.0341,"lat":45.251},"population":1895},{"code":"26203","name":"Montjoyer","department":"26","center":{"lng":4.8816,"lat":44.4825},"population":277},{"code":"26225","name":"Parnans","department":"26","center":{"lng":5.1603,"lat":45.1125},"population":701},{"code":"26247","name":"Ponsas","department":"26","center":{"lng":4.8421,"lat":45.1547},"population":527},{"code":"26269","name":"Rochebrune","department":"26","center":{"lng":5.2379,"lat":44.3272},"population":52},{"code":"26302","name":"Sainte-Eulalie-en-Royans","department":"26","center":{"lng":5.3439,"lat":45.0426},"population":542},{"code":"26324","name":"Saint-Paul-Trois-Châteaux","department":"26","center":{"lng":4.7617,"lat":44.3489},"population":8776},{"code":"26346","name":"Suze","department":"26","center":{"lng":5.1065,"lat":44.7567},"population":247},{"code":"26368","name":"Vercheny","department":"26","center":{"lng":5.2503,"lat":44.7135},"population":450},{"code":"27017","name":"Angerville-la-Campagne","department":"27","center":{"lng":1.1575,"lat":48.9876},"population":1404},{"code":"27039","name":"Barneville-sur-Seine","department":"27","center":{"lng":0.8469,"lat":49.3832},"population":530},{"code":"27116","name":"Brionne","department":"27","center":{"lng":0.7073,"lat":49.1834},"population":4220},{"code":"27138","name":"Chamblac","department":"27","center":{"lng":0.5652,"lat":48.9895},"population":359},{"code":"27215","name":"Ecquetot","department":"27","center":{"lng":1.0143,"lat":49.1706},"population":388},{"code":"27237","name":"Le Favril","department":"27","center":{"lng":0.526,"lat":49.1828},"population":183},{"code":"27259","name":"Foucrainville","department":"27","center":{"lng":1.3221,"lat":48.9259},"population":92},{"code":"27336","name":"La Heunière","department":"27","center":{"lng":1.4135,"lat":49.0638},"population":454},{"code":"27358","name":"Jouy-sur-Eure","department":"27","center":{"lng":1.2917,"lat":49.0486},"population":558},{"code":"27413","name":"Montfort-sur-Risle","department":"27","center":{"lng":0.6701,"lat":49.2942},"population":778},{"code":"27435","name":"La Noë-Poulain","department":"27","center":{"lng":0.5193,"lat":49.2707},"population":251},{"code":"27457","name":"Piseux","department":"27","center":{"lng":0.9629,"lat":48.7727},"population":691},{"code":"27512","name":"Saint-Aubin-de-Scellon","department":"27","center":{"lng":0.4735,"lat":49.1783},"population":330},{"code":"27534","name":"Saint-Didier-des-Bois","department":"27","center":{"lng":1.0345,"lat":49.244},"population":895},{"code":"27556","name":"Saint-Laurent-du-Tencement","department":"27","center":{"lng":0.4621,"lat":48.8912},"population":66},{"code":"27578","name":"Sainte-Marie-d'Attez","department":"27","center":{"lng":0.9743,"lat":48.8028},"population":579},{"code":"27611","name":"Saint-Vigor","department":"27","center":{"lng":1.2576,"lat":49.0762},"population":312},{"code":"27633","name":"Les Thilliers-en-Vexin","department":"27","center":{"lng":1.6033,"lat":49.2366},"population":493},{"code":"27655","name":"Tourville-sur-Pont-Audemer","department":"27","center":{"lng":0.5166,"lat":49.3227},"population":722},{"code":"27677","name":"Venon","department":"27","center":{"lng":1.0514,"lat":49.1738},"population":389},{"code":"27699","name":"Voiscreville","department":"27","center":{"lng":0.7677,"lat":49.2807},"population":117},{"code":"28007","name":"Anet","department":"28","center":{"lng":1.4432,"lat":48.851},"population":2708},{"code":"28029","name":"Bazoches-les-Hautes","department":"28","center":{"lng":1.825,"lat":48.1622},"population":328},{"code":"28106","name":"Conie-Molitard","department":"28","center":{"lng":1.4448,"lat":48.1131},"population":389},{"code":"28128","name":"Dangers","department":"28","center":{"lng":1.3505,"lat":48.5082},"population":433},{"code":"28227","name":"Maintenon","department":"28","center":{"lng":1.5815,"lat":48.5828},"population":4532},{"code":"28249","name":"Mévoisins","department":"28","center":{"lng":1.5997,"lat":48.5524},"population":622},{"code":"28304","name":"Prasville","department":"28","center":{"lng":1.7145,"lat":48.271},"population":449},{"code":"28326","name":"Saint-Avit-les-Guespières","department":"28","center":{"lng":1.2602,"lat":48.2673},"population":347},{"code":"28348","name":"Saint-Lubin-des-Joncherets","department":"28","center":{"lng":1.1923,"lat":48.7465},"population":4129},{"code":"28403","name":"Ver-lès-Chartres","department":"28","center":{"lng":1.4841,"lat":48.379},"population":776},{"code":"28425","name":"Ymeray","department":"28","center":{"lng":1.7049,"lat":48.508},"population":574},{"code":"29019","name":"Brest","department":"29","center":{"lng":-4.4996,"lat":48.4085},"population":140993},{"code":"29217","name":"Pont-Aven","department":"29","center":{"lng":-3.7651,"lat":47.8742},"population":2796},{"code":"29239","name":"Roscoff","department":"29","center":{"lng":-3.9866,"lat":48.7135},"population":3318},{"code":"30020","name":"Aubord","department":"30","center":{"lng":4.3162,"lat":43.7533},"population":2296},{"code":"30042","name":"Boisset-et-Gaujac","department":"30","center":{"lng":4.0282,"lat":44.0508},"population":2621},{"code":"30064","name":"Campestre-et-Luc","department":"30","center":{"lng":3.4064,"lat":43.9397},"population":153},{"code":"30086","name":"Collorgues","department":"30","center":{"lng":4.2901,"lat":44.0146},"population":670},{"code":"30141","name":"Laudun-l'Ardoise","department":"30","center":{"lng":4.6615,"lat":44.1051},"population":6673},{"code":"30163","name":"Mauressargues","department":"30","center":{"lng":4.1625,"lat":43.9547},"population":177},{"code":"30185","name":"Mus","department":"30","center":{"lng":4.203,"lat":43.737},"population":1597},{"code":"30240","name":"Saint-Césaire-de-Gauzignan","department":"30","center":{"lng":4.2019,"lat":44.036},"population":390},{"code":"30262","name":"Saint-Hippolyte-de-Montaigu","department":"30","center":{"lng":4.494,"lat":44.0334},"population":249},{"code":"30284","name":"Saint-Martin-de-Valgalgues","department":"30","center":{"lng":4.0797,"lat":44.1648},"population":4721},{"code":"31010","name":"Antignac","department":"31","center":{"lng":0.5876,"lat":42.8305},"population":86},{"code":"31032","name":"Aussonne","department":"31","center":{"lng":1.3278,"lat":43.6841},"population":7731},{"code":"31054","name":"Beauteville","department":"31","center":{"lng":1.7336,"lat":43.349},"population":199},{"code":"31076","name":"Bordes-de-Rivière","department":"31","center":{"lng":0.6347,"lat":43.1241},"population":460},{"code":"31098","name":"Cadours","department":"31","center":{"lng":1.0489,"lat":43.725},"population":1134},{"code":"31131","name":"Cazaunous","department":"31","center":{"lng":0.722,"lat":42.9854},"population":65},{"code":"31153","name":"Couladère","department":"31","center":{"lng":1.0935,"lat":43.1962},"population":413},{"code":"31175","name":"Estancarbon","department":"31","center":{"lng":0.7833,"lat":43.1094},"population":615},{"code":"31197","name":"Franquevielle","department":"31","center":{"lng":0.5304,"lat":43.1333},"population":328},{"code":"31230","name":"Gratentour","department":"31","center":{"lng":1.4333,"lat":43.7206},"population":4926},{"code":"31252","name":"Labastide-Saint-Sernin","department":"31","center":{"lng":1.4667,"lat":43.7369},"population":1946},{"code":"31274","name":"Larcan","department":"31","center":{"lng":0.7197,"lat":43.171},"population":180},{"code":"31296","name":"Lestelle-de-Saint-Martory","department":"31","center":{"lng":0.9042,"lat":43.1177},"population":434},{"code":"31351","name":"Mondonville","department":"31","center":{"lng":1.2735,"lat":43.6691},"population":6003},{"code":"31373","name":"Montesquieu-Guittaut","department":"31","center":{"lng":0.7649,"lat":43.3366},"population":171},{"code":"31395","name":"Muret","department":"31","center":{"lng":1.2987,"lat":43.4407},"population":25653},{"code":"31450","name":"Renneville","department":"31","center":{"lng":1.7224,"lat":43.3803},"population":539},{"code":"31472","name":"Saint-Bertrand-de-Comminges","department":"31","center":{"lng":0.5562,"lat":43.0229},"population":233},{"code":"31494","name":"Saint-Laurent","department":"31","center":{"lng":0.8007,"lat":43.3255},"population":177},{"code":"31571","name":"Vendine","department":"31","center":{"lng":1.7651,"lat":43.5904},"population":276},{"code":"31593","name":"Cazac","department":"31","center":{"lng":0.9562,"lat":43.3467},"population":78},{"code":"32022","name":"Avéron-Bergelle","department":"32","center":{"lng":0.0647,"lat":43.7581},"population":182},{"code":"32044","name":"Béraut","department":"32","center":{"lng":0.4106,"lat":43.9221},"population":296},{"code":"32066","name":"Brugnens","department":"32","center":{"lng":0.7192,"lat":43.844},"population":255},{"code":"32088","name":"Castillon-Debats","department":"32","center":{"lng":0.2277,"lat":43.7287},"population":333},{"code":"32121","name":"Endoufielle","department":"32","center":{"lng":1.0196,"lat":43.5489},"population":516},{"code":"32143","name":"Gazaupouy","department":"32","center":{"lng":0.472,"lat":44.0129},"population":245},{"code":"32165","name":"Juilles","department":"32","center":{"lng":0.8268,"lat":43.6071},"population":229},{"code":"32187","name":"Lamazère","department":"32","center":{"lng":0.452,"lat":43.5625},"population":130},{"code":"32220","name":"Luppé-Violles","department":"32","center":{"lng":-0.1399,"lat":43.7351},"population":132},{"code":"32242","name":"Masseube","department":"32","center":{"lng":0.5857,"lat":43.4268},"population":1525},{"code":"32264","name":"Monclar","department":"32","center":{"lng":-0.0998,"lat":43.9143},"population":225},{"code":"32286","name":"Montestruc-sur-Gers","department":"32","center":{"lng":0.632,"lat":43.7941},"population":700},{"code":"32341","name":"Réjaumont","department":"32","center":{"lng":0.5481,"lat":43.8147},"population":247},{"code":"32363","name":"Sainte-Aurence-Cazaux","department":"32","center":{"lng":0.4274,"lat":43.3736},"population":90},{"code":"32385","name":"Saint-Léonard","department":"32","center":{"lng":0.7694,"lat":43.8559},"population":185},{"code":"32440","name":"Tasque","department":"32","center":{"lng":0.0121,"lat":43.6372},"population":245},{"code":"32462","name":"Vic-Fezensac","department":"32","center":{"lng":0.2903,"lat":43.7662},"population":3578},{"code":"33012","name":"Arsac","department":"33","center":{"lng":-0.7018,"lat":44.9869},"population":4040},{"code":"33034","name":"Bayas","department":"33","center":{"lng":-0.2048,"lat":45.0736},"population":455},{"code":"33056","name":"Blanquefort","department":"33","center":{"lng":-0.61,"lat":44.9216},"population":16786},{"code":"33078","name":"Cabara","department":"33","center":{"lng":-0.1612,"lat":44.8299},"population":512},{"code":"33111","name":"Caudrot","department":"33","center":{"lng":-0.1447,"lat":44.5845},"population":1096},{"code":"33133","name":"Coubeyrac","department":"33","center":{"lng":0.0512,"lat":44.7835},"population":70},{"code":"33155","name":"Escaudes","department":"33","center":{"lng":-0.2043,"lat":44.3174},"population":167},{"code":"33177","name":"Gaillan-en-Médoc","department":"33","center":{"lng":-0.9946,"lat":45.3135},"population":2376},{"code":"33199","name":"Gujan-Mestras","department":"33","center":{"lng":-1.0813,"lat":44.5758},"population":22643},{"code":"33210","name":"Juillac","department":"33","center":{"lng":0.0524,"lat":44.8136},"population":218},{"code":"33232","name":"Lartigue","department":"33","center":{"lng":-0.0883,"lat":44.2517},"population":41},{"code":"33254","name":"Loupiac-de-la-Réole","department":"33","center":{"lng":-0.044,"lat":44.5432},"population":545},{"code":"33276","name":"Masseilles","department":"33","center":{"lng":-0.0586,"lat":44.4009},"population":137},{"code":"33298","name":"Moulon","department":"33","center":{"lng":-0.2207,"lat":44.8616},"population":1056},{"code":"33331","name":"Pondaurat","department":"33","center":{"lng":-0.079,"lat":44.531},"population":456},{"code":"33353","name":"Rimons","department":"33","center":{"lng":0.0129,"lat":44.6738},"population":196},{"code":"33375","name":"Saint-Aubin-de-Branne","department":"33","center":{"lng":-0.1679,"lat":44.8113},"population":380},{"code":"33397","name":"Sainte-Eulalie","department":"33","center":{"lng":-0.48,"lat":44.9027},"population":4922},{"code":"33452","name":"Saint-Michel-de-Rieufret","department":"33","center":{"lng":-0.4453,"lat":44.6273},"population":879},{"code":"33474","name":"Saint-Selve","department":"33","center":{"lng":-0.4726,"lat":44.6574},"population":3668},{"code":"33496","name":"Sallebœuf","department":"33","center":{"lng":-0.392,"lat":44.8423},"population":2771},{"code":"33551","name":"Villeneuve","department":"33","center":{"lng":-0.641,"lat":45.0797},"population":408},{"code":"34002","name":"Adissan","department":"34","center":{"lng":3.4254,"lat":43.5358},"population":1347},{"code":"34024","name":"Balaruc-le-Vieux","department":"34","center":{"lng":3.6971,"lat":43.465},"population":2749},{"code":"34046","name":"Cambon-et-Salvergues","department":"34","center":{"lng":2.8877,"lat":43.6249},"population":51},{"code":"34068","name":"Cazouls-d'Hérault","department":"34","center":{"lng":3.4566,"lat":43.4996},"population":413},{"code":"34101","name":"Florensac","department":"34","center":{"lng":3.4617,"lat":43.382},"population":5138},{"code":"34123","name":"Juvignac","department":"34","center":{"lng":3.7908,"lat":43.6173},"population":13776},{"code":"34145","name":"Lunel","department":"34","center":{"lng":4.1329,"lat":43.678},"population":26380},{"code":"34167","name":"Montels","department":"34","center":{"lng":3.0294,"lat":43.2889},"population":243},{"code":"34189","name":"Olonzac","department":"34","center":{"lng":2.7431,"lat":43.2816},"population":1683},{"code":"34200","name":"Pézènes-les-Mines","department":"34","center":{"lng":3.2444,"lat":43.6002},"population":236},{"code":"34222","name":"Puilacher","department":"34","center":{"lng":3.5036,"lat":43.5655},"population":644},{"code":"34244","name":"Saint-Brès","department":"34","center":{"lng":4.0377,"lat":43.6656},"population":3462},{"code":"34266","name":"Saint-Jean-de-Cuculles","department":"34","center":{"lng":3.8347,"lat":43.7535},"population":532},{"code":"34288","name":"Saint-Sériès","department":"34","center":{"lng":4.1069,"lat":43.7365},"population":972},{"code":"34321","name":"Valergues","department":"34","center":{"lng":4.0572,"lat":43.6718},"population":2173},{"code":"34343","name":"Viols-le-Fort","department":"34","center":{"lng":3.6901,"lat":43.735},"population":1223},{"code":"35014","name":"Bais","department":"35","center":{"lng":-1.2989,"lat":48.0089},"population":2511},{"code":"35058","name":"La Chapelle-Chaussée","department":"35","center":{"lng":-1.8653,"lat":48.2688},"population":1299},{"code":"35135","name":"Irodouër","department":"35","center":{"lng":-1.9497,"lat":48.2433},"population":2308},{"code":"35157","name":"Le Loroux","department":"35","center":{"lng":-1.0811,"lat":48.398},"population":618},{"code":"35179","name":"Miniac-Morvan","department":"35","center":{"lng":-1.896,"lat":48.5215},"population":4379},{"code":"35212","name":"Pancé","department":"35","center":{"lng":-1.643,"lat":47.889},"population":1171},{"code":"35234","name":"Quédillac","department":"35","center":{"lng":-2.1422,"lat":48.2386},"population":1272},{"code":"35256","name":"Saint-Briac-sur-Mer","department":"35","center":{"lng":-2.13,"lat":48.6172},"population":2228},{"code":"35278","name":"Saint-Grégoire","department":"35","center":{"lng":-1.6815,"lat":48.1598},"population":9992},{"code":"35311","name":"Saint-Séglin","department":"35","center":{"lng":-2.024,"lat":47.8503},"population":600},{"code":"35333","name":"Le Theil-de-Bretagne","department":"35","center":{"lng":-1.4213,"lat":47.9148},"population":1720},{"code":"35355","name":"Vieux-Vy-sur-Couesnon","department":"35","center":{"lng":-1.5007,"lat":48.3339},"population":1280},{"code":"36004","name":"Anjouin","department":"36","center":{"lng":1.8077,"lat":47.202},"population":315},{"code":"36026","name":"Brion","department":"36","center":{"lng":1.7253,"lat":46.9473},"population":595},{"code":"36048","name":"Chavin","department":"36","center":{"lng":1.6109,"lat":46.565},"population":270},{"code":"36103","name":"Luçay-le-Mâle","department":"36","center":{"lng":1.4211,"lat":47.1175},"population":1315},{"code":"36125","name":"Migny","department":"36","center":{"lng":2.0552,"lat":47.0189},"population":110},{"code":"36147","name":"Orville","department":"36","center":{"lng":1.7777,"lat":47.1457},"population":141},{"code":"36169","name":"Pruniers","department":"36","center":{"lng":2.0636,"lat":46.7824},"population":497},{"code":"36202","name":"Saint-Maur","department":"36","center":{"lng":1.6203,"lat":46.8109},"population":3589},{"code":"36224","name":"Tournon-Saint-Martin","department":"36","center":{"lng":0.9814,"lat":46.7321},"population":1120},{"code":"36246","name":"Villiers","department":"36","center":{"lng":1.2039,"lat":46.8823},"population":174},{"code":"37016","name":"Azay-sur-Indre","department":"37","center":{"lng":0.9413,"lat":47.2043},"population":363},{"code":"37038","name":"Bréhémont","department":"37","center":{"lng":0.359,"lat":47.2886},"population":728},{"code":"37115","name":"Descartes","department":"37","center":{"lng":0.6871,"lat":46.9958},"population":3289},{"code":"37137","name":"Lublé","department":"37","center":{"lng":0.2607,"lat":47.5245},"population":140},{"code":"37159","name":"Monts","department":"37","center":{"lng":0.6429,"lat":47.2723},"population":8031},{"code":"37214","name":"Saint-Cyr-sur-Loire","department":"37","center":{"lng":0.6554,"lat":47.4188},"population":16766},{"code":"37236","name":"Saint-Règle","department":"37","center":{"lng":1.0321,"lat":47.4102},"population":626},{"code":"37258","name":"Thizay","department":"37","center":{"lng":0.1409,"lat":47.165},"population":302},{"code":"38006","name":"Allevard","department":"38","center":{"lng":6.1189,"lat":45.3776},"population":3962},{"code":"38105","name":"Chirens","department":"38","center":{"lng":5.5587,"lat":45.4148},"population":2510},{"code":"38127","name":"Cornillon-en-Trièves","department":"38","center":{"lng":5.6991,"lat":44.8405},"population":169},{"code":"38149","name":"Domarin","department":"38","center":{"lng":5.2491,"lat":45.5827},"population":1670},{"code":"38204","name":"Lalley","department":"38","center":{"lng":5.6816,"lat":44.7507},"population":183},{"code":"38226","name":"Mens","department":"38","center":{"lng":5.754,"lat":44.8116},"population":1431},{"code":"38248","name":"Montaud","department":"38","center":{"lng":5.5652,"lat":45.2614},"population":529},{"code":"38303","name":"La Pierre","department":"38","center":{"lng":5.9428,"lat":45.2943},"population":648},{"code":"38325","name":"Proveysieux","department":"38","center":{"lng":5.7154,"lat":45.2821},"population":519},{"code":"38347","name":"Roybon","department":"38","center":{"lng":5.2547,"lat":45.2435},"population":1103},{"code":"38369","name":"Sainte-Blandine","department":"38","center":{"lng":5.436,"lat":45.545},"population":1020},{"code":"38402","name":"Saint-Jean-de-Vaulx","department":"38","center":{"lng":5.7498,"lat":45.0217},"population":526},{"code":"38424","name":"Saint-Maurice-en-Trièves","department":"38","center":{"lng":5.6573,"lat":44.7585},"population":179},{"code":"38446","name":"Saint-Pierre-d'Entremont","department":"38","center":{"lng":5.8523,"lat":45.3835},"population":576},{"code":"38468","name":"Salaise-sur-Sanne","department":"38","center":{"lng":4.8028,"lat":45.3432},"population":4548},{"code":"38501","name":"Tencin","department":"38","center":{"lng":5.9617,"lat":45.3103},"population":2132},{"code":"38523","name":"Varacieux","department":"38","center":{"lng":5.3409,"lat":45.2277},"population":864},{"code":"38545","name":"Vif","department":"38","center":{"lng":5.6712,"lat":45.043},"population":8557},{"code":"38567","name":"Chamrousse","department":"38","center":{"lng":5.9009,"lat":45.1177},"population":438},{"code":"39018","name":"Aromas","department":"39","center":{"lng":5.4871,"lat":46.3135},"population":584},{"code":"39117","name":"Chatelay","department":"39","center":{"lng":5.6971,"lat":47.0535},"population":100},{"code":"39139","name":"Chêne-Bernard","department":"39","center":{"lng":5.4744,"lat":46.9162},"population":80},{"code":"39216","name":"Étival","department":"39","center":{"lng":5.7981,"lat":46.4912},"population":310},{"code":"39238","name":"Frasne-les-Meulières","department":"39","center":{"lng":5.5022,"lat":47.1966},"population":106},{"code":"39315","name":"Marnoz","department":"39","center":{"lng":5.8383,"lat":46.9551},"population":379},{"code":"39337","name":"Molamboz","department":"39","center":{"lng":5.6806,"lat":46.9521},"population":88},{"code":"39359","name":"Montmarlon","department":"39","center":{"lng":5.971,"lat":46.8731},"population":33},{"code":"39436","name":"Pont-d'Héry","department":"39","center":{"lng":5.9019,"lat":46.8794},"population":243},{"code":"39458","name":"Revigny","department":"39","center":{"lng":5.6079,"lat":46.6225},"population":236},{"code":"39513","name":"Sermange","department":"39","center":{"lng":5.6458,"lat":47.1985},"population":236},{"code":"39535","name":"Tourmont","department":"39","center":{"lng":5.665,"lat":46.8655},"population":445},{"code":"39557","name":"Vescles","department":"39","center":{"lng":5.6105,"lat":46.3547},"population":183},{"code":"39579","name":"Viry","department":"39","center":{"lng":5.7312,"lat":46.3035},"population":893},{"code":"40041","name":"Beyries","department":"40","center":{"lng":-0.6423,"lat":43.5669},"population":123},{"code":"40063","name":"Candresse","department":"40","center":{"lng":-0.9775,"lat":43.7108},"population":869},{"code":"40085","name":"Commensacq","department":"40","center":{"lng":-0.8272,"lat":44.2082},"population":434},{"code":"40140","name":"Lagrange","department":"40","center":{"lng":-0.0866,"lat":43.9661},"population":190},{"code":"40162","name":"Lucbardez-et-Bargues","department":"40","center":{"lng":-0.4143,"lat":43.9746},"population":564},{"code":"40184","name":"Mimizan","department":"40","center":{"lng":-1.2323,"lat":44.1996},"population":7449},{"code":"40261","name":"Saint-Geours-de-Maremne","department":"40","center":{"lng":-1.2348,"lat":43.6854},"population":2946},{"code":"40283","name":"Saint-Vincent-de-Paul","department":"40","center":{"lng":-0.9965,"lat":43.7726},"population":3384},{"code":"41031","name":"Cellettes","department":"41","center":{"lng":1.3814,"lat":47.5263},"population":2700},{"code":"41053","name":"Choue","department":"41","center":{"lng":0.9344,"lat":47.9918},"population":515},{"code":"41075","name":"Droué","department":"41","center":{"lng":1.0685,"lat":48.029},"population":1027},{"code":"41097","name":"Gièvres","department":"41","center":{"lng":1.67,"lat":47.2898},"population":2290},{"code":"41130","name":"Maves","department":"41","center":{"lng":1.3572,"lat":47.7429},"population":680},{"code":"41152","name":"Montrieux-en-Sologne","department":"41","center":{"lng":1.709,"lat":47.556},"population":636},{"code":"41174","name":"Périgny","department":"41","center":{"lng":1.1486,"lat":47.7523},"population":168},{"code":"41196","name":"Ruan-sur-Egvonne","department":"41","center":{"lng":1.1359,"lat":48.0119},"population":80},{"code":"41251","name":"Souvigny-en-Sologne","department":"41","center":{"lng":2.1732,"lat":47.6427},"population":509},{"code":"41273","name":"Vievy-le-Rayé","department":"41","center":{"lng":1.2936,"lat":47.8681},"population":466},{"code":"41295","name":"Vineuil","department":"41","center":{"lng":1.3886,"lat":47.5855},"population":8050},{"code":"42021","name":"Boisset-Saint-Priest","department":"42","center":{"lng":4.1192,"lat":45.5124},"population":1284},{"code":"42043","name":"Chambœuf","department":"42","center":{"lng":4.3126,"lat":45.5737},"population":1782},{"code":"42065","name":"Civens","department":"42","center":{"lng":4.2333,"lat":45.7682},"population":1450},{"code":"42087","name":"Écotay-l'Olme","department":"42","center":{"lng":4.0452,"lat":45.5878},"population":1299},{"code":"42120","name":"Lentigny","department":"42","center":{"lng":3.9756,"lat":45.993},"population":1794},{"code":"42142","name":"Merle-Leignec","department":"42","center":{"lng":4.028,"lat":45.3678},"population":326},{"code":"42164","name":"Palogneux","department":"42","center":{"lng":3.9257,"lat":45.7442},"population":69},{"code":"42186","name":"Rive-de-Gier","department":"42","center":{"lng":4.6175,"lat":45.5211},"population":15457},{"code":"42241","name":"Saint-Jodard","department":"42","center":{"lng":4.1294,"lat":45.8887},"population":392},{"code":"42285","name":"Saint-Romain-le-Puy","department":"42","center":{"lng":4.1317,"lat":45.5564},"population":4121},{"code":"43011","name":"Aubazat","department":"43","center":{"lng":3.4501,"lat":45.1265},"population":177},{"code":"43033","name":"Blesle","department":"43","center":{"lng":3.1762,"lat":45.3107},"population":618},{"code":"43055","name":"Chaniat","department":"43","center":{"lng":3.472,"lat":45.3173},"population":164},{"code":"43077","name":"Costaros","department":"43","center":{"lng":3.8456,"lat":44.8919},"population":552},{"code":"43099","name":"Frugerès-les-Mines","department":"43","center":{"lng":3.3082,"lat":45.3868},"population":551},{"code":"43110","name":"Lamothe","department":"43","center":{"lng":3.4309,"lat":45.3159},"population":828},{"code":"43132","name":"Mazeyrat-d'Allier","department":"43","center":{"lng":3.5307,"lat":45.1314},"population":1426},{"code":"43154","name":"Pradelles","department":"43","center":{"lng":3.8719,"lat":44.7651},"population":535},{"code":"43198","name":"Saint-Jean-Lachalm","department":"43","center":{"lng":3.7222,"lat":44.9447},"population":303},{"code":"43231","name":"Salettes","department":"43","center":{"lng":3.9741,"lat":44.8655},"population":154},{"code":"43253","name":"Les Vastres","department":"43","center":{"lng":4.2732,"lat":44.9927},"population":191},{"code":"44001","name":"Abbaretz","department":"44","center":{"lng":-1.4929,"lat":47.5546},"population":2052},{"code":"44023","name":"Bouvron","department":"44","center":{"lng":-1.8691,"lat":47.42},"population":3067},{"code":"44045","name":"Cordemais","department":"44","center":{"lng":-1.8349,"lat":47.2918},"population":3954},{"code":"44067","name":"Guémené-Penfao","department":"44","center":{"lng":-1.8223,"lat":47.6412},"population":5242},{"code":"44089","name":"Malville","department":"44","center":{"lng":-1.8451,"lat":47.3441},"population":3689},{"code":"44100","name":"Monnières","department":"44","center":{"lng":-1.35,"lat":47.1202},"population":2341},{"code":"44122","name":"Petit-Mars","department":"44","center":{"lng":-1.457,"lat":47.4063},"population":3865},{"code":"44144","name":"Riaillé","department":"44","center":{"lng":-1.3095,"lat":47.5209},"population":2358},{"code":"44166","name":"Saint-Jean-de-Boiseau","department":"44","center":{"lng":-1.7198,"lat":47.1919},"population":6024},{"code":"44188","name":"Saint-Philbert-de-Grand-Lieu","department":"44","center":{"lng":-1.6443,"lat":47.0689},"population":9392},{"code":"44221","name":"La Chevallerais","department":"44","center":{"lng":-1.6658,"lat":47.4774},"population":1559},{"code":"45013","name":"Augerville-la-Rivière","department":"45","center":{"lng":2.4193,"lat":48.2542},"population":216},{"code":"45035","name":"Boiscommun","department":"45","center":{"lng":2.3576,"lat":48.039},"population":1142},{"code":"45079","name":"Le Charme","department":"45","center":{"lng":2.9914,"lat":47.8032},"population":149},{"code":"45112","name":"La Cour-Marigny","department":"45","center":{"lng":2.5851,"lat":47.8923},"population":367},{"code":"45134","name":"Épieds-en-Beauce","department":"45","center":{"lng":1.6066,"lat":47.9633},"population":1446},{"code":"45156","name":"Girolles","department":"45","center":{"lng":2.7217,"lat":48.0705},"population":599},{"code":"45178","name":"Ladon","department":"45","center":{"lng":2.5327,"lat":48.0098},"population":1394},{"code":"45233","name":"Ondreville-sur-Essonne","department":"45","center":{"lng":2.4176,"lat":48.1985},"population":403},{"code":"45255","name":"Préfontaines","department":"45","center":{"lng":2.6889,"lat":48.1063},"population":429},{"code":"45277","name":"Saint-Florent","department":"45","center":{"lng":2.458,"lat":47.6865},"population":445},{"code":"45299","name":"Saint-Sigismond","department":"45","center":{"lng":1.6683,"lat":47.9834},"population":270},{"code":"45310","name":"Sermaises","department":"45","center":{"lng":2.2055,"lat":48.2956},"population":1703},{"code":"45332","name":"Varennes-Changy","department":"45","center":{"lng":2.6632,"lat":47.8647},"population":1483},{"code":"46003","name":"Alvignac","department":"46","center":{"lng":1.6927,"lat":44.8383},"population":694},{"code":"46047","name":"Calès","department":"46","center":{"lng":1.5494,"lat":44.7968},"population":165},{"code":"46069","name":"Cézac","department":"46","center":{"lng":1.3426,"lat":44.3481},"population":178},{"code":"46102","name":"Figeac","department":"46","center":{"lng":2.0231,"lat":44.6067},"population":9757},{"code":"46124","name":"Glanes","department":"46","center":{"lng":1.8724,"lat":44.9187},"population":296},{"code":"46146","name":"Ladirat","department":"46","center":{"lng":1.9701,"lat":44.8252},"population":89},{"code":"46168","name":"Lentillac-Saint-Blaise","department":"46","center":{"lng":2.1185,"lat":44.5902},"population":191},{"code":"46201","name":"Montcuq-en-Quercy-Blanc","department":"46","center":{"lng":1.1768,"lat":44.349},"population":1812},{"code":"46223","name":"Pontcirq","department":"46","center":{"lng":1.2634,"lat":44.5472},"population":182},{"code":"46245","name":"Sabadel-Lauzès","department":"46","center":{"lng":1.6089,"lat":44.5581},"population":91},{"code":"46267","name":"Saint-Germain-du-Bel-Air","department":"46","center":{"lng":1.4342,"lat":44.6447},"population":604},{"code":"46289","name":"Saint-Pierre-Toirac","department":"46","center":{"lng":1.9544,"lat":44.5361},"population":164},{"code":"46322","name":"Trespoux-Rassiels","department":"46","center":{"lng":1.3573,"lat":44.4255},"population":828},{"code":"47015","name":"Astaffort","department":"47","center":{"lng":0.654,"lat":44.0607},"population":2002},{"code":"47037","name":"Bournel","department":"47","center":{"lng":0.6822,"lat":44.6315},"population":252},{"code":"47059","name":"Caubon-Saint-Sauveur","department":"47","center":{"lng":0.1892,"lat":44.5929},"population":263},{"code":"47114","name":"Grézet-Cavagnan","department":"47","center":{"lng":0.1287,"lat":44.3797},"population":403},{"code":"47136","name":"Laperche","department":"47","center":{"lng":0.4156,"lat":44.5453},"population":141},{"code":"47158","name":"Marmont-Pachas","department":"47","center":{"lng":0.5871,"lat":44.0956},"population":165},{"code":"47213","name":"Prayssas","department":"47","center":{"lng":0.5185,"lat":44.2943},"population":995},{"code":"47235","name":"Saint-Colomb-de-Lauzun","department":"47","center":{"lng":0.4741,"lat":44.6063},"population":474},{"code":"47257","name":"Saint-Martin-Petit","department":"47","center":{"lng":0.0921,"lat":44.5683},"population":624},{"code":"47279","name":"Saint-Sixte","department":"47","center":{"lng":0.7806,"lat":44.1269},"population":356},{"code":"47312","name":"Tournon-d'Agenais","department":"47","center":{"lng":0.989,"lat":44.3922},"population":742},{"code":"48005","name":"Antrenas","department":"48","center":{"lng":3.2544,"lat":44.5894},"population":330},{"code":"48027","name":"Mont Lozère et Goulet","department":"48","center":{"lng":3.749,"lat":44.5099},"population":1107},{"code":"48104","name":"Nasbinals","department":"48","center":{"lng":3.0462,"lat":44.646},"population":576},{"code":"48126","name":"Lachamp-Ribennes","department":"48","center":{"lng":3.3849,"lat":44.6275},"population":375},{"code":"48148","name":"Saint-Étienne-Vallée-Française","department":"48","center":{"lng":3.8492,"lat":44.1736},"population":494},{"code":"49017","name":"Baracé","department":"49","center":{"lng":-0.3563,"lat":47.6416},"population":629},{"code":"49138","name":"Les Bois d'Anjou","department":"49","center":{"lng":-0.1695,"lat":47.4536},"population":2531},{"code":"49215","name":"Montreuil-Bellay","department":"49","center":{"lng":-0.1246,"lat":47.1295},"population":3716},{"code":"49237","name":"La Pellerine","department":"49","center":{"lng":0.1347,"lat":47.4578},"population":137},{"code":"49259","name":"Rochefort-sur-Loire","department":"49","center":{"lng":-0.6594,"lat":47.3462},"population":2332},{"code":"49336","name":"Somloire","department":"49","center":{"lng":-0.597,"lat":47.0356},"population":875},{"code":"49358","name":"Turquant","department":"49","center":{"lng":0.017,"lat":47.2131},"population":569},{"code":"50040","name":"Beauficel","department":"50","center":{"lng":-0.9616,"lat":48.7416},"population":119},{"code":"50062","name":"Boisyvon","department":"50","center":{"lng":-1.1316,"lat":48.8066},"population":100},{"code":"50084","name":"Bricqueville-la-Blouette","department":"50","center":{"lng":-1.4755,"lat":49.0382},"population":533},{"code":"50161","name":"Le Dézert","department":"50","center":{"lng":-1.1661,"lat":49.2088},"population":605},{"code":"50183","name":"Fierville-les-Mines","department":"50","center":{"lng":-1.6652,"lat":49.3948},"population":349},{"code":"50260","name":"Juvigny les Vallées","department":"50","center":{"lng":-1.0161,"lat":48.679},"population":1678},{"code":"50282","name":"Le Luot","department":"50","center":{"lng":-1.3329,"lat":48.7621},"population":285},{"code":"50480","name":"Saint-Germain-le-Gaillard","department":"50","center":{"lng":-1.7762,"lat":49.4887},"population":795},{"code":"51030","name":"Aÿ-Champagne","department":"51","center":{"lng":4.0414,"lat":49.0561},"population":5148},{"code":"51052","name":"Berru","department":"51","center":{"lng":4.1631,"lat":49.2711},"population":618},{"code":"51074","name":"Boult-sur-Suippe","department":"51","center":{"lng":4.1517,"lat":49.3774},"population":1793},{"code":"51151","name":"Chichey","department":"51","center":{"lng":3.7527,"lat":48.6854},"population":170},{"code":"51173","name":"Cormoyeux","department":"51","center":{"lng":3.9147,"lat":49.1093},"population":128},{"code":"51195","name":"Couvrot","department":"51","center":{"lng":4.5759,"lat":48.7644},"population":796},{"code":"51250","name":"Fismes","department":"51","center":{"lng":3.6794,"lat":49.308},"population":5884},{"code":"51272","name":"Givry-en-Argonne","department":"51","center":{"lng":4.9113,"lat":48.9482},"population":451},{"code":"51294","name":"Hourges","department":"51","center":{"lng":3.7693,"lat":49.2801},"population":84},{"code":"51371","name":"Moivre","department":"51","center":{"lng":4.6743,"lat":48.9426},"population":54},{"code":"51393","name":"Nanteuil-la-Forêt","department":"51","center":{"lng":3.9229,"lat":49.1307},"population":300},{"code":"51470","name":"Rouvroy-Ripont","department":"51","center":{"lng":4.7051,"lat":49.2211},"population":3},{"code":"51492","name":"Saint-Just-Sauvage","department":"51","center":{"lng":3.7689,"lat":48.5497},"population":1425},{"code":"51591","name":"Vandeuil","department":"51","center":{"lng":3.7942,"lat":49.2822},"population":176},{"code":"52042","name":"Beauchemin","department":"52","center":{"lng":5.2491,"lat":47.9171},"population":111},{"code":"52064","name":"Bourmont-entre-Meuse-et-Mouzon","department":"52","center":{"lng":5.6123,"lat":48.2225},"population":751},{"code":"52141","name":"Condes","department":"52","center":{"lng":5.1417,"lat":48.1419},"population":293},{"code":"52163","name":"Dampierre","department":"52","center":{"lng":5.4011,"lat":47.961},"population":385},{"code":"52185","name":"Enfonvelle","department":"52","center":{"lng":5.8643,"lat":47.9228},"population":71},{"code":"52240","name":"Heuilley-le-Grand","department":"52","center":{"lng":5.3965,"lat":47.7564},"population":190},{"code":"52284","name":"Leschères-sur-le-Blaiseron","department":"52","center":{"lng":5.0286,"lat":48.3323},"population":88},{"code":"52383","name":"Perrancey-les-Vieux-Moulins","department":"52","center":{"lng":5.2735,"lat":47.8569},"population":295},{"code":"52482","name":"Soulaucourt-sur-Mouzon","department":"52","center":{"lng":5.6967,"lat":48.1942},"population":98},{"code":"53010","name":"Assé-le-Bérenger","department":"53","center":{"lng":-0.3195,"lat":48.1553},"population":419},{"code":"53054","name":"Changé","department":"53","center":{"lng":-0.7961,"lat":48.1131},"population":6482},{"code":"53076","name":"Cossé-en-Champagne","department":"53","center":{"lng":-0.3233,"lat":47.9707},"population":307},{"code":"53098","name":"Fontaine-Couverte","department":"53","center":{"lng":-1.1344,"lat":47.9124},"population":423},{"code":"53131","name":"Lesbois","department":"53","center":{"lng":-0.7933,"lat":48.4519},"population":184},{"code":"53153","name":"Mézangers","department":"53","center":{"lng":-0.4547,"lat":48.2013},"population":625},{"code":"53175","name":"Parné-sur-Roc","department":"53","center":{"lng":-0.6607,"lat":48.0085},"population":1384},{"code":"53197","name":"Saint-Aignan-sur-Roë","department":"53","center":{"lng":-1.1487,"lat":47.8469},"population":934},{"code":"53230","name":"Saint-Julien-du-Terroux","department":"53","center":{"lng":-0.4095,"lat":48.4826},"population":257},{"code":"54022","name":"Arnaville","department":"54","center":{"lng":6.0251,"lat":49.0176},"population":561},{"code":"54044","name":"Barbas","department":"54","center":{"lng":6.8469,"lat":48.5714},"population":202},{"code":"54066","name":"Bettainvillers","department":"54","center":{"lng":5.9073,"lat":49.2982},"population":386},{"code":"54088","name":"Bouvron","department":"54","center":{"lng":5.8836,"lat":48.7385},"population":211},{"code":"54121","name":"Charmois","department":"54","center":{"lng":6.3908,"lat":48.5341},"population":197},{"code":"54143","name":"Crépey","department":"54","center":{"lng":5.9644,"lat":48.5289},"population":386},{"code":"54165","name":"Dommartemont","department":"54","center":{"lng":6.2163,"lat":48.717},"population":567},{"code":"54187","name":"Euvezin","department":"54","center":{"lng":5.8599,"lat":48.9173},"population":107},{"code":"54220","name":"Gémonville","department":"54","center":{"lng":5.8823,"lat":48.4193},"population":76},{"code":"54242","name":"Gye","department":"54","center":{"lng":5.8752,"lat":48.628},"population":281},{"code":"54264","name":"Houdelmont","department":"54","center":{"lng":6.0939,"lat":48.5378},"population":350},{"code":"54286","name":"Labry","department":"54","center":{"lng":5.868,"lat":49.1819},"population":1564},{"code":"54363","name":"Mercy-le-Haut","department":"54","center":{"lng":5.8233,"lat":49.3694},"population":268},{"code":"54385","name":"Morfontaine","department":"54","center":{"lng":5.8193,"lat":49.4453},"population":1076},{"code":"54440","name":"Puxe","department":"54","center":{"lng":5.7872,"lat":49.1513},"population":112},{"code":"54462","name":"Rosières-aux-Salines","department":"54","center":{"lng":6.341,"lat":48.5961},"population":2814},{"code":"54484","name":"Sainte-Pôle","department":"54","center":{"lng":6.8341,"lat":48.5057},"population":179},{"code":"54561","name":"Vennezey","department":"54","center":{"lng":6.4598,"lat":48.4428},"population":38},{"code":"54583","name":"Villey-le-Sec","department":"54","center":{"lng":5.9796,"lat":48.6582},"population":419},{"code":"55012","name":"Apremont-la-Forêt","department":"55","center":{"lng":5.6207,"lat":48.8467},"population":425},{"code":"55034","name":"Bazeilles-sur-Othain","department":"55","center":{"lng":5.4273,"lat":49.5007},"population":109},{"code":"55078","name":"Brieulles-sur-Meuse","department":"55","center":{"lng":5.1723,"lat":49.3283},"population":311},{"code":"55111","name":"Chauvoncourt","department":"55","center":{"lng":5.4936,"lat":48.894},"population":432},{"code":"55133","name":"Couvertpuis","department":"55","center":{"lng":5.3059,"lat":48.5802},"population":82},{"code":"55155","name":"Dombasle-en-Argonne","department":"55","center":{"lng":5.1971,"lat":49.1454},"population":374},{"code":"55177","name":"Érize-la-Petite","department":"55","center":{"lng":5.2417,"lat":48.9132},"population":43},{"code":"55199","name":"Froidos","department":"55","center":{"lng":5.1209,"lat":49.061},"population":91},{"code":"55210","name":"Gimécourt","department":"55","center":{"lng":5.3782,"lat":48.8475},"population":38},{"code":"55232","name":"Harville","department":"55","center":{"lng":5.7273,"lat":49.0945},"population":112},{"code":"55254","name":"Les Trois-Domaines","department":"55","center":{"lng":5.2921,"lat":48.9684},"population":121},{"code":"55276","name":"Landrecourt-Lempire","department":"55","center":{"lng":5.3317,"lat":49.0954},"population":223},{"code":"55298","name":"Loisey","department":"55","center":{"lng":5.3,"lat":48.7709},"population":278},{"code":"55331","name":"Méligny-le-Petit","department":"55","center":{"lng":5.4688,"lat":48.6574},"population":74},{"code":"55353","name":"Montsec","department":"55","center":{"lng":5.7254,"lat":48.8902},"population":76},{"code":"55375","name":"Nantillois","department":"55","center":{"lng":5.1327,"lat":49.3026},"population":63},{"code":"55397","name":"Pagny-la-Blanche-Côte","department":"55","center":{"lng":5.74,"lat":48.5376},"population":226},{"code":"55430","name":"Ribeaucourt","department":"55","center":{"lng":5.3551,"lat":48.5422},"population":71},{"code":"55452","name":"Saint-Amand-sur-Ornain","department":"55","center":{"lng":5.3928,"lat":48.6263},"population":60},{"code":"55474","name":"Sauvigny","department":"55","center":{"lng":5.7322,"lat":48.5006},"population":222},{"code":"55496","name":"Sorcy-Saint-Martin","department":"55","center":{"lng":5.659,"lat":48.7197},"population":1044},{"code":"55551","name":"Vigneulles-lès-Hattonchâtel","department":"55","center":{"lng":5.7346,"lat":48.9863},"population":1581},{"code":"55573","name":"Void-Vacon","department":"55","center":{"lng":5.6207,"lat":48.6788},"population":1606},{"code":"56002","name":"Ambon","department":"56","center":{"lng":-2.5365,"lat":47.5599},"population":2091},{"code":"56024","name":"Bréhan","department":"56","center":{"lng":-2.694,"lat":48.0705},"population":2298},{"code":"56046","name":"Crach","department":"56","center":{"lng":-2.9949,"lat":47.6307},"population":3458},{"code":"56068","name":"La Grée-Saint-Laurent","department":"56","center":{"lng":-2.5041,"lat":48.0023},"population":310},{"code":"56101","name":"Languidic","department":"56","center":{"lng":-3.1485,"lat":47.8295},"population":8046},{"code":"56123","name":"Malansac","department":"56","center":{"lng":-2.3091,"lat":47.6887},"population":2292},{"code":"56145","name":"Néant-sur-Yvel","department":"56","center":{"lng":-2.331,"lat":48.0208},"population":1070},{"code":"56167","name":"Plougoumelen","department":"56","center":{"lng":-2.8932,"lat":47.6589},"population":2599},{"code":"56189","name":"Radenac","department":"56","center":{"lng":-2.7095,"lat":47.9485},"population":1067},{"code":"56200","name":"Ruffiac","department":"56","center":{"lng":-2.2869,"lat":47.8122},"population":1396},{"code":"56222","name":"Saint-Jean-Brévelay","department":"56","center":{"lng":-2.7243,"lat":47.8314},"population":2860},{"code":"56244","name":"Sérent","department":"56","center":{"lng":-2.4993,"lat":47.8246},"population":3386},{"code":"57014","name":"Altrippe","department":"57","center":{"lng":6.8167,"lat":49.0274},"population":368},{"code":"57036","name":"Attilloncourt","department":"57","center":{"lng":6.385,"lat":48.8002},"population":99},{"code":"57058","name":"Behren-lès-Forbach","department":"57","center":{"lng":6.9451,"lat":49.1671},"population":6299},{"code":"57113","name":"Brouderdorff","department":"57","center":{"lng":7.1095,"lat":48.695},"population":971},{"code":"57179","name":"Distroff","department":"57","center":{"lng":6.2593,"lat":49.3366},"population":1853},{"code":"57212","name":"Féy","department":"57","center":{"lng":6.1029,"lat":49.0286},"population":741},{"code":"57234","name":"Frauenberg","department":"57","center":{"lng":7.1145,"lat":49.1343},"population":602},{"code":"57256","name":"Gravelotte","department":"57","center":{"lng":6.0251,"lat":49.1114},"population":813},{"code":"57278","name":"Guinzeling","department":"57","center":{"lng":6.8434,"lat":48.8812},"population":62},{"code":"57311","name":"Hellimer","department":"57","center":{"lng":6.8348,"lat":48.9931},"population":517},{"code":"57333","name":"Hommarting","department":"57","center":{"lng":7.146,"lat":48.7388},"population":831},{"code":"57355","name":"Kalhausen","department":"57","center":{"lng":7.1457,"lat":49.026},"population":779},{"code":"57377","name":"Landange","department":"57","center":{"lng":6.9582,"lat":48.6697},"population":242},{"code":"57399","name":"Lezey","department":"57","center":{"lng":6.6161,"lat":48.7542},"population":90},{"code":"57410","name":"Lhor","department":"57","center":{"lng":6.8715,"lat":48.8851},"population":145},{"code":"57454","name":"Mécleuves","department":"57","center":{"lng":6.279,"lat":49.0531},"population":1201},{"code":"57476","name":"Monneren","department":"57","center":{"lng":6.4163,"lat":49.3487},"population":401},{"code":"57498","name":"Neufchef","department":"57","center":{"lng":6.0139,"lat":49.3149},"population":2636},{"code":"57531","name":"Oudrenne","department":"57","center":{"lng":6.3519,"lat":49.3749},"population":730},{"code":"57553","name":"Pournoy-la-Chétive","department":"57","center":{"lng":6.1555,"lat":49.0181},"population":613},{"code":"57575","name":"Retonfey","department":"57","center":{"lng":6.3171,"lat":49.1342},"population":1332},{"code":"57597","name":"Rosselange","department":"57","center":{"lng":6.0637,"lat":49.2673},"population":2403},{"code":"57630","name":"Sarrebourg","department":"57","center":{"lng":7.0476,"lat":48.7329},"population":12274},{"code":"57652","name":"Sillegny","department":"57","center":{"lng":6.1435,"lat":48.9865},"population":633},{"code":"57674","name":"Tincry","department":"57","center":{"lng":6.4049,"lat":48.9077},"population":173},{"code":"57696","name":"Varsberg","department":"57","center":{"lng":6.6174,"lat":49.1748},"population":972},{"code":"57751","name":"Woippy","department":"57","center":{"lng":6.1552,"lat":49.1651},"population":14394},{"code":"58004","name":"Alluy","department":"58","center":{"lng":3.6417,"lat":47.036},"population":368},{"code":"58026","name":"Beaulieu","department":"58","center":{"lng":3.536,"lat":47.2593},"population":143},{"code":"58048","name":"Cessy-les-Bois","department":"58","center":{"lng":3.2194,"lat":47.3332},"population":114},{"code":"58103","name":"Dornecy","department":"58","center":{"lng":3.5891,"lat":47.4428},"population":457},{"code":"58125","name":"Gien-sur-Cure","department":"58","center":{"lng":4.0892,"lat":47.1425},"population":90},{"code":"58147","name":"Lurcy-le-Bourg","department":"58","center":{"lng":3.3962,"lat":47.167},"population":274},{"code":"58169","name":"Moissy-Moulinot","department":"58","center":{"lng":3.7053,"lat":47.3275},"population":13},{"code":"58202","name":"Ougny","department":"58","center":{"lng":3.7103,"lat":47.0751},"population":27},{"code":"58224","name":"Ruages","department":"58","center":{"lng":3.6831,"lat":47.3097},"population":85},{"code":"58246","name":"Saint-Honoré-les-Bains","department":"58","center":{"lng":3.8556,"lat":46.8991},"population":687},{"code":"58268","name":"Saint-Seine","department":"58","center":{"lng":3.8152,"lat":46.7253},"population":186},{"code":"58301","name":"Vandenesse","department":"58","center":{"lng":3.7766,"lat":46.912},"population":293},{"code":"59016","name":"Armbouts-Cappel","department":"59","center":{"lng":2.3506,"lat":50.9823},"population":2097},{"code":"59038","name":"Avesnes-le-Sec","department":"59","center":{"lng":3.3725,"lat":50.246},"population":1453},{"code":"59115","name":"Brunémont","department":"59","center":{"lng":3.1436,"lat":50.274},"population":711},{"code":"59137","name":"Catillon-sur-Sambre","department":"59","center":{"lng":3.6429,"lat":50.0738},"population":783},{"code":"59159","name":"Craywick","department":"59","center":{"lng":2.223,"lat":50.9698},"population":770},{"code":"59214","name":"Estrées","department":"59","center":{"lng":3.0721,"lat":50.2986},"population":1121},{"code":"59236","name":"Flesquières","department":"59","center":{"lng":3.1195,"lat":50.1257},"population":269},{"code":"59258","name":"Genech","department":"59","center":{"lng":3.2254,"lat":50.529},"population":2811},{"code":"59313","name":"Hordain","department":"59","center":{"lng":3.3295,"lat":50.261},"population":1448},{"code":"59335","name":"Lecelles","department":"59","center":{"lng":3.3964,"lat":50.4766},"population":3048},{"code":"59357","name":"La Longueville","department":"59","center":{"lng":3.8764,"lat":50.2984},"population":2061},{"code":"59379","name":"Marcq-en-Ostrevent","department":"59","center":{"lng":3.2334,"lat":50.2889},"population":751},{"code":"59412","name":"Montay","department":"59","center":{"lng":3.532,"lat":50.1238},"population":275},{"code":"59434","name":"Nivelle","department":"59","center":{"lng":3.4645,"lat":50.4681},"population":1393},{"code":"59456","name":"Pecquencourt","department":"59","center":{"lng":3.2197,"lat":50.3755},"population":6160},{"code":"59478","name":"Quaëdypre","department":"59","center":{"lng":2.4626,"lat":50.9378},"population":1122},{"code":"59511","name":"Rosult","department":"59","center":{"lng":3.3607,"lat":50.4548},"population":1997},{"code":"59533","name":"Saint-Hilaire-lez-Cambrai","department":"59","center":{"lng":3.4197,"lat":50.1796},"population":1557},{"code":"59555","name":"Sars-Poteries","department":"59","center":{"lng":4.0486,"lat":50.1629},"population":1411},{"code":"59577","name":"Staple","department":"59","center":{"lng":2.446,"lat":50.7516},"population":715},{"code":"59599","name":"Tourcoing","department":"59","center":{"lng":3.1577,"lat":50.721},"population":99160},{"code":"59610","name":"Verchain-Maugré","department":"59","center":{"lng":3.4598,"lat":50.265},"population":1103},{"code":"59632","name":"Wallers","department":"59","center":{"lng":3.3944,"lat":50.3745},"population":5618},{"code":"59654","name":"Waziers","department":"59","center":{"lng":3.1121,"lat":50.3841},"population":7312},{"code":"60061","name":"Belloy","department":"60","center":{"lng":2.6539,"lat":49.5335},"population":70},{"code":"60083","name":"Bonneuil-en-Valois","department":"60","center":{"lng":2.9851,"lat":49.2796},"population":976},{"code":"60160","name":"Conchy-les-Pots","department":"60","center":{"lng":2.7371,"lat":49.6071},"population":753},{"code":"60182","name":"Le Crocq","department":"60","center":{"lng":2.189,"lat":49.6239},"population":178},{"code":"60281","name":"Gournay-sur-Aronde","department":"60","center":{"lng":2.6934,"lat":49.5018},"population":535},{"code":"60380","name":"Mareuil-sur-Ourcq","department":"60","center":{"lng":3.0719,"lat":49.1393},"population":1589},{"code":"61051","name":"Boitron","department":"61","center":{"lng":0.2687,"lat":48.5696},"population":348},{"code":"61095","name":"La Chapelle-Biche","department":"61","center":{"lng":-0.6231,"lat":48.7139},"population":532},{"code":"61150","name":"Échauffour","department":"61","center":{"lng":0.3949,"lat":48.7352},"population":730},{"code":"61194","name":"Monts-sur-Orne","department":"61","center":{"lng":-0.1194,"lat":48.7509},"population":874},{"code":"61271","name":"Le Ménil-Scelleur","department":"61","center":{"lng":-0.124,"lat":48.614},"population":87},{"code":"61293","name":"Mortagne-au-Perche","department":"61","center":{"lng":0.5642,"lat":48.5189},"population":3857},{"code":"61370","name":"Saint-Brice","department":"61","center":{"lng":-0.6398,"lat":48.5486},"population":149},{"code":"61392","name":"Saint-Germain-d'Aunay","department":"61","center":{"lng":0.3809,"lat":48.93},"population":117},{"code":"61491","name":"Tourouvre au Perche","department":"61","center":{"lng":0.6321,"lat":48.6065},"population":2989},{"code":"62041","name":"Arras","department":"62","center":{"lng":2.7679,"lat":50.2893},"population":42621},{"code":"62063","name":"Avesnes-le-Comte","department":"62","center":{"lng":2.533,"lat":50.2688},"population":1817},{"code":"62085","name":"Basseux","department":"62","center":{"lng":2.6463,"lat":50.2271},"population":131},{"code":"62140","name":"Bléquin","department":"62","center":{"lng":1.973,"lat":50.6653},"population":485},{"code":"62162","name":"Bourecq","department":"62","center":{"lng":2.4382,"lat":50.5781},"population":575},{"code":"62184","name":"Buissy","department":"62","center":{"lng":3.0291,"lat":50.2026},"population":287},{"code":"62261","name":"Cucq","department":"62","center":{"lng":1.6116,"lat":50.4907},"population":5165},{"code":"62283","name":"Écoivres","department":"62","center":{"lng":2.2853,"lat":50.3238},"population":126},{"code":"62360","name":"Fréthun","department":"62","center":{"lng":1.8215,"lat":50.9096},"population":1393},{"code":"62382","name":"Gouy-Saint-André","department":"62","center":{"lng":1.9111,"lat":50.3739},"population":661},{"code":"62481","name":"Labroye","department":"62","center":{"lng":1.9825,"lat":50.2945},"population":143},{"code":"62580","name":"Monchy-Breton","department":"62","center":{"lng":2.4349,"lat":50.3979},"population":527},{"code":"63031","name":"Beaulieu","department":"63","center":{"lng":3.2845,"lat":45.4437},"population":474},{"code":"63053","name":"Briffons","department":"63","center":{"lng":2.6671,"lat":45.6954},"population":265},{"code":"63075","name":"Chamalières","department":"63","center":{"lng":3.0605,"lat":45.7741},"population":17591},{"code":"63097","name":"Chassagne","department":"63","center":{"lng":3.0645,"lat":45.4914},"population":81},{"code":"63130","name":"La Crouzille","department":"63","center":{"lng":2.7501,"lat":46.1727},"population":259},{"code":"63152","name":"Espinasse","department":"63","center":{"lng":2.7159,"lat":46.0347},"population":277},{"code":"63174","name":"Grandval","department":"63","center":{"lng":3.6514,"lat":45.5983},"population":119},{"code":"63196","name":"Limons","department":"63","center":{"lng":3.4445,"lat":45.9775},"population":729},{"code":"63251","name":"Neuf-Église","department":"63","center":{"lng":2.8659,"lat":46.1021},"population":320},{"code":"63273","name":"Pérignat-sur-Allier","department":"63","center":{"lng":3.2333,"lat":45.7272},"population":1492},{"code":"63295","name":"Randan","department":"63","center":{"lng":3.363,"lat":46.0122},"population":1622},{"code":"63350","name":"Saint-Georges-sur-Allier","department":"63","center":{"lng":3.2581,"lat":45.7166},"population":1352},{"code":"63372","name":"Saint-Laure","department":"63","center":{"lng":3.2925,"lat":45.8974},"population":694},{"code":"63394","name":"Saint-Romain","department":"63","center":{"lng":3.9026,"lat":45.4936},"population":197},{"code":"63471","name":"Youx","department":"63","center":{"lng":2.8035,"lat":46.1405},"population":871},{"code":"64021","name":"Andoins","department":"64","center":{"lng":-0.2258,"lat":43.3008},"population":724},{"code":"64043","name":"Argelos","department":"64","center":{"lng":-0.3466,"lat":43.4489},"population":274},{"code":"64065","name":"Ascain","department":"64","center":{"lng":-1.6284,"lat":43.3383},"population":4561},{"code":"64087","name":"Baigts-de-Béarn","department":"64","center":{"lng":-0.8465,"lat":43.5235},"population":867},{"code":"64120","name":"Beyrie-sur-Joyeuse","department":"64","center":{"lng":-1.0921,"lat":43.3059},"population":536},{"code":"64142","name":"Bougarber","department":"64","center":{"lng":-0.473,"lat":43.391},"population":857},{"code":"64186","name":"Charre","department":"64","center":{"lng":-0.8504,"lat":43.3087},"population":220},{"code":"64241","name":"Géronce","department":"64","center":{"lng":-0.716,"lat":43.2251},"population":490},{"code":"64263","name":"L'Hôpital-d'Orion","department":"64","center":{"lng":-0.8557,"lat":43.4457},"population":131},{"code":"64285","name":"Juxue","department":"64","center":{"lng":-1.0404,"lat":43.2286},"population":200},{"code":"64340","name":"Lichans-Sunhar","department":"64","center":{"lng":-0.8821,"lat":43.0931},"population":85},{"code":"64362","name":"Luxe-Sumberraute","department":"64","center":{"lng":-1.0779,"lat":43.3513},"population":399},{"code":"64461","name":"Puyoô","department":"64","center":{"lng":-0.9039,"lat":43.5323},"population":1089},{"code":"64483","name":"Saint-Jean-de-Luz","department":"64","center":{"lng":-1.6337,"lat":43.3934},"population":14690},{"code":"64560","name":"Viven","department":"64","center":{"lng":-0.3757,"lat":43.4613},"population":175},{"code":"65011","name":"Les Angles","department":"65","center":{"lng":0.0039,"lat":43.0838},"population":131},{"code":"65033","name":"Arrodets-ez-Angles","department":"65","center":{"lng":0.0404,"lat":43.0701},"population":113},{"code":"65055","name":"Ayros-Arbouix","department":"65","center":{"lng":-0.0658,"lat":43.0004},"population":345},{"code":"65077","name":"Beaucens","department":"65","center":{"lng":0.0182,"lat":42.9546},"population":417},{"code":"65099","name":"Bordères-Louron","department":"65","center":{"lng":0.4216,"lat":42.8688},"population":143},{"code":"65110","name":"Bugard","department":"65","center":{"lng":0.3124,"lat":43.2539},"population":97},{"code":"65132","name":"Castéra-Lanusse","department":"65","center":{"lng":0.2902,"lat":43.1716},"population":45},{"code":"65154","name":"Créchets","department":"65","center":{"lng":0.5667,"lat":43.0012},"population":46},{"code":"65176","name":"Ferrières","department":"65","center":{"lng":-0.2379,"lat":43.0114},"population":87},{"code":"65198","name":"Gerde","department":"65","center":{"lng":0.1794,"lat":43.0589},"population":1194},{"code":"65231","name":"Izaux","department":"65","center":{"lng":0.3771,"lat":43.0577},"population":210},{"code":"65253","name":"Lamarque-Rustaing","department":"65","center":{"lng":0.2954,"lat":43.2746},"population":54},{"code":"65275","name":"Lies","department":"65","center":{"lng":0.2059,"lat":43.0606},"population":74},{"code":"65297","name":"Mansan","department":"65","center":{"lng":0.1913,"lat":43.3417},"population":40},{"code":"65330","name":"Nouilhan","department":"65","center":{"lng":0.0437,"lat":43.4257},"population":230},{"code":"65352","name":"Ouzous","department":"65","center":{"lng":-0.1042,"lat":43.0359},"population":206},{"code":"65374","name":"Puydarrieux","department":"65","center":{"lng":0.4006,"lat":43.2895},"population":231},{"code":"65396","name":"Saint-Savin","department":"65","center":{"lng":-0.0913,"lat":42.9739},"population":366},{"code":"65451","name":"Trébons","department":"65","center":{"lng":0.1071,"lat":43.0952},"population":757},{"code":"65473","name":"Villelongue","department":"65","center":{"lng":-0.021,"lat":42.9389},"population":353},{"code":"66001","name":"L'Albère","department":"66","center":{"lng":2.897,"lat":42.4762},"population":63},{"code":"66023","name":"Bouleternère","department":"66","center":{"lng":2.5878,"lat":42.6435},"population":953},{"code":"66045","name":"Catllar","department":"66","center":{"lng":2.4186,"lat":42.6407},"population":724},{"code":"66067","name":"Err","department":"66","center":{"lng":2.0678,"lat":42.4131},"population":714},{"code":"66089","name":"Joch","department":"66","center":{"lng":2.5244,"lat":42.6151},"population":396},{"code":"66100","name":"Llo","department":"66","center":{"lng":2.0895,"lat":42.4358},"population":156},{"code":"66122","name":"Nohèdes","department":"66","center":{"lng":2.2547,"lat":42.6256},"population":60},{"code":"66144","name":"Pollestres","department":"66","center":{"lng":2.8736,"lat":42.6373},"population":5489},{"code":"66166","name":"Sahorre","department":"66","center":{"lng":2.3565,"lat":42.5255},"population":399},{"code":"66188","name":"Saint-Pierre-dels-Forcats","department":"66","center":{"lng":2.114,"lat":42.4778},"population":261},{"code":"66221","name":"Valmanya","department":"66","center":{"lng":2.5089,"lat":42.5251},"population":34},{"code":"67013","name":"Asswiller","department":"67","center":{"lng":7.2254,"lat":48.8792},"population":269},{"code":"67035","name":"Berstheim","department":"67","center":{"lng":7.6792,"lat":48.7923},"population":513},{"code":"67057","name":"Bosselshausen","department":"67","center":{"lng":7.5089,"lat":48.8062},"population":176},{"code":"67079","name":"Crœttwiller","department":"67","center":{"lng":8.0386,"lat":48.9313},"population":181},{"code":"67112","name":"Duttlenheim","department":"67","center":{"lng":7.5706,"lat":48.5248},"population":2957},{"code":"67134","name":"Eschwiller","department":"67","center":{"lng":7.1119,"lat":48.8569},"population":174},{"code":"67156","name":"Geudertheim","department":"67","center":{"lng":7.7652,"lat":48.7063},"population":2719},{"code":"67178","name":"Gungwiller","department":"67","center":{"lng":7.1512,"lat":48.8792},"population":286},{"code":"67233","name":"Kertzfeld","department":"67","center":{"lng":7.5603,"lat":48.3912},"population":1222},{"code":"67255","name":"Lalaye","department":"67","center":{"lng":7.2341,"lat":48.3384},"population":491},{"code":"67277","name":"Mackenheim","department":"67","center":{"lng":7.585,"lat":48.1819},"population":771},{"code":"67299","name":"Mollkirch","department":"67","center":{"lng":7.3635,"lat":48.5078},"population":881},{"code":"67310","name":"Mussig","department":"67","center":{"lng":7.5223,"lat":48.2296},"population":1124},{"code":"67354","name":"Odratzheim","department":"67","center":{"lng":7.4927,"lat":48.6002},"population":526},{"code":"67398","name":"Richtolsheim","department":"67","center":{"lng":7.6048,"lat":48.2243},"population":378},{"code":"67453","name":"Schœnau","department":"67","center":{"lng":7.6511,"lat":48.229},"population":607},{"code":"67475","name":"Sparsbach","department":"67","center":{"lng":7.41,"lat":48.8752},"population":242},{"code":"67497","name":"Uhlwiller","department":"67","center":{"lng":7.6805,"lat":48.8191},"population":674},{"code":"67530","name":"Wickersheim-Wilshausen","department":"67","center":{"lng":7.5361,"lat":48.7808},"population":394},{"code":"67552","name":"Wolfskirchen","department":"67","center":{"lng":7.0804,"lat":48.8759},"population":338},{"code":"68025","name":"Bendorf","department":"68","center":{"lng":7.2812,"lat":47.4847},"population":251},{"code":"68069","name":"Dessenheim","department":"68","center":{"lng":7.4832,"lat":47.9714},"population":1441},{"code":"68102","name":"Geishouse","department":"68","center":{"lng":7.0727,"lat":47.8893},"population":429},{"code":"68124","name":"Hausgauen","department":"68","center":{"lng":7.3153,"lat":47.6048},"population":372},{"code":"68146","name":"Houssen","department":"68","center":{"lng":7.3721,"lat":48.135},"population":2358},{"code":"68168","name":"Knœringue","department":"68","center":{"lng":7.4001,"lat":47.5648},"population":376},{"code":"68201","name":"Masevaux-Niederbruck","department":"68","center":{"lng":6.9764,"lat":47.7819},"population":3615},{"code":"68223","name":"Muhlbach-sur-Munster","department":"68","center":{"lng":7.0651,"lat":48.025},"population":817},{"code":"68245","name":"Obermorschwiller","department":"68","center":{"lng":7.3179,"lat":47.6421},"population":408},{"code":"68267","name":"Reiningue","department":"68","center":{"lng":7.2202,"lat":47.7548},"population":1923},{"code":"68289","name":"Ruelisheim","department":"68","center":{"lng":7.3454,"lat":47.82},"population":2486},{"code":"68300","name":"Sausheim","department":"68","center":{"lng":7.4041,"lat":47.7841},"population":5597},{"code":"68322","name":"Steinbach","department":"68","center":{"lng":7.1397,"lat":47.8245},"population":1357},{"code":"68344","name":"Urbès","department":"68","center":{"lng":6.9356,"lat":47.8779},"population":437},{"code":"68366","name":"Wickerschwihr","department":"68","center":{"lng":7.4381,"lat":48.112},"population":720},{"code":"69037","name":"Chambost-Allières","department":"69","center":{"lng":4.509,"lat":46.017},"population":819},{"code":"69059","name":"Civrieux-d'Azergues","department":"69","center":{"lng":4.7121,"lat":45.8573},"population":1633},{"code":"69114","name":"Porte des Pierres Dorées","department":"69","center":{"lng":4.6509,"lat":45.9628},"population":4079},{"code":"69136","name":"Montagny","department":"69","center":{"lng":4.752,"lat":45.6296},"population":3212},{"code":"69235","name":"Saint-Romain-en-Gal","department":"69","center":{"lng":4.8307,"lat":45.5402},"population":1990},{"code":"69257","name":"Vaux-en-Beaujolais","department":"69","center":{"lng":4.5801,"lat":46.0459},"population":1153},{"code":"69279","name":"Jonage","department":"69","center":{"lng":5.0377,"lat":45.7886},"population":6109},{"code":"70060","name":"Beaumotte-lès-Pin","department":"70","center":{"lng":5.8278,"lat":47.3178},"population":283},{"code":"70082","name":"Bouhans-lès-Montbozon","department":"70","center":{"lng":6.282,"lat":47.4858},"population":125},{"code":"70181","name":"Courcuire","department":"70","center":{"lng":5.8293,"lat":47.3479},"population":138},{"code":"70280","name":"Gray-la-Ville","department":"70","center":{"lng":5.5705,"lat":47.4391},"population":928},{"code":"71050","name":"Bourgvilain","department":"71","center":{"lng":4.6342,"lat":46.3642},"population":360},{"code":"71072","name":"Cersot","department":"71","center":{"lng":4.6342,"lat":46.7069},"population":145},{"code":"71094","name":"La Chapelle-sous-Brancion","department":"71","center":{"lng":4.7896,"lat":46.5533},"population":142},{"code":"71171","name":"Dennevy","department":"71","center":{"lng":4.6407,"lat":46.8661},"population":299},{"code":"71193","name":"Étrigny","department":"71","center":{"lng":4.7918,"lat":46.5907},"population":481},{"code":"71270","name":"Mâcon","department":"71","center":{"lng":4.8083,"lat":46.3265},"population":34759},{"code":"71292","name":"Mellecey","department":"71","center":{"lng":4.757,"lat":46.8076},"population":1311},{"code":"71391","name":"Saint-Bérain-sur-Dheune","department":"71","center":{"lng":4.6167,"lat":46.819},"population":542},{"code":"71490","name":"Saint-Vincent-Bragny","department":"71","center":{"lng":4.1246,"lat":46.5286},"population":997},{"code":"72040","name":"La Bosse","department":"72","center":{"lng":0.5551,"lat":48.164},"population":153},{"code":"72062","name":"La Chapelle-du-Bois","department":"72","center":{"lng":0.5814,"lat":48.2234},"population":779},{"code":"72084","name":"Clermont-Créans","department":"72","center":{"lng":-0.0197,"lat":47.7292},"population":1276},{"code":"72161","name":"Lhomme","department":"72","center":{"lng":0.5663,"lat":47.759},"population":938},{"code":"72183","name":"Marçon","department":"72","center":{"lng":0.5287,"lat":47.7041},"population":1063},{"code":"72260","name":"Ruaudin","department":"72","center":{"lng":0.2657,"lat":47.9443},"population":3492},